mall_code,name,city_name,district_name,lat,lng,amap_poi_id,brand_count,store_count,search_query_dev,search_query_opened
MALL_E71B6B76,购物中心,大理白族自治州,南涧彝族自治县,24.834571,100.311985,B0J10CDZRX,30,2014,大理白族自治州购物中心 开发商,大理白族自治州购物中心 开业时间
MALL_EA53CB51,国际广场,湛江市,雷州市,20.913621,110.078554,B0FFFA7GO1,22,160,湛江市国际广场 开发商,湛江市国际广场 开业时间
MALL_5BB5ADF0,购物广场,包头市,白云鄂博矿区,41.772741,109.969163,B0HRVR27WG,19,681,包头市购物广场 开发商,包头市购物广场 开业时间
MALL_67CC3CE7,商业中心,呼和浩特市,回民区,40.835912,111.611276,B0FFKLHLBQ,17,163,呼和浩特市商业中心 开发商,呼和浩特市商业中心 开业时间
MALL_AF0DAEC2,丹尼斯,安阳市,文峰区,36.099409,114.350414,B01740NQP3,17,59,安阳市丹尼斯 开发商,安阳市丹尼斯 开业时间
MALL_AFA399FC,中心商场,楚雄彝族自治州,武定县,25.529242,102.404613,B0FFHLZ5ZH,17,30,楚雄彝族自治州中心商场 开发商,楚雄彝族自治州中心商场 开业时间
MALL_8FBDA589,商业广场,昭通市,威信县,27.844946,105.043869,B0JGT9Y4FW,16,374,昭通市商业广场 开发商,昭通市商业广场 开业时间
MALL_33420260,奥特莱斯,宜宾市,屏山县,28.814775,104.370625,B0L216T6TB,16,170,宜宾市奥特莱斯 开发商,宜宾市奥特莱斯 开业时间
MALL_B0C64AB1,八佰伴,宣城市,宣州区,30.944871,118.75402,B0FFF4PAOU,15,43,宣城市八佰伴 开发商,宣城市八佰伴 开业时间
MALL_E98B1D19,万科广场,北京城区,大兴区,39.805672,116.459424,B0FFGKQX49,14,87,北京城区万科广场 开发商,北京城区万科广场 开业时间
MALL_0529A8D4,城市广场,清远市,阳山县,24.476724,112.643565,B02FB0P0L9,13,217,清远市城市广场 开发商,清远市城市广场 开业时间
MALL_F30A70BD,百货大楼,保山市,施甸县,24.722956,99.184718,B0FFHPBVA1,13,158,保山市百货大楼 开发商,保山市百货大楼 开业时间
MALL_9AE7C500,银座商城,东营市,东营区,37.444741,118.664684,B022201ZEL,13,58,东营市银座商城 开发商,东营市银座商城 开业时间
MALL_E6C13EA3,大融城,上海城区,嘉定区,31.33073,121.279758,B0FFG6P1CM,13,50,上海城区大融城 开发商,上海城区大融城 开业时间
MALL_A23551C7,国贸商城,北京城区,朝阳区,39.910882,116.459288,B000A853CF,13,16,北京城区国贸商城 开发商,北京城区国贸商城 开业时间
MALL_5233CFF7,中心广场,黄山市,祁门县,29.852997,117.717844,B022F00NPG,12,78,黄山市中心广场 开发商,黄山市中心广场 开业时间
MALL_12C51384,购物公园,武汉市,江夏区,30.459139,114.409387,B0FFHCWOWJ,12,54,武汉市购物公园 开发商,武汉市购物公园 开业时间
MALL_82283205,北国商城,晋城市,阳城县,35.482286,112.423768,B0LBMCR21O,12,30,晋城市北国商城 开发商,晋城市北国商城 开业时间
MALL_9BD07654,假日广场,中山市,南朗街道,22.520708,113.389957,B02F80OU6N,12,27,中山市假日广场 开发商,中山市假日广场 开业时间
MALL_892421EF,振华商厦,威海市,荣成市,37.163447,122.427713,B02770INBI,12,24,威海市振华商厦 开发商,威海市振华商厦 开业时间
MALL_0B4F0B01,海信广场,长沙市,天心区,28.189823,112.96982,B0FFGFQ9U3,12,22,长沙市海信广场 开发商,长沙市海信广场 开业时间
MALL_3C2878D9,杭州大厦,杭州市,拱墅区,30.274286,120.160756,B0FFGF8BM8,12,16,杭州市杭州大厦 开发商,杭州市杭州大厦 开业时间
MALL_0BE6FE11,商业大厦,东营市,垦利区,37.583417,118.561382,B0FFHEN921,11,43,东营市商业大厦 开发商,东营市商业大厦 开业时间
MALL_3C8FF02F,中骏世界城,梅州市,梅江区,24.26035,116.122764,B0H6PAM2IW,11,33,梅州市中骏世界城 开发商,梅州市中骏世界城 开业时间
MALL_7642EE7D,武商MALL,武汉市,江汉区,30.579913,114.271169,B001B0JYZC,11,13,武汉市武商MALL 开发商,武汉市武商MALL 开业时间
MALL_34E7DE2C,生活广场,临沂市,罗庄区,34.970072,118.290182,B0IG099ZFO,10,191,临沂市生活广场 开发商,临沂市生活广场 开业时间
MALL_2FD2191A,商贸城,红河哈尼族彝族自治州,红河县,23.365618,102.41479,B0FFKDMXUY,10,110,红河哈尼族彝族自治州商贸城 开发商,红河哈尼族彝族自治州商贸城 开业时间
MALL_735264CB,财富广场,呼和浩特市,和林格尔县,40.380695,111.825575,B0FFHG6J7H,10,68,呼和浩特市财富广场 开发商,呼和浩特市财富广场 开业时间
MALL_CA15F84A,欧亚卖场,兴安盟,乌兰浩特市,46.0554,122.097767,B0H334P12T,10,33,兴安盟欧亚卖场 开发商,兴安盟欧亚卖场 开业时间
MALL_3CFD26C1,天河城,广州市,天河区,23.132333,113.322605,B00141UE4E,10,32,广州市天河城 开发商,广州市天河城 开业时间
MALL_B6B162CC,弘阳广场,合肥市,蜀山区,31.852211,117.237524,B0FFJ12CU5,10,27,合肥市弘阳广场 开发商,合肥市弘阳广场 开业时间
MALL_F85E08AB,久光百货,上海城区,静安区,31.223995,121.446199,B0FFFT33UG,10,20,上海城区久光百货 开发商,上海城区久光百货 开业时间
MALL_5ABC316F,缤纷城,广州市,黄埔区,23.323865,113.548507,B0FFKU16FO,10,18,广州市缤纷城 开发商,广州市缤纷城 开业时间
MALL_1C94B2A4,兰州中心,兰州市,七里河区,36.069013,103.774761,B0FFFZRDD9,10,11,兰州市兰州中心 开发商,兰州市兰州中心 开业时间
MALL_D9EFE885,武商梦时代,武汉市,武昌区,30.528691,114.3408,B0FFMCDLTX,10,10,武汉市武商梦时代 开发商,武汉市武商梦时代 开业时间
MALL_FB74CC3A,世纪广场,怒江傈僳族自治州,泸水市,25.850417,98.854871,B037613K2O,9,74,怒江傈僳族自治州世纪广场 开发商,怒江傈僳族自治州世纪广场 开业时间
MALL_7E28FD1A,东方广场,兴安盟,乌兰浩特市,46.0735,122.070919,B01E20MT4L,9,47,兴安盟东方广场 开发商,兴安盟东方广场 开业时间
MALL_8E7BF9E1,新玛特,许昌市,魏都区,34.022251,113.829023,B017601AG5,9,31,许昌市新玛特 开发商,许昌市新玛特 开业时间
MALL_F5643526,中央广场,滁州市,明光市,32.784793,118.004333,B0FFGCIKSQ,9,29,滁州市中央广场 开发商,滁州市中央广场 开业时间
MALL_A1EB7B14,华联商厦,乌兰察布市,化德县,41.902224,114.019786,B01DA14DJR,9,28,乌兰察布市华联商厦 开发商,乌兰察布市华联商厦 开业时间
MALL_FEAA028D,欧亚商都,吉林市,昌邑区,43.850588,126.588399,B01B00P3KK,9,14,吉林市欧亚商都 开发商,吉林市欧亚商都 开业时间
MALL_89E7B86B,览秀城,青岛市,城阳区,36.263156,120.309897,B0FFKY8999,9,13,青岛市览秀城 开发商,青岛市览秀城 开业时间
MALL_AA3EEA82,阳光城,南通市,通州区,32.049642,121.077714,B02010VFF0,9,13,南通市阳光城 开发商,南通市阳光城 开业时间
MALL_F17917C4,开元商城,菏泽市,郓城县,35.534906,115.87467,B0FFG0FH5A,9,11,菏泽市开元商城 开发商,菏泽市开元商城 开业时间
MALL_8056706C,居然之家,长春市,南关区,43.85317,125.378894,B01AF0002F,8,104,长春市居然之家 开发商,长春市居然之家 开业时间
MALL_AFCB5611,招商花园城,上海城区,浦东新区,31.263478,121.658584,B0I1Y56U0T,8,53,上海城区招商花园城 开发商,上海城区招商花园城 开业时间
MALL_8A6B836A,大世界,保定市,定州市,38.517218,114.986743,B0138027UM,8,41,保定市大世界 开发商,保定市大世界 开业时间
MALL_7A39FA5F,世纪城,江门市,蓬江区,22.582432,113.084372,B0FFGDJ1D9,8,35,江门市世纪城 开发商,江门市世纪城 开业时间
MALL_069AAEB0,摩尔城,韶关市,武江区,24.79444,113.568829,B0FFHE3G8W,8,33,韶关市摩尔城 开发商,韶关市摩尔城 开业时间
MALL_5504E914,新世界百货,玉溪市,通海县,24.108619,102.75956,B0FFLECUDY,8,25,玉溪市新世界百货 开发商,玉溪市新世界百货 开业时间
MALL_A95BB3E1,大商新玛特,新乡市,凤泉区,35.384177,113.91421,B0FFJDSLFQ,8,23,新乡市大商新玛特 开发商,新乡市大商新玛特 开业时间
MALL_4D81D2ED,商贸中心,白山市,抚松县,42.333312,127.272168,B01B70M3NT,8,21,白山市商贸中心 开发商,白山市商贸中心 开业时间
MALL_B44DDC30,泰华城,潍坊市,坊子区,36.652665,119.157575,B0FFM9JL7L,8,21,潍坊市泰华城 开发商,潍坊市泰华城 开业时间
MALL_25E83FDB,人民广场,葫芦岛市,建昌县,40.814221,119.804589,B0FFL9KGPM,8,21,葫芦岛市人民广场 开发商,葫芦岛市人民广场 开业时间
MALL_ABB8DBDE,国际商贸城,普洱市,江城哈尼族彝族自治县,22.579139,101.867922,B0FFHOL208,8,19,普洱市国际商贸城 开发商,普洱市国际商贸城 开业时间
MALL_649116C1,悦然广场,佛山市,顺德区,22.931761,113.216206,B0FFIXPA90,8,16,佛山市悦然广场 开发商,佛山市悦然广场 开业时间
MALL_15A28783,奥园广场,九江市,瑞昌市,29.662574,115.659993,B0FFK59M8T,8,16,九江市奥园广场 开发商,九江市奥园广场 开业时间
MALL_E229E024,世界城,仙桃市,陈场镇,30.37087,113.450262,B02D80LXTY,8,15,仙桃市世界城 开发商,仙桃市世界城 开业时间
MALL_791CEA5F,中央商场,天津城区,武清区,39.370028,117.07139,B0FFH1DZEF,8,14,天津城区中央商场 开发商,天津城区中央商场 开业时间
MALL_B7705FDD,环球中心,成都市,武侯区,30.568744,104.063402,B001C8PLZ0,8,13,成都市环球中心 开发商,成都市环球中心 开业时间
MALL_60F9717B,丹尼斯百货,三门峡市,湖滨区,34.779112,111.1991,B0FFF368YJ,8,13,三门峡市丹尼斯百货 开发商,三门峡市丹尼斯百货 开业时间
MALL_25D19789,翠微百货,北京城区,丰台区,39.888439,116.265267,B000A8W57P,8,12,北京城区翠微百货 开发商,北京城区翠微百货 开业时间
MALL_8F5F2AAE,天悦城,长春市,榆树市,44.823187,126.556225,B0FFIIQMWO,8,12,长春市天悦城 开发商,长春市天悦城 开业时间
MALL_CA6E20A4,群光广场,成都市,锦江区,30.654024,104.076775,B001C8MPTN,8,12,成都市群光广场 开发商,成都市群光广场 开业时间
MALL_E59B4043,富力广场,天津城区,南开区,39.145914,117.173917,B0FFGY5MJ2,8,9,天津城区富力广场 开发商,天津城区富力广场 开业时间
MALL_8423BA67,国贸中心,洛阳市,西工区,34.671581,112.442666,B0H1FAF36B,8,9,洛阳市国贸中心 开发商,洛阳市国贸中心 开业时间
MALL_F06722B1,西安荟聚,西安市,雁塔区,34.172518,108.901422,B0GUKHBZ0E,8,9,西安市西安荟聚 开发商,西安市西安荟聚 开业时间
MALL_93149274,北京荟聚,北京城区,大兴区,39.788104,116.326497,B0FFFFP482,8,8,北京城区北京荟聚 开发商,北京城区北京荟聚 开业时间
MALL_91F7EA96,财富中心,西双版纳傣族自治州,景洪市,22.002443,100.798868,B02B30MGTM,7,41,西双版纳傣族自治州财富中心 开发商,西双版纳傣族自治州财富中心 开业时间
MALL_D150BB23,保利广场,烟台市,龙口市,37.639647,120.504116,B0FFLI7G4W,7,38,烟台市保利广场 开发商,烟台市保利广场 开业时间
MALL_5559BC35,中央大街,南宁市,良庆区,22.735906,108.325603,B0FFK015RO,7,38,南宁市中央大街 开发商,南宁市中央大街 开业时间
MALL_FDFFA353,方圆荟,成都市,双流区,30.405082,104.077667,B0HDUSI7UC,7,33,成都市方圆荟 开发商,成都市方圆荟 开业时间
MALL_6C743A4D,商业城,四平市,铁东区,43.16713,124.386807,B0FFK6OXJ7,7,31,四平市商业城 开发商,四平市商业城 开业时间
MALL_B48678B5,和谐广场,昆明市,五华区,25.101126,102.732031,B03670Y914,7,29,昆明市和谐广场 开发商,昆明市和谐广场 开业时间
MALL_0FDD13A1,金地广场,文山壮族苗族自治州,文山市,23.371546,104.237653,B0FFGBDKRL,7,28,文山壮族苗族自治州金地广场 开发商,文山壮族苗族自治州金地广场 开业时间
MALL_69BB2528,人民商场,呼伦贝尔市,海拉尔区,49.217746,119.74204,B01D60NFYI,7,22,呼伦贝尔市人民商场 开发商,呼伦贝尔市人民商场 开业时间
MALL_A2C2C977,时代城,广州市,黄埔区,23.111907,113.543415,B00141K609,7,22,广州市时代城 开发商,广州市时代城 开业时间
MALL_1315B0E2,恒基广场,百色市,右江区,23.898197,106.615436,B03080MPTB,7,22,百色市恒基广场 开发商,百色市恒基广场 开业时间
MALL_7DDEF6AB,中环广场,上海城区,黄浦区,31.222032,121.472938,B00155NEKV,7,18,上海城区中环广场 开发商,上海城区中环广场 开业时间
MALL_9E5FF9EA,国贸大厦,临汾市,洪洞县,36.259907,111.675991,B01650WLME,7,17,临汾市国贸大厦 开发商,临汾市国贸大厦 开业时间
MALL_6C1688D0,世贸广场,德宏傣族景颇族自治州,芒市,24.397743,98.559663,B0LA5CU8UP,7,16,德宏傣族景颇族自治州世贸广场 开发商,德宏傣族景颇族自治州世贸广场 开业时间
MALL_CDE11D78,太阳城,黔南布依族苗族自治州,惠水县,26.132056,106.659032,B0FFHB30XC,7,15,黔南布依族苗族自治州太阳城 开发商,黔南布依族苗族自治州太阳城 开业时间
MALL_93E96DDC,新华百货,中卫市,沙坡头区,37.516619,105.189333,B07A10MOE9,7,14,中卫市新华百货 开发商,中卫市新华百货 开业时间
MALL_7094362D,城市奥莱,南宁市,宾阳县,23.214525,108.811425,B0GUBCNK1R,7,14,南宁市城市奥莱 开发商,南宁市城市奥莱 开业时间
MALL_36588D96,中百大厦,潍坊市,临朐县,36.519022,118.541103,B0FFFX8BOP,7,13,潍坊市中百大厦 开发商,潍坊市中百大厦 开业时间
MALL_9D3AB208,又一城,常州市,武进区,31.70501,119.950817,B0FFF9UVJC,7,12,常州市又一城 开发商,常州市又一城 开业时间
MALL_D6580A3A,新都汇,洛阳市,宜阳县,34.517,112.193633,B017B0PP9J,7,12,洛阳市新都汇 开发商,洛阳市新都汇 开业时间
MALL_F783F990,置地广场,嘉兴市,嘉善县,30.82482,120.928371,B0FFH24DPE,7,12,嘉兴市置地广场 开发商,嘉兴市置地广场 开业时间
MALL_400D2BF5,星光广场,铜仁市,万山区,27.691948,109.168139,B0H23DQQEU,7,12,铜仁市星光广场 开发商,铜仁市星光广场 开业时间
MALL_757095E5,天一广场,保山市,隆阳区,25.112307,99.168709,B036B001Y0,7,11,保山市天一广场 开发商,保山市天一广场 开业时间
MALL_3B6BC80D,活力城,长春市,南关区,43.89115,125.334008,B01AF100JI,7,11,长春市活力城 开发商,长春市活力城 开业时间
MALL_5279F7E5,悠方购物中心,上海城区,杨浦区,31.329994,121.508465,B0FFHPNP7J,7,10,上海城区悠方购物中心 开发商,上海城区悠方购物中心 开业时间
MALL_DAAA27AA,国贸城,乌海市,海勃湾区,39.671746,106.820787,B01D90LSWJ,7,9,乌海市国贸城 开发商,乌海市国贸城 开业时间
MALL_35B8DFE2,龙德广场,北京城区,昌平区,40.059723,116.415538,B000A8VNOV,7,9,北京城区龙德广场 开发商,北京城区龙德广场 开业时间
MALL_6649CD91,优品道广场,成都市,新都区,30.757056,104.077764,B0FFG0GLWG,7,9,成都市优品道广场 开发商,成都市优品道广场 开业时间
MALL_509E3431,汉光百货,北京城区,西城区,39.909408,116.375191,B000A8UM79,7,8,北京城区汉光百货 开发商,北京城区汉光百货 开业时间
MALL_C600E480,世豪广场,成都市,武侯区,30.550119,104.044959,B0FFF9UNIK,7,8,成都市世豪广场 开发商,成都市世豪广场 开业时间
MALL_1B96D96B,中华广场,广州市,越秀区,23.12577,113.282536,B00140U0SG,7,8,广州市中华广场 开发商,广州市中华广场 开业时间
MALL_004DB2CA,江南环球港,常州市,新北区,31.840285,119.979663,B02070TSSC,7,8,常州市江南环球港 开发商,常州市江南环球港 开业时间
MALL_D623BB06,世博源,上海城区,浦东新区,31.183285,121.492654,B00155QZKZ,7,7,上海城区世博源 开发商,上海城区世博源 开业时间
MALL_5C618427,天府和悦广场,成都市,双流区,30.487008,104.084153,B0G1A707WB,7,7,成都市天府和悦广场 开发商,成都市天府和悦广场 开业时间
MALL_F3D2D127,金光华广场,深圳市,罗湖区,22.539409,114.119782,B02F37V5IR,7,7,深圳市金光华广场 开发商,深圳市金光华广场 开业时间
MALL_076B1339,仁恒梦中心,深圳市,龙岗区,22.729812,114.224709,B0H6PURGOQ,7,7,深圳市仁恒梦中心 开发商,深圳市仁恒梦中心 开业时间
MALL_5E81D8AF,嘉里城,沈阳市,沈河区,41.775668,123.436773,B0FFIP7QF6,7,7,沈阳市嘉里城 开发商,沈阳市嘉里城 开业时间
MALL_03727B91,信誉楼,德州市,宁津县,37.811651,116.863797,B0FFH8DBL9,6,88,德州市信誉楼 开发商,德州市信誉楼 开业时间
MALL_67A9E2A9,恒太城,眉山市,仁寿县,30.002338,104.160573,B0FFKCSU2B,6,37,眉山市恒太城 开发商,眉山市恒太城 开业时间
MALL_30DC9F0F,京东MALL,太原市,小店区,37.818147,112.557534,B0LBGRAAEE,6,24,太原市京东MALL 开发商,太原市京东MALL 开业时间
MALL_72B5CEED,巴黎春天,上海城区,宝山区,31.270628,121.41172,B00155MZB0,6,19,上海城区巴黎春天 开发商,上海城区巴黎春天 开业时间
MALL_8143FA56,万科里,深圳市,龙岗区,22.716803,114.250971,B0FFJGVNPN,6,19,深圳市万科里 开发商,深圳市万科里 开业时间
MALL_0AE3ACE0,明珠广场,东营市,垦利区,37.577343,118.575096,B0FFFP6SFD,6,17,东营市明珠广场 开发商,东营市明珠广场 开业时间
MALL_8A20035B,国际商城,呼伦贝尔市,满洲里市,49.593558,117.453136,B01D601JWJ,6,16,呼伦贝尔市国际商城 开发商,呼伦贝尔市国际商城 开业时间
MALL_EC5E1159,碧乐城,成都市,新津区,30.425489,103.818619,B0FFHOW6YJ,6,14,成都市碧乐城 开发商,成都市碧乐城 开业时间
MALL_32ED4F83,佳兆业广场,惠州市,惠城区,23.116739,114.418655,B0FFF9O7UH,6,14,惠州市佳兆业广场 开发商,惠州市佳兆业广场 开业时间
MALL_2D28918A,新田360广场,许昌市,魏都区,34.027358,113.852482,B0FFGER3FB,6,14,许昌市新田360广场 开发商,许昌市新田360广场 开业时间
MALL_15FAF2BC,新城市广场,成都市,青羊区,30.673989,104.057543,B001C04FD6,6,13,成都市新城市广场 开发商,成都市新城市广场 开业时间
MALL_728372FE,未来广场,天津城区,河东区,39.138699,117.221604,B00161AQ79,6,12,天津城区未来广场 开发商,天津城区未来广场 开业时间
MALL_1706591D,蓝鲸世界,深圳市,光明区,22.746075,113.934359,B0H2YZXGY3,6,12,深圳市蓝鲸世界 开发商,深圳市蓝鲸世界 开业时间
MALL_7623062D,益田假日世界,沈阳市,沈河区,41.803074,123.463387,B0FFKOSHPN,6,12,沈阳市益田假日世界 开发商,沈阳市益田假日世界 开业时间
MALL_D0B00A9C,维多利摩尔城,通辽市,科尔沁区,43.652438,122.238786,B0G2YSR1KY,6,11,通辽市维多利摩尔城 开发商,通辽市维多利摩尔城 开业时间
MALL_75DC4BEE,开元广场,开封市,龙亭区,34.798021,114.30093,B0FFFWZ06U,6,11,开封市开元广场 开发商,开封市开元广场 开业时间
MALL_143D984E,维多利万悦城,巴彦淖尔市,临河区,40.747142,107.398729,B0FFH1I3B9,6,10,巴彦淖尔市维多利万悦城 开发商,巴彦淖尔市维多利万悦城 开业时间
MALL_13394DE5,百货商场,通化市,辉南县,42.680675,126.044025,B0JDL7N509,6,10,通化市百货商场 开发商,通化市百货商场 开业时间
MALL_B9893C77,百信广场,广州市,白云区,23.194632,113.260438,B00140N5CS,6,10,广州市百信广场 开发商,广州市百信广场 开业时间
MALL_DF48735B,大洋百货,南京市,浦口区,32.138799,118.723738,B00190Z0P7,6,10,南京市大洋百货 开发商,南京市大洋百货 开业时间
MALL_AFD83412,万悦城,三门峡市,湖滨区,34.778756,111.198345,B0FFKTQQK9,6,9,三门峡市万悦城 开发商,三门峡市万悦城 开业时间
MALL_33CDC49A,麦凯乐,青岛市,市南区,36.065988,120.402906,B02140A2XI,6,8,青岛市麦凯乐 开发商,青岛市麦凯乐 开业时间
MALL_B6389DE0,正佳广场,广州市,天河区,23.132145,113.327019,B00140TFHO,6,8,广州市正佳广场 开发商,广州市正佳广场 开业时间
MALL_9991954B,宝能环球汇,深圳市,罗湖区,22.564186,114.109611,B0H2HDHWND,6,8,深圳市宝能环球汇 开发商,深圳市宝能环球汇 开业时间
MALL_8AD9BEBF,天润广场,湛江市,徐闻县,20.333291,110.191793,B0FFM453WC,6,8,湛江市天润广场 开发商,湛江市天润广场 开业时间
MALL_5C53D77E,家乐福,平顶山市,宝丰县,33.980109,113.038533,B0IAVCL2F0,6,8,平顶山市家乐福 开发商,平顶山市家乐福 开业时间
MALL_9FE8E1DB,人信汇,武汉市,汉阳区,30.552204,114.20511,B001B1GKIU,6,8,武汉市人信汇 开发商,武汉市人信汇 开业时间
MALL_8BEBDDBA,世纪金花,西安市,未央区,34.328713,108.946303,B001D09PCF,6,8,西安市世纪金花 开发商,西安市世纪金花 开业时间
MALL_59E584B8,欧亚车百,长春市,绿园区,43.863767,125.261438,B01AF04618,6,7,长春市欧亚车百 开发商,长春市欧亚车百 开业时间
MALL_C4EB252D,国芳百货,银川市,兴庆区,38.461778,106.283712,B03B703T8J,6,7,银川市国芳百货 开发商,银川市国芳百货 开业时间
MALL_523282F8,敏捷广场,肇庆市,端州区,23.073548,112.501929,B0FFLMCCHB,6,7,肇庆市敏捷广场 开发商,肇庆市敏捷广场 开业时间
MALL_6505030F,商贸大厦,保定市,望都县,38.70833,115.159072,B013803B6F,6,7,保定市商贸大厦 开发商,保定市商贸大厦 开业时间
MALL_43F970E5,明珠大厦,廊坊市,大城县,38.69745,116.645699,B013C15IE6,6,7,廊坊市明珠大厦 开发商,廊坊市明珠大厦 开业时间
MALL_63B5993E,八达岭奥莱,北京城区,昌平区,40.234519,116.169923,B0FFG9OHFF,6,6,北京城区八达岭奥莱 开发商,北京城区八达岭奥莱 开业时间
MALL_3766F0FA,新生活广场,天津城区,河东区,39.120306,117.223733,B0016126YR,6,6,天津城区新生活广场 开发商,天津城区新生活广场 开业时间
MALL_6FAB960B,信达金茂广场,广州市,天河区,23.170889,113.319125,B0FFH9BB0E,6,6,广州市信达金茂广场 开发商,广州市信达金茂广场 开业时间
MALL_772866BD,海港城,广州市,越秀区,23.113625,113.282641,B00141OJXG,6,6,广州市海港城 开发商,广州市海港城 开业时间
MALL_C8732A18,景枫中心,南京市,江宁区,31.929897,118.820195,B0FFH431LX,6,6,南京市景枫中心 开发商,南京市景枫中心 开业时间
MALL_78E02B67,探十里,郑州市,中原区,34.735474,113.614647,B0IR5SVHUJ,6,6,郑州市探十里 开发商,郑州市探十里 开业时间
MALL_B1E7CBB3,宝龙一城,厦门市,思明区,24.485801,118.17297,B0FFG6OC6N,6,6,厦门市宝龙一城 开发商,厦门市宝龙一城 开业时间
MALL_5C415BCE,汇金星力城,贵阳市,云岩区,26.581513,106.702396,B0FFFA7RSH,6,6,贵阳市汇金星力城 开发商,贵阳市汇金星力城 开业时间
MALL_0D845DE2,物美超市,天津城区,西青区,39.088037,117.129452,B0FFI9JZ6H,5,34,天津城区物美超市 开发商,天津城区物美超市 开业时间
MALL_CCAFF185,邻里中心,滁州市,南谯区,32.310264,118.395267,B0FFGDV0A7,5,20,滁州市邻里中心 开发商,滁州市邻里中心 开业时间
MALL_F8A34389,凤凰城,成都市,简阳市,30.410313,104.544182,B0FFHECKEJ,5,16,成都市凤凰城 开发商,成都市凤凰城 开业时间
MALL_D1C321A2,华强广场,佛山市,禅城区,23.039237,113.111083,B0FFFR52D0,5,13,佛山市华强广场 开发商,佛山市华强广场 开业时间
MALL_3730BCB8,喜盈门,驻马店市,驿城区,32.96963,114.010589,B018C0NV62,5,13,驻马店市喜盈门 开发商,驻马店市喜盈门 开业时间
MALL_0A3E0B8B,未来城,丽水市,莲都区,28.401917,119.875184,B0JBT1C8CT,5,12,丽水市未来城 开发商,丽水市未来城 开业时间
MALL_52C07D8B,中心城,黔南布依族苗族自治州,福泉市,26.695992,107.51593,B0FFI6DJMY,5,12,黔南布依族苗族自治州中心城 开发商,黔南布依族苗族自治州中心城 开业时间
MALL_3046C380,时尚广场,延边朝鲜族自治州,延吉市,42.906262,129.50602,B0FFFN4DZ4,5,11,延边朝鲜族自治州时尚广场 开发商,延边朝鲜族自治州时尚广场 开业时间
MALL_9EAF1ED4,天佑城,天津城区,南开区,39.138273,117.17292,B001616M8G,5,11,天津城区天佑城 开发商,天津城区天佑城 开业时间
MALL_3BCA67F5,紫金城,聊城市,东阿县,36.348591,116.252087,B0FFG0EB4S,5,11,聊城市紫金城 开发商,聊城市紫金城 开业时间
MALL_800F09FA,亿象城,苏州市,姑苏区,31.27341,120.602316,B0200188CD,5,11,苏州市亿象城 开发商,苏州市亿象城 开业时间
MALL_004496DE,SM广场,淄博市,淄川区,36.643708,117.962256,B02150QZ8D,5,10,淄博市SM广场 开发商,淄博市SM广场 开业时间
MALL_2A4645EC,碧乐汇,青岛市,即墨区,36.386992,120.435764,B0L09HCDCR,5,10,青岛市碧乐汇 开发商,青岛市碧乐汇 开业时间
MALL_AEDB4E65,广百广场,广州市,花都区,23.397633,113.233152,B00141RG9T,5,10,广州市广百广场 开发商,广州市广百广场 开业时间
MALL_98FE6E46,海上世界,上海城区,宝山区,31.40521,121.502185,B0L2SU5R4Z,5,9,上海城区海上世界 开发商,上海城区海上世界 开业时间
MALL_E8F2653C,海乐城,昆明市,官渡区,24.966849,102.742491,B0FFK67Z49,5,9,昆明市海乐城 开发商,昆明市海乐城 开业时间
MALL_FDC1807D,铜锣湾广场,昆明市,禄劝彝族苗族自治县,25.537291,102.479296,B0H0U7N0RB,5,9,昆明市铜锣湾广场 开发商,昆明市铜锣湾广场 开业时间
MALL_C115B6D0,时代中心,红河哈尼族彝族自治州,建水县,23.618768,102.823092,B036914BH0,5,9,红河哈尼族彝族自治州时代中心 开发商,红河哈尼族彝族自治州时代中心 开业时间
MALL_7F9F6E01,环球广场,长春市,南关区,43.813708,125.379356,B0FFIGEL8J,5,9,长春市环球广场 开发商,长春市环球广场 开业时间
MALL_B0F9A875,商之都,合肥市,巢湖市,31.598486,117.867993,B02350059C,5,9,合肥市商之都 开发商,合肥市商之都 开业时间
MALL_8CC75052,东汇城,广州市,增城区,23.284234,113.818876,B00141S2BO,5,9,广州市东汇城 开发商,广州市东汇城 开业时间
MALL_0D2238DC,万民广场,广州市,花都区,23.386293,113.204634,B00140V427,5,9,广州市万民广场 开发商,广州市万民广场 开业时间
MALL_3FDA0D03,上悦城,南通市,通州区,32.080664,121.050761,B0G23M9E6Y,5,9,南通市上悦城 开发商,南通市上悦城 开业时间
MALL_36C4F49C,国购广场,合肥市,蜀山区,31.853304,117.256368,B022702W5I,5,8,合肥市国购广场 开发商,合肥市国购广场 开业时间
MALL_0872FA0B,合生广场,广州市,海珠区,23.085207,113.313999,B00141JIFD,5,8,广州市合生广场 开发商,广州市合生广场 开业时间
MALL_32601046,悦汇城,广州市,荔湾区,23.149842,113.243024,B00141UE4X,5,8,广州市悦汇城 开发商,广州市悦汇城 开业时间
MALL_206E6B6C,信发商厦,沧州市,河间市,38.441783,116.087942,B013D001IB,5,8,沧州市信发商厦 开发商,沧州市信发商厦 开业时间
MALL_30A3D461,海林广场,武汉市,东西湖区,30.622738,114.144487,B001B1C5D9,5,8,武汉市海林广场 开发商,武汉市海林广场 开业时间
MALL_111E15EC,盛龙广场,湘西土家族苗族自治州,龙山县,29.435198,109.435089,B0JB146ZSQ,5,8,湘西土家族苗族自治州盛龙广场 开发商,湘西土家族苗族自治州盛龙广场 开业时间
MALL_02A9F7A2,亿合城,大连市,金州区,39.048154,121.781458,B0FFG87Q9A,5,8,大连市亿合城 开发商,大连市亿合城 开业时间
MALL_5F27CD6B,新世界城,上海城区,黄浦区,31.235113,121.473671,B001539A1D,5,7,上海城区新世界城 开发商,上海城区新世界城 开业时间
MALL_24BE317F,维多利广场,乌兰察布市,察哈尔右翼前旗,40.785289,113.213204,B0G12RL9GQ,5,7,乌兰察布市维多利广场 开发商,乌兰察布市维多利广场 开业时间
MALL_D6D1579A,罗浮广场,达州市,通川区,31.207139,107.470449,B0FFGLGJOP,5,7,达州市罗浮广场 开发商,达州市罗浮广场 开业时间
MALL_B60DC507,龙华广场,肇庆市,四会市,23.347444,112.687332,B0FFG4EWNF,5,7,肇庆市龙华广场 开发商,肇庆市龙华广场 开业时间
MALL_DB7F7DA0,多彩城,丽江市,古城区,26.920309,100.210536,B0I3AUTUH0,5,6,丽江市多彩城 开发商,丽江市多彩城 开业时间
MALL_A185D998,百盛商场,潍坊市,诸城市,35.992519,119.405079,B02180HPPB,5,6,潍坊市百盛商场 开发商,潍坊市百盛商场 开业时间
MALL_0BADC537,丁陶大卖场,临汾市,襄汾县,35.881498,111.42718,B0FFG2BPPI,5,6,临汾市丁陶大卖场 开发商,临汾市丁陶大卖场 开业时间
MALL_59CEF350,和平广场,深圳市,光明区,22.765177,113.898398,B0FFLJ23KE,5,6,深圳市和平广场 开发商,深圳市和平广场 开业时间
MALL_0D6B4482,兴隆大家庭,桂林市,七星区,25.275808,110.338812,B0L17R94OD,5,6,桂林市兴隆大家庭 开发商,桂林市兴隆大家庭 开业时间
MALL_CD9C5C33,悦汇广场,胡杨河市,兵团一三零团,44.711068,84.827295,B0LAVD5DLR,5,6,胡杨河市悦汇广场 开发商,胡杨河市悦汇广场 开业时间
MALL_7ED57D1D,润达国际,萍乡市,安源区,27.643542,113.850867,B0FFFE8WZP,5,6,萍乡市润达国际 开发商,萍乡市润达国际 开业时间
MALL_EDD5266C,乐都汇,保定市,容城县,39.058977,115.865944,B0LA6HA0NO,5,6,保定市乐都汇 开发商,保定市乐都汇 开业时间
MALL_77CB2619,万家广场,驻马店市,确山县,32.800693,114.0308,B0FFL6XA1T,5,6,驻马店市万家广场 开发商,驻马店市万家广场 开业时间
MALL_7A7FE7DF,中华城,厦门市,思明区,24.452752,118.082665,B02500QG1F,5,6,厦门市中华城 开发商,厦门市中华城 开业时间
MALL_8F73F873,仲盛世界商城,上海城区,闵行区,31.107101,121.38707,B00155LJ5C,5,5,上海城区仲盛世界商城 开发商,上海城区仲盛世界商城 开业时间
MALL_A5D0D9A1,星耀广场,昆明市,官渡区,24.947507,102.768155,B0FFJ3QJUY,5,5,昆明市星耀广场 开发商,昆明市星耀广场 开业时间
MALL_3688065F,SOLANA蓝色港湾,北京城区,朝阳区,39.949336,116.475944,B000A87M2X,5,5,北京城区SOLANA蓝色港湾 开发商,北京城区SOLANA蓝色港湾 开业时间
MALL_33E81BE5,七一国际广场,成都市,新都区,30.822003,104.171829,B0FFI0PEXX,5,5,成都市七一国际广场 开发商,成都市七一国际广场 开业时间
MALL_F44BA56C,中央城,蚌埠市,怀远县,32.97043,117.202517,B0FFG4G0UN,5,5,蚌埠市中央城 开发商,蚌埠市中央城 开业时间
MALL_AAF643B5,泰盛广场,临沂市,兰山区,35.067737,118.330456,B0FFHYI3Q1,5,5,临沂市泰盛广场 开发商,临沂市泰盛广场 开业时间
MALL_94D9A596,万虹广场,济南市,历城区,36.718165,117.132808,B0FFG9VER7,5,5,济南市万虹广场 开发商,济南市万虹广场 开业时间
MALL_9B82ED7E,乐松广场,运城市,闻喜县,35.34206,111.229665,B0LG9SW6S2,5,5,运城市乐松广场 开发商,运城市乐松广场 开业时间
MALL_121BD1CD,雄峰城,广州市,番禺区,22.970797,113.303486,B00140UFXW,5,5,广州市雄峰城 开发商,广州市雄峰城 开业时间
MALL_D7EE45DD,时光汇,广州市,白云区,23.221529,113.285373,B0IKFH67ZG,5,5,广州市时光汇 开发商,广州市时光汇 开业时间
MALL_1F059FC1,地王广场,汕尾市,海丰县,22.971652,115.33342,B02940MLFU,5,5,汕尾市地王广场 开发商,汕尾市地王广场 开业时间
MALL_130CF4E4,万汇城,肇庆市,广宁县,23.630974,112.439473,B0IDRSAFB4,5,5,肇庆市万汇城 开发商,肇庆市万汇城 开业时间
MALL_199C4B4B,南兴广场,玉林市,玉州区,22.605555,110.17062,B0FFJH81HT,5,5,玉林市南兴广场 开发商,玉林市南兴广场 开业时间
MALL_8CF34D41,泰华商城,苏州市,姑苏区,31.290124,120.62461,B02000IVGB,5,5,苏州市泰华商城 开发商,苏州市泰华商城 开业时间
MALL_F004A72B,羲悦城,周口市,淮阳区,33.729332,114.870628,B0IU6ZB2XQ,5,5,周口市羲悦城 开发商,周口市羲悦城 开业时间
MALL_2031E513,春天广场,舟山市,普陀区,29.979505,122.330525,B0FFHH2OFG,5,5,舟山市春天广场 开发商,舟山市春天广场 开业时间
MALL_C96C0131,星悦茂,孝感市,孝南区,30.920564,113.913023,B0H3D1XWEX,5,5,孝感市星悦茂 开发商,孝感市星悦茂 开业时间
MALL_5C8757E1,福客茂,武汉市,武昌区,30.586623,114.341093,B001B1AS1B,5,5,武汉市福客茂 开发商,武汉市福客茂 开业时间
MALL_792601CC,武汉荟聚,武汉市,硚口区,30.618373,114.167654,B0FFGBGLNB,5,5,武汉市武汉荟聚 开发商,武汉市武汉荟聚 开业时间
MALL_0E45E2A2,水镜广场,襄阳市,南漳县,31.774814,111.844863,B0FFKOYIBQ,5,5,襄阳市水镜广场 开发商,襄阳市水镜广场 开业时间
MALL_5388E298,欢乐城,湘西土家族苗族自治州,吉首市,28.262156,109.702244,B0JU3U4T15,5,5,湘西土家族苗族自治州欢乐城 开发商,湘西土家族苗族自治州欢乐城 开业时间
MALL_8277B303,缤纷环球城,邵阳市,邵东市,27.250484,111.745447,B0FFL0L1ND,5,5,邵阳市缤纷环球城 开发商,邵阳市缤纷环球城 开业时间
MALL_EC558706,雨花旭辉里,长沙市,雨花区,28.074296,113.035066,B0HGXDYRYG,5,5,长沙市雨花旭辉里 开发商,长沙市雨花旭辉里 开业时间
MALL_8879447B,美一城广场,漳州市,龙海区,24.441166,117.807358,B0FFFGOYGA,5,5,漳州市美一城广场 开发商,漳州市美一城广场 开业时间
MALL_3CC11E7B,世欧广场,福州市,晋安区,26.070231,119.32684,B0FFF34EOY,5,5,福州市世欧广场 开发商,福州市世欧广场 开业时间
MALL_C5B794DD,万宝广场,龙岩市,新罗区,25.083593,117.020852,B02550OP7Q,5,5,龙岩市万宝广场 开发商,龙岩市万宝广场 开业时间
MALL_5BC21E55,爱融荟城,重庆城区,两江新区,29.600243,106.498964,B0FFI84AI0,5,5,重庆城区爱融荟城 开发商,重庆城区爱融荟城 开业时间
MALL_AEE2B139,信誉楼百货,天津城区,北辰区,39.225542,117.12643,B0FFID5NZE,4,32,天津城区信誉楼百货 开发商,天津城区信誉楼百货 开业时间
MALL_D29B1214,金三角,平顶山市,新华区,33.740812,113.306828,B0FFHRX6EJ,4,16,平顶山市金三角 开发商,平顶山市金三角 开业时间
MALL_8419A80B,信和商厦,沧州市,南皮县,38.040052,116.707946,B0LA9UVLEZ,4,15,沧州市信和商厦 开发商,沧州市信和商厦 开业时间
MALL_50958EF2,新世界广场,聊城市,阳谷县,36.127745,115.793899,B0FFI2C2RJ,4,14,聊城市新世界广场 开发商,聊城市新世界广场 开业时间
MALL_2B9AC7B4,桥头镇,西宁市,大通回族土族自治县,36.928925,101.684275,B0L6D9BD45,4,13,西宁市桥头镇 开发商,西宁市桥头镇 开业时间
MALL_E0BF849E,苏宁生活广场,上海城区,杨浦区,31.29906,121.514421,B0FFHRAE0A,4,12,上海城区苏宁生活广场 开发商,上海城区苏宁生活广场 开业时间
MALL_AC03406B,全福元,东营市,垦利区,37.577402,118.576764,B0H17U5K3S,4,11,东营市全福元 开发商,东营市全福元 开业时间
MALL_E3481862,新世纪商厦,吴忠市,利通区,37.984032,106.199961,B0FFI2OSIZ,4,9,吴忠市新世纪商厦 开发商,吴忠市新世纪商厦 开业时间
MALL_263BF3A7,金玛商城,大连市,金州区,39.048101,121.78493,B019B0AOUF,4,9,大连市金玛商城 开发商,大连市金玛商城 开业时间
MALL_9B74DFBE,新业广场,北京城区,丰台区,39.857384,116.447081,B000A8VSPT,4,8,北京城区新业广场 开发商,北京城区新业广场 开业时间
MALL_EBDA2389,天和百货,广安市,邻水县,30.32751,106.936319,B033A01870,4,8,广安市天和百货 开发商,广安市天和百货 开业时间
MALL_791C2CB8,保利时光里,上海城区,徐汇区,31.181645,121.455048,B0FFI123GJ,4,7,上海城区保利时光里 开发商,上海城区保利时光里 开业时间
MALL_272A5667,伊藤洋华堂,成都市,成华区,30.671655,104.109186,B001C8WCEG,4,7,成都市伊藤洋华堂 开发商,成都市伊藤洋华堂 开业时间
MALL_C1B9E120,批发城,滁州市,凤阳县,32.779047,117.516596,B0H02HFELA,4,7,滁州市批发城 开发商,滁州市批发城 开业时间
MALL_7168B725,汇嘉时代,乌鲁木齐市,天山区,43.793939,87.618354,B03DF03D1D,4,7,乌鲁木齐市汇嘉时代 开发商,乌鲁木齐市汇嘉时代 开业时间
MALL_8CCE8182,西亚丽宝广场,信阳市,商城县,31.804248,115.401948,B0FFFT2XEY,4,7,信阳市西亚丽宝广场 开发商,信阳市西亚丽宝广场 开业时间
MALL_24EC7ADC,万德隆,南阳市,内乡县,32.929425,111.780439,B0FFIKSYV4,4,7,南阳市万德隆 开发商,南阳市万德隆 开业时间
MALL_06DFD4C9,佳华商场,怀化市,新晃侗族自治县,27.362167,109.171388,B0FFG00M3F,4,7,怀化市佳华商场 开发商,怀化市佳华商场 开业时间
MALL_BBC74545,星城广场,南充市,仪陇县,31.283028,106.294557,B0GD7UALBD,4,6,南充市星城广场 开发商,南充市星城广场 开业时间
MALL_9028D39F,百盛广场,德阳市,什邡市,31.123915,104.168759,B0FFFYF469,4,6,德阳市百盛广场 开发商,德阳市百盛广场 开业时间
MALL_618CF1B8,天一城,东莞市,东城街道,22.91051,114.064617,B03017WBCI,4,6,东莞市天一城 开发商,东莞市天一城 开业时间
MALL_B716BC52,东方百货,河源市,和平县,24.445819,114.934277,B02FA01OXE,4,6,河源市东方百货 开发商,河源市东方百货 开业时间
MALL_244482CB,锦绣广场,韶关市,翁源县,24.360143,114.117941,B0FFMCTJRS,4,6,韶关市锦绣广场 开发商,韶关市锦绣广场 开业时间
MALL_32A3D203,东方明珠,南通市,启东市,31.81039,121.660126,B0FFLHNL19,4,6,南通市东方明珠 开发商,南通市东方明珠 开业时间
MALL_99E7137C,联丰广场,苏州市,虎丘区,31.296829,120.736135,B020005YT6,4,6,苏州市联丰广场 开发商,苏州市联丰广场 开业时间
MALL_370458AF,万隆广场,嘉兴市,秀洲区,30.798017,120.618099,B0FFF3SQ8P,4,6,嘉兴市万隆广场 开发商,嘉兴市万隆广场 开业时间
MALL_B60945D9,中商广场,武汉市,武昌区,30.536791,114.331637,B001B0634F,4,6,武汉市中商广场 开发商,武汉市中商广场 开业时间
MALL_08CD1784,新华联,娄底市,双峰县,27.457642,112.200872,B02E2002T4,4,6,娄底市新华联 开发商,娄底市新华联 开业时间
MALL_4823FD8F,品广场,金昌市,金川区,38.529413,102.172595,B0FFFXLIZC,4,6,金昌市品广场 开发商,金昌市品广场 开业时间
MALL_B4A15CF8,日月光中心,上海城区,宝山区,31.29486,121.417875,B0FFF65Z6M,4,5,上海城区日月光中心 开发商,上海城区日月光中心 开业时间
MALL_11618E9A,中汇商业中心,昆明市,盘龙区,25.092164,102.739647,B036707UKQ,4,5,昆明市中汇商业中心 开发商,昆明市中汇商业中心 开业时间
MALL_3825D7F9,广百百货,昭通市,昭阳区,27.346433,103.72102,B0LRYKV63L,4,5,昭通市广百百货 开发商,昭通市广百百货 开业时间
MALL_F10DE245,商业大楼,包头市,达尔罕茂明安联合旗,41.700066,110.439502,B01D80P71I,4,5,包头市商业大楼 开发商,包头市商业大楼 开业时间
MALL_AF2A4763,漫乐城,鄂尔多斯市,伊金霍洛旗,39.581318,109.80879,B0I2HU5LIV,4,5,鄂尔多斯市漫乐城 开发商,鄂尔多斯市漫乐城 开业时间
MALL_D3AF6778,百汇广场,延边朝鲜族自治州,延吉市,42.906359,129.514682,B0FFJ7XULO,4,5,延边朝鲜族自治州百汇广场 开发商,延边朝鲜族自治州百汇广场 开业时间
MALL_B288466C,青年广场,广安市,武胜县,30.347373,106.290391,B0FFKX9A9D,4,5,广安市青年广场 开发商,广安市青年广场 开业时间
MALL_55D5F8B7,凯旋广场,成都市,大邑县,30.57532,103.524048,B0FFK7IRST,4,5,成都市凯旋广场 开发商,成都市凯旋广场 开业时间
MALL_BC8AF9DC,欢乐汇,泸州市,江阳区,28.894261,105.408001,B0FFI9EBH2,4,5,泸州市欢乐汇 开发商,泸州市欢乐汇 开业时间
MALL_609CBC28,金盛广场,眉山市,洪雅县,29.907028,103.369503,B0JGH6S41L,4,5,眉山市金盛广场 开发商,眉山市金盛广场 开业时间
MALL_72B29D34,国际商场,天津城区,和平区,39.118892,117.194533,B00160E6SC,4,5,天津城区国际商场 开发商,天津城区国际商场 开业时间
MALL_CEFCD77A,金谷广场,合肥市,包河区,31.712133,117.280078,B0FFJIT0TP,4,5,合肥市金谷广场 开发商,合肥市金谷广场 开业时间
MALL_8FE2223B,美都汇,德州市,夏津县,36.951445,116.005594,B0FFFT52BO,4,5,德州市美都汇 开发商,德州市美都汇 开业时间
MALL_623693CC,大都汇,烟台市,牟平区,37.398122,121.607476,B0FFHWV5MY,4,5,烟台市大都汇 开发商,烟台市大都汇 开业时间
MALL_90263A45,和信广场,佛山市,南海区,23.121193,113.005537,B0FFF0KPN3,4,5,佛山市和信广场 开发商,佛山市和信广场 开业时间
MALL_D255CA87,升宝广场,江门市,开平市,22.451327,112.77081,B0FFLA4HR1,4,5,江门市升宝广场 开发商,江门市升宝广场 开业时间
MALL_A0732F22,万象前海,深圳市,南山区,22.531015,113.899626,B0HUY5T7RT,4,5,深圳市万象前海 开发商,深圳市万象前海 开业时间
MALL_A99C8673,亚中商城,博尔塔拉蒙古自治州,博乐市,44.905679,82.073574,B0FFG84VDT,4,5,博尔塔拉蒙古自治州亚中商城 开发商,博尔塔拉蒙古自治州亚中商城 开业时间
MALL_2829D6CD,周大福,吉安市,万安县,26.460279,114.783945,B0FFGPGIWK,4,5,吉安市周大福 开发商,吉安市周大福 开业时间
MALL_CFEA0B90,北国先天下,保定市,竞秀区,38.889652,115.469764,B01380PCF8,4,5,保定市北国先天下 开发商,保定市北国先天下 开业时间
MALL_96211112,天鸿广场,邯郸市,丛台区,36.626563,114.519742,B0FFF3J3RM,4,5,邯郸市天鸿广场 开发商,邯郸市天鸿广场 开业时间
MALL_C4269921,亚细亚,许昌市,禹州市,34.156842,113.474449,B017600O5C,4,5,许昌市亚细亚 开发商,许昌市亚细亚 开业时间
MALL_17B5B493,三亚国际免税城,三亚市,海棠区,18.371266,109.752112,B0FFFV2T30,4,5,三亚市三亚国际免税城 开发商,三亚市三亚国际免税城 开业时间
MALL_08FEE6C2,时光里,宜昌市,西陵区,30.718997,111.298906,B0FFK9BXVA,4,5,宜昌市时光里 开发商,宜昌市时光里 开业时间
MALL_93563BA3,联合广场,荆门市,京山市,31.025756,113.130091,B0FFIVGPZN,4,5,荆门市联合广场 开发商,荆门市联合广场 开业时间
MALL_22195380,恒盛广场,永州市,宁远县,25.591994,111.937691,B02EA017Y8,4,5,永州市恒盛广场 开发商,永州市恒盛广场 开业时间
MALL_3A3A5DE3,重百电器,重庆城区,江津区,29.287567,106.25514,B0HR6N6KO0,4,5,重庆城区重百电器 开发商,重庆城区重百电器 开业时间
MALL_1A53517A,环贸iapm商场,上海城区,徐汇区,31.215404,121.458129,B00156GS83,4,4,上海城区环贸iapm商场 开发商,上海城区环贸iapm商场 开业时间
MALL_B1C56013,复地活力城,上海城区,浦东新区,31.158316,121.564732,B0FFLJY7Z3,4,4,上海城区复地活力城 开发商,上海城区复地活力城 开业时间
MALL_8D4D84E9,上海荟聚,上海城区,长宁区,31.221909,121.356695,B0FFIQXM00,4,4,上海城区上海荟聚 开发商,上海城区上海荟聚 开业时间
MALL_47D56BD8,祥和商业广场,丽江市,古城区,26.85335,100.230217,B0FFGPRK3H,4,4,丽江市祥和商业广场 开发商,丽江市祥和商业广场 开业时间
MALL_3B7A8A7D,柏联广场,昆明市,五华区,25.035289,102.710652,B036706ZYB,4,4,昆明市柏联广场 开发商,昆明市柏联广场 开业时间
MALL_FB4C8BFB,中国铁建广场,成都市,成华区,30.680185,104.143093,B0FFG9VIV1,4,4,成都市中国铁建广场 开发商,成都市中国铁建广场 开业时间
MALL_3D162570,辰悦广场,天津城区,北辰区,39.211827,117.141322,B0HRGZ7TW4,4,4,天津城区辰悦广场 开发商,天津城区辰悦广场 开业时间
MALL_0C541FF4,未来汇,天津城区,滨海新区,39.031669,117.597004,B0FFHD5PGB,4,4,天津城区未来汇 开发商,天津城区未来汇 开业时间
MALL_1FC3AA89,西青大悦汇B馆,天津城区,西青区,39.140503,117.088283,B0JGARG4IX,4,4,天津城区西青大悦汇B馆 开发商,天津城区西青大悦汇B馆 开业时间
MALL_3B2CC541,华富广场,亳州市,谯城区,33.805723,115.780337,B0H27UV6Q3,4,4,亳州市华富广场 开发商,亳州市华富广场 开业时间
MALL_BED73383,济州上城,济宁市,任城区,35.395519,116.62096,B0FFM4DOI2,4,4,济宁市济州上城 开发商,济宁市济州上城 开业时间
MALL_4D6EC7A3,崂山百货,青岛市,李沧区,36.158934,120.422906,B0214092PT,4,4,青岛市崂山百货 开发商,青岛市崂山百货 开业时间
MALL_07B4060F,香江广场,运城市,万荣县,35.420932,110.846,B0FFGFD070,4,4,运城市香江广场 开发商,运城市香江广场 开业时间
MALL_188A9C1B,蜂汇广场,东莞市,东城街道,22.982503,113.721754,B0FFI1XVAM,4,4,东莞市蜂汇广场 开发商,东莞市蜂汇广场 开业时间
MALL_03CB1994,汇丰城,中山市,南朗街道,22.620663,113.26474,B0FFHZXDVD,4,4,中山市汇丰城 开发商,中山市汇丰城 开业时间
MALL_5595040B,新大新百货,佛山市,三水区,23.172827,112.891632,B02F50WY0C,4,4,佛山市新大新百货 开发商,佛山市新大新百货 开业时间
MALL_1F22B5E7,万民金海城,佛山市,顺德区,22.963707,113.130835,B0HBO7MSJ5,4,4,佛山市万民金海城 开发商,佛山市万民金海城 开业时间
MALL_E274E6A5,顺联广场,佛山市,顺德区,22.952766,113.240435,B02F506SWH,4,4,佛山市顺联广场 开发商,佛山市顺联广场 开业时间
MALL_95E25247,乐峰广场,广州市,海珠区,23.088633,113.259082,B00141R8NA,4,4,广州市乐峰广场 开发商,广州市乐峰广场 开业时间
MALL_1A1AB83E,万民城,广州市,番禺区,23.012947,113.313515,B0HGOAVYS5,4,4,广州市万民城 开发商,广州市万民城 开业时间
MALL_5BE41AC5,骏壹万邦广场,广州市,花都区,23.405835,113.226622,B00141RDXZ,4,4,广州市骏壹万邦广场 开发商,广州市骏壹万邦广场 开业时间
MALL_5D03FEBB,海滨城,惠州市,惠东县,22.756731,114.951668,B02F00QHJD,4,4,惠州市海滨城 开发商,惠州市海滨城 开业时间
MALL_87B7BB19,星河COCO Park,深圳市,福田区,22.533569,114.054007,B0HBMHLQ5G,4,4,深圳市星河COCO Park 开发商,深圳市星河COCO Park 开业时间
MALL_90A6448E,皇庭广场,深圳市,福田区,22.533681,114.059795,B02F38MI0C,4,4,深圳市皇庭广场 开发商,深圳市皇庭广场 开业时间
MALL_1F895C74,领展中心城,深圳市,福田区,22.535814,114.05978,B02F37TPHK,4,4,深圳市领展中心城 开发商,深圳市领展中心城 开业时间
MALL_0FCAE020,东方百盛,清远市,英德市,24.221591,113.676836,B0G2KKQKTD,4,4,清远市东方百盛 开发商,清远市东方百盛 开业时间
MALL_C82A70CC,合百利广场,肇庆市,端州区,23.049487,112.468198,B0FFGY094A,4,4,肇庆市合百利广场 开发商,肇庆市合百利广场 开业时间
MALL_931E1D74,风度名城,韶关市,浈江区,24.798748,113.600022,B02EF0IEDE,4,4,韶关市风度名城 开发商,韶关市风度名城 开业时间
MALL_4AB7986F,江北虹悦城,南京市,浦口区,32.067162,118.64003,B0FFITUTMH,4,4,南京市江北虹悦城 开发商,南京市江北虹悦城 开业时间
MALL_004E11CD,邻里荟,南京市,雨花台区,31.998335,118.77363,B0FFMH2LGO,4,4,南京市邻里荟 开发商,南京市邻里荟 开业时间
MALL_E082B6AD,百乐广场,无锡市,惠山区,31.606515,120.242535,B01FE16WWD,4,4,无锡市百乐广场 开发商,无锡市百乐广场 开业时间
MALL_AFEFF278,商贸广场,上饶市,万年县,28.844545,116.972309,B0319005FF,4,4,上饶市商贸广场 开发商,上饶市商贸广场 开业时间
MALL_181C826E,青龙商厦,宜春市,袁州区,27.795467,114.388248,B031B002F9,4,4,宜春市青龙商厦 开发商,宜春市青龙商厦 开业时间
MALL_EA869887,君悦广场,保定市,涿州市,39.484245,116.031133,B0FFJY7I1Y,4,4,保定市君悦广场 开发商,保定市君悦广场 开业时间
MALL_F4E337C5,勒泰广场,石家庄市,桥西区,38.025676,114.442767,B0KGN5ZCPH,4,4,石家庄市勒泰广场 开发商,石家庄市勒泰广场 开业时间
MALL_D2DEA4F7,世纪港湾,秦皇岛市,海港区,39.947151,119.581945,B014F0T5Y6,4,4,秦皇岛市世纪港湾 开发商,秦皇岛市世纪港湾 开业时间
MALL_E93346A8,太格茂,郑州市,金水区,34.793335,113.801346,B0FFGFQ858,4,4,郑州市太格茂 开发商,郑州市太格茂 开业时间
MALL_5111F927,水悦城,宜昌市,西陵区,30.706231,111.316254,B02CD0QHFE,4,4,宜昌市水悦城 开发商,宜昌市水悦城 开业时间
MALL_4654587D,群星城,武汉市,武昌区,30.584181,114.34914,B001B1FTN7,4,4,武汉市群星城 开发商,武汉市群星城 开业时间
MALL_B02C9D30,江腾广场,武汉市,汉阳区,30.536987,114.25583,B001B19IYO,4,4,武汉市江腾广场 开发商,武汉市江腾广场 开业时间
MALL_E5325129,中百广场,武汉市,江夏区,30.364694,114.321385,B0FFFFP7PS,4,4,武汉市中百广场 开发商,武汉市中百广场 开业时间
MALL_AC652C0C,维佳体验城,武汉市,洪山区,30.501486,114.326208,B0GKKCYFJD,4,4,武汉市维佳体验城 开发商,武汉市维佳体验城 开业时间
MALL_E70FAACA,德成生活中心,武汉市,黄陂区,30.701397,114.289575,B0FFKTZOCK,4,4,武汉市德成生活中心 开发商,武汉市德成生活中心 开业时间
MALL_AF06DC0B,太古城,益阳市,赫山区,28.554268,112.350276,B02E10N6GT,4,4,益阳市太古城 开发商,益阳市太古城 开业时间
MALL_BBF2760E,人人乐,长沙市,宁乡市,28.266366,112.556278,B0FFIK79YU,4,4,长沙市人人乐 开发商,长沙市人人乐 开业时间
MALL_14C1B76F,友谊商城,长沙市,雨花区,28.168417,112.995198,B02DB043LL,4,4,长沙市友谊商城 开发商,长沙市友谊商城 开业时间
MALL_0BAB08A1,泰禾广场西区,福州市,晋安区,26.090578,119.335653,B0FFKU0OBB,4,4,福州市泰禾广场西区 开发商,福州市泰禾广场西区 开业时间
MALL_A842130A,长山湖广场,福州市,长乐区,25.955997,119.500372,B024F05N92,4,4,福州市长山湖广场 开发商,福州市长山湖广场 开业时间
MALL_7C9E1F62,尚柏奥莱,沈阳市,沈北新区,41.955832,123.463203,B00181FLIW,4,4,沈阳市尚柏奥莱 开发商,沈阳市尚柏奥莱 开业时间
MALL_531A9C7B,大旺城,咸阳市,杨陵区,34.255534,108.086707,B0LD2PJXXC,4,4,咸阳市大旺城 开发商,咸阳市大旺城 开业时间
MALL_6D63B3D2,魅力之城,汉中市,汉台区,33.071162,107.025534,B039402FNH,4,4,汉中市魅力之城 开发商,汉中市魅力之城 开业时间
MALL_375C64A2,松雷商业,哈尔滨市,南岗区,45.759058,126.643445,B01C30JA4T,4,4,哈尔滨市松雷商业 开发商,哈尔滨市松雷商业 开业时间
MALL_0C492437,供销大厦,济宁市,微山县,34.809252,117.122755,B02190AGU3,3,9,济宁市供销大厦 开发商,济宁市供销大厦 开业时间
MALL_5B46978C,易购广场,保定市,望都县,38.693232,115.161639,B01380PX7P,3,8,保定市易购广场 开发商,保定市易购广场 开业时间
MALL_99BFB4BC,生活超市,洛阳市,涧西区,34.660721,112.387888,B0FFHDQAXF,3,8,洛阳市生活超市 开发商,洛阳市生活超市 开业时间
MALL_F65F8BB8,京东家电,黄冈市,黄梅县,29.883569,115.905076,B0FFF2PQ26,3,8,黄冈市京东家电 开发商,黄冈市京东家电 开业时间
MALL_1CA9F6C5,德百广场,德州市,平原县,37.172506,116.468935,B0FFLDZSHS,3,7,德州市德百广场 开发商,德州市德百广场 开业时间
MALL_CC48A835,北国超市,石家庄市,新华区,38.078549,114.464309,B0FFHU5VX9,3,7,石家庄市北国超市 开发商,石家庄市北国超市 开业时间
MALL_FFF1D930,星河COCOCity,鄂尔多斯市,东胜区,39.816176,110.005922,B0H1ZM5KC6,3,6,鄂尔多斯市星河COCOCity 开发商,鄂尔多斯市星河COCOCity 开业时间
MALL_2BAAD75F,老佛爷百货,北京城区,西城区,39.914132,116.374891,B000A8W5MU,3,6,北京城区老佛爷百货 开发商,北京城区老佛爷百货 开业时间
MALL_1509B1F0,都市广场,德阳市,绵竹市,31.33705,104.223655,B0FFKXV7SB,3,6,德阳市都市广场 开发商,德阳市都市广场 开业时间
MALL_400BFC43,浙江商城,自贡市,自流井区,29.337387,104.777279,B0HA6S7OPN,3,6,自贡市浙江商城 开发商,自贡市浙江商城 开业时间
MALL_40B3E116,利群商厦,青岛市,市北区,36.080001,120.360284,B021402F24,3,6,青岛市利群商厦 开发商,青岛市利群商厦 开业时间
MALL_D8307010,世贸中心,深圳市,龙岗区,22.716648,114.246175,B02F38IR8O,3,6,深圳市世贸中心 开发商,深圳市世贸中心 开业时间
MALL_35DEB3D5,供销大楼,丽江市,古城区,26.874882,100.230457,B0FFFDBLZF,3,5,丽江市供销大楼 开发商,丽江市供销大楼 开业时间
MALL_7AE75977,劝业场,呼和浩特市,新城区,40.82313,111.690381,B01D7020AB,3,5,呼和浩特市劝业场 开发商,呼和浩特市劝业场 开业时间
MALL_8DA13332,国泰百货,北京城区,密云区,40.373742,116.846144,B000A7WP4Q,3,5,北京城区国泰百货 开发商,北京城区国泰百货 开业时间
MALL_F04087B6,国贸百货,松原市,宁江区,45.177075,124.826744,B01B60MVQT,3,5,松原市国贸百货 开发商,松原市国贸百货 开业时间
MALL_4050160E,欧亚商超,长春市,二道区,43.870968,125.378527,B01AF110PH,3,5,长春市欧亚商超 开发商,长春市欧亚商超 开业时间
MALL_169C57FB,建安文化广场,亳州市,谯城区,33.838456,115.774777,B0FFHXH54R,3,5,亳州市建安文化广场 开发商,亳州市建安文化广场 开业时间
MALL_66F9714D,唐人中心,济南市,章丘区,36.714158,117.535259,B0FFJ5UTZ6,3,5,济南市唐人中心 开发商,济南市唐人中心 开业时间
MALL_701D49DF,星悦城,晋城市,城区,35.552697,112.902477,B0FFJOSV88,3,5,晋城市星悦城 开发商,晋城市星悦城 开业时间
MALL_A362368C,盛达广场,佛山市,顺德区,22.879672,113.211576,B0K1614ABO,3,5,佛山市盛达广场 开发商,佛山市盛达广场 开业时间
MALL_BE3D0A53,名都广场,清远市,清城区,23.708661,113.024253,B02FB020CL,3,5,清远市名都广场 开发商,清远市名都广场 开业时间
MALL_80B510F4,香港城,梧州市,万秀区,23.469667,111.318888,B030600M10,3,5,梧州市香港城 开发商,梧州市香港城 开业时间
MALL_D5CDDD8F,世纪商厦,梧州市,龙圩区,23.417086,111.249753,B03060MKEX,3,5,梧州市世纪商厦 开发商,梧州市世纪商厦 开业时间
MALL_0C8D1B2E,世购广场,衡水市,安平县,38.233701,115.524344,B0FFJGNTHK,3,5,衡水市世购广场 开发商,衡水市世购广场 开业时间
MALL_7AF90E7C,乐山商场,驻马店市,驿城区,32.975692,114.032097,B0FFHDARU2,3,5,驻马店市乐山商场 开发商,驻马店市乐山商场 开业时间
MALL_E6AB4315,阳光100,武汉市,江夏区,30.402565,114.412688,B0FFMHA9QP,3,5,武汉市阳光100 开发商,武汉市阳光100 开业时间
MALL_47DCE74A,罗宾森广场,厦门市,思明区,24.468932,118.112681,B02500Q8QF,3,5,厦门市罗宾森广场 开发商,厦门市罗宾森广场 开业时间
MALL_7E56E392,上亿广场,沈阳市,浑南区,41.691006,123.423206,B0FFGPA8L0,3,5,沈阳市上亿广场 开发商,沈阳市上亿广场 开业时间
MALL_D35BE700,贸易广场,渭南市,临渭区,34.502604,109.455528,B0391005Y9,3,5,渭南市贸易广场 开发商,渭南市贸易广场 开业时间
MALL_34248B77,维多利商厦,包头市,昆都仑区,40.657577,109.814132,B01D80P2C7,3,4,包头市维多利商厦 开发商,包头市维多利商厦 开业时间
MALL_E6AC1BC2,河港青年商业城,巴彦淖尔市,临河区,40.757874,107.417326,B01DE00ALZ,3,4,巴彦淖尔市河港青年商业城 开发商,巴彦淖尔市河港青年商业城 开业时间
MALL_0D3FCDC0,北辰荟,北京城区,朝阳区,40.003452,116.387761,B0I6470LCR,3,4,北京城区北辰荟 开发商,北京城区北辰荟 开业时间
MALL_2BF831D8,缤纷广场,成都市,双流区,30.50521,104.053365,B001C7XLAU,3,4,成都市缤纷广场 开发商,成都市缤纷广场 开业时间
MALL_6C208F56,百伦广场,成都市,郫都区,30.811162,103.887814,B0FFGMM5IB,3,4,成都市百伦广场 开发商,成都市百伦广场 开业时间
MALL_7B8658BB,春天百货,绵阳市,平武县,32.407315,104.534134,B03300PFHQ,3,4,绵阳市春天百货 开发商,绵阳市春天百货 开业时间
MALL_7DC77025,星河广场,自贡市,荣县,29.451689,104.413164,B0FFHOZTVI,3,4,自贡市星河广场 开发商,自贡市星河广场 开业时间
MALL_7A063559,时代商厦,泰安市,岱岳区,36.176094,117.052868,B0FFKPH8EL,3,4,泰安市时代商厦 开发商,泰安市时代商厦 开业时间
MALL_A2222343,谷德广场,潍坊市,奎文区,36.721788,119.170342,B021815YYN,3,4,潍坊市谷德广场 开发商,潍坊市谷德广场 开业时间
MALL_4E65EFD6,谷德茂,潍坊市,奎文区,36.709155,119.203021,B0G2N53702,3,4,潍坊市谷德茂 开发商,潍坊市谷德茂 开业时间
MALL_C84A003D,佳和城,菏泽市,牡丹区,35.234055,115.462934,B0FFMFWSWL,3,4,菏泽市佳和城 开发商,菏泽市佳和城 开业时间
MALL_41BE4A98,青岛海信广场,青岛市,市南区,36.060316,120.396279,B02140A2XH,3,4,青岛市青岛海信广场 开发商,青岛市青岛海信广场 开业时间
MALL_F87031DD,万润广场,东莞市,东城街道,22.992427,113.879067,B0FFGAFPOZ,3,4,东莞市万润广场 开发商,东莞市万润广场 开业时间
MALL_5880B41B,华丰汇,广州市,番禺区,22.937327,113.377739,B00141S1MU,3,4,广州市华丰汇 开发商,广州市华丰汇 开业时间
MALL_EF0E6BDD,融悦汇,广州市,黄埔区,23.092131,113.532642,B0FFHJFYM9,3,4,广州市融悦汇 开发商,广州市融悦汇 开业时间
MALL_81D25F00,京基百纳广场,深圳市,南山区,22.530691,113.969345,B02F37UIZK,3,4,深圳市京基百纳广场 开发商,深圳市京基百纳广场 开业时间
MALL_E8B090C9,太和广场,肇庆市,端州区,23.074161,112.432719,B0FFFVF3D8,3,4,肇庆市太和广场 开发商,肇庆市太和广场 开业时间
MALL_57AE1BD6,银河广场,茂名市,信宜市,22.352499,110.948208,B029C0P9DM,3,4,茂名市银河广场 开发商,茂名市银河广场 开业时间
MALL_805AE72E,太阳广场,苏州市,姑苏区,31.313234,120.600588,B02000K4DT,3,4,苏州市太阳广场 开发商,苏州市太阳广场 开业时间
MALL_15774FD7,梦之城,苏州市,虎丘区,31.34206,120.419427,B0FFH9VB1C,3,4,苏州市梦之城 开发商,苏州市梦之城 开业时间
MALL_3823422B,华达百货,景德镇市,珠山区,29.293003,117.20929,B031E0HXWS,3,4,景德镇市华达百货 开发商,景德镇市华达百货 开业时间
MALL_AB91D4B4,远洋城,唐山市,路北区,39.667905,118.175672,B013B03BLW,3,4,唐山市远洋城 开发商,唐山市远洋城 开业时间
MALL_4CD5CB85,东祥商厦,沧州市,东光县,37.882578,116.552429,B013D00XYO,3,4,沧州市东祥商厦 开发商,沧州市东祥商厦 开业时间
MALL_6755B867,北国未来城,石家庄市,桥西区,38.002077,114.473118,B0J24SV8W0,3,4,石家庄市北国未来城 开发商,石家庄市北国未来城 开业时间
MALL_F9FE6514,乐汇城,石家庄市,辛集市,37.916341,115.217,B0FFG2AFKI,3,4,石家庄市乐汇城 开发商,石家庄市乐汇城 开业时间
MALL_D5F6A482,大张盛德美,平顶山市,汝州市,34.185501,112.840591,B0H3LALHU4,3,4,平顶山市大张盛德美 开发商,平顶山市大张盛德美 开业时间
MALL_3F4275DD,余之城,杭州市,临平区,30.394345,120.304443,B0FFG6K58M,3,4,杭州市余之城 开发商,杭州市余之城 开业时间
MALL_A67B9E35,现代广场,绍兴市,嵊州市,29.586463,120.822678,B023F00H9L,3,4,绍兴市现代广场 开发商,绍兴市现代广场 开业时间
MALL_5BDB5A82,万星广场,漳州市,云霄县,23.938185,117.334745,B0FFIIEHVC,3,4,漳州市万星广场 开发商,漳州市万星广场 开业时间
MALL_FFCE3DE0,海纳广场,贵阳市,花溪区,26.52084,106.702724,B03530OZSU,3,4,贵阳市海纳广场 开发商,贵阳市海纳广场 开业时间
MALL_CD2B58D0,大连商场,大连市,中山区,38.916979,121.634563,B019B013C3,3,4,大连市大连商场 开发商,大连市大连商场 开业时间
MALL_5A04A50E,金都商厦,抚顺市,清原满族自治县,42.101518,124.929961,B019D0NTXJ,3,4,抚顺市金都商厦 开发商,抚顺市金都商厦 开业时间
MALL_89550CEE,大骏百货,上海城区,奉贤区,30.989105,121.431366,B0FFGJ97KL,3,3,上海城区大骏百货 开发商,上海城区大骏百货 开业时间
MALL_19FF22D0,吾悦生活广场,上海城区,松江区,31.009461,121.206926,B00156D3BX,3,3,上海城区吾悦生活广场 开发商,上海城区吾悦生活广场 开业时间
MALL_D8AEC599,开元地中海商业广场,上海城区,松江区,31.037768,121.219475,B00155LJD2,3,3,上海城区开元地中海商业广场 开发商,上海城区开元地中海商业广场 开业时间
MALL_49C51632,凯德虹口商业中心,上海城区,虹口区,31.270926,121.47795,B00156EIR7,3,3,上海城区凯德虹口商业中心 开发商,上海城区凯德虹口商业中心 开业时间
MALL_5157DAFD,百盛优客城市广场,上海城区,长宁区,31.21049,121.403336,B0FFF6OUKL,3,3,上海城区百盛优客城市广场 开发商,上海城区百盛优客城市广场 开业时间
MALL_0861986A,凯德闵行商业中心,上海城区,闵行区,31.107788,121.378283,B00155Q7EO,3,3,上海城区凯德闵行商业中心 开发商,上海城区凯德闵行商业中心 开业时间
MALL_981B7A0A,CP静安,上海城区,静安区,31.225586,121.446407,B00156YMHK,3,3,上海城区CP静安 开发商,上海城区CP静安 开业时间
MALL_1B7AEC83,北辰财富中心,昆明市,盘龙区,25.081891,102.734404,B0JK9HDI0A,3,3,昆明市北辰财富中心 开发商,昆明市北辰财富中心 开业时间
MALL_09168F90,创基尚城,普洱市,思茅区,22.768265,100.973927,B036F15VFG,3,3,普洱市创基尚城 开发商,普洱市创基尚城 开业时间
MALL_B0EF5BF8,贸易大楼,曲靖市,宣威市,26.224294,104.10497,B036A00CLA,3,3,曲靖市贸易大楼 开发商,曲靖市贸易大楼 开业时间
MALL_888F5DC5,城市港湾购物公园,楚雄彝族自治州,大姚县,25.721735,101.326766,B0FFI1PNYL,3,3,楚雄彝族自治州城市港湾购物公园 开发商,楚雄彝族自治州城市港湾购物公园 开业时间
MALL_BF200616,锦辉广场,红河哈尼族彝族自治州,泸西县,24.53331,103.763983,B0FFKZNCCW,3,3,红河哈尼族彝族自治州锦辉广场 开发商,红河哈尼族彝族自治州锦辉广场 开业时间
MALL_53D31FBE,鼎盛广场,乌兰察布市,卓资县,40.892051,112.580971,B0FFJ5PFN5,3,3,乌兰察布市鼎盛广场 开发商,乌兰察布市鼎盛广场 开业时间
MALL_6E8F1476,幸福广场,乌兰察布市,集宁区,41.025748,113.124357,B0FFFVLC83,3,3,乌兰察布市幸福广场 开发商,乌兰察布市幸福广场 开业时间
MALL_9142F11D,海悦城,呼伦贝尔市,海拉尔区,49.215704,119.746165,B0FFGA4F3L,3,3,呼伦贝尔市海悦城 开发商,呼伦贝尔市海悦城 开业时间
MALL_029AF507,王府中环,北京城区,东城区,39.912576,116.409348,B0FFG972OZ,3,3,北京城区王府中环 开发商,北京城区王府中环 开业时间
MALL_FA387F8F,瀛海环宇坊,北京城区,大兴区,39.758038,116.448613,B0H1HSRN75,3,3,北京城区瀛海环宇坊 开发商,北京城区瀛海环宇坊 开业时间
MALL_7CAB87BA,北投购物公园,北京城区,朝阳区,39.978941,116.401772,B0HD0ZYFON,3,3,北京城区北投购物公园 开发商,北京城区北投购物公园 开业时间
MALL_E6A77CEF,京粮广场,北京城区,海淀区,39.930845,116.253898,B000A9PREQ,3,3,北京城区京粮广场 开发商,北京城区京粮广场 开业时间
MALL_45AA4E4E,新南聚彩荟,北京城区,通州区,39.736942,116.543757,B0FFMDBFGV,3,3,北京城区新南聚彩荟 开发商,北京城区新南聚彩荟 开业时间
MALL_F4B8878B,新城商厦,北京城区,通州区,39.799039,116.565885,B000AA84DX,3,3,北京城区新城商厦 开发商,北京城区新城商厦 开业时间
MALL_3C3F98BF,金钻百货,松原市,宁江区,45.13153,124.83113,B01B60MJT0,3,3,松原市金钻百货 开发商,松原市金钻百货 开业时间
MALL_4AF1FB27,心悦城,白城市,洮北区,45.618385,122.863741,B0G1Y5SKGO,3,3,白城市心悦城 开发商,白城市心悦城 开业时间
MALL_CAF9FC43,阳光城市广场,长春市,公主岭市,43.718923,125.101459,B0FFHS34CO,3,3,长春市阳光城市广场 开发商,长春市阳光城市广场 开业时间
MALL_A1D7B72E,欧亚益民,长春市,南关区,43.889265,125.341617,B0FFHJ9F14,3,3,长春市欧亚益民 开发商,长春市欧亚益民 开业时间
MALL_47493540,住邦城市广场,长春市,宽城区,43.940011,125.2927,B01AF0ZYE5,3,3,长春市住邦城市广场 开发商,长春市住邦城市广场 开业时间
MALL_9A2C8764,广源商都,长春市,宽城区,43.931511,125.326568,B01AF110PI,3,3,长春市广源商都 开发商,长春市广源商都 开业时间
MALL_A7171AC9,活力汇,长春市,朝阳区,43.821916,125.251935,B0FFIIY0FJ,3,3,长春市活力汇 开发商,长春市活力汇 开业时间
MALL_1DF8EFBC,阳光商场,长春市,榆树市,44.607788,126.476676,B0FFFZRIIY,3,3,长春市阳光商场 开发商,长春市阳光商场 开业时间
MALL_D90A9F97,洋洋百货,宜宾市,翠屏区,28.765449,104.623143,B0FFF3N2WZ,3,3,宜宾市洋洋百货 开发商,宜宾市洋洋百货 开业时间
MALL_2D5D248D,中海天府环宇坊,成都市,双流区,30.477623,104.036844,B0FFMCD24O,3,3,成都市中海天府环宇坊 开发商,成都市中海天府环宇坊 开业时间
MALL_5440D287,益州国际广场,成都市,双流区,30.527627,104.055215,B0FFIWJZF5,3,3,成都市益州国际广场 开发商,成都市益州国际广场 开业时间
MALL_90067185,未来中心,成都市,成华区,30.650741,104.095496,B001C90PQH,3,3,成都市未来中心 开发商,成都市未来中心 开业时间
MALL_CD079870,恒泰广场,成都市,郫都区,30.773922,103.939819,B001C951AK,3,3,成都市恒泰广场 开发商,成都市恒泰广场 开业时间
MALL_406FF6E6,甘御兰广场,成都市,金堂县,30.720196,104.545253,B0I0XSC42Y,3,3,成都市甘御兰广场 开发商,成都市甘御兰广场 开业时间
MALL_F6599860,卓锦曼购中心,成都市,锦江区,30.595687,104.136345,B0FFGX1LOR,3,3,成都市卓锦曼购中心 开发商,成都市卓锦曼购中心 开业时间
MALL_C2D3CC01,九龙广场,绵阳市,游仙区,31.510067,104.750312,B0GK3SUXXU,3,3,绵阳市九龙广场 开发商,绵阳市九龙广场 开业时间
MALL_1EC7258F,永逸广场,遂宁市,大英县,30.585799,105.256357,B0FFHIJ57A,3,3,遂宁市永逸广场 开发商,遂宁市永逸广场 开业时间
MALL_9A70729F,仁恒伊势丹,天津城区,南开区,39.139223,117.191137,B0L1VMA2FZ,3,3,天津城区仁恒伊势丹 开发商,天津城区仁恒伊势丹 开业时间
MALL_2867ADBB,宏业广场,天津城区,河北区,39.16555,117.217342,B00160ECWT,3,3,天津城区宏业广场 开发商,天津城区宏业广场 开业时间
MALL_045DF192,寿春环球港,淮南市,寿县,32.542596,116.802918,B0G03ZH0J8,3,3,淮南市寿春环球港 开发商,淮南市寿春环球港 开业时间
MALL_96A6294A,港商场,淮南市,寿县,32.351729,117.018963,B0I2KYIYMP,3,3,淮南市港商场 开发商,淮南市港商场 开业时间
MALL_ED5EEA7D,大金新百,淮南市,田家庵区,32.641235,117.017747,B022A02JH2,3,3,淮南市大金新百 开发商,淮南市大金新百 开业时间
MALL_E807EC0A,正元广场,滁州市,明光市,32.784525,118.01028,B0FFHI9DXD,3,3,滁州市正元广场 开发商,滁州市正元广场 开业时间
MALL_544BB326,国祯广场,蚌埠市,龙子湖区,32.944273,117.389293,B0FFFFU0ZY,3,3,蚌埠市国祯广场 开发商,蚌埠市国祯广场 开业时间
MALL_4C332DDA,汇丰广场,铜陵市,铜官区,30.927843,117.813749,B0232005E4,3,3,铜陵市汇丰广场 开发商,铜陵市汇丰广场 开业时间
MALL_68F178BF,安徽百太,阜阳市,太和县,33.15612,115.621183,B061600481,3,3,阜阳市安徽百太 开发商,阜阳市安徽百太 开业时间
MALL_AF9EEB67,华联生活广场,阜阳市,颍州区,32.889654,115.811246,B061600DFA,3,3,阜阳市华联生活广场 开发商,阜阳市华联生活广场 开业时间
MALL_61148393,威高广场,威海市,环翠区,37.504624,122.123132,B027714JDO,3,3,威海市威高广场 开发商,威海市威高广场 开业时间
MALL_71B86B3F,和瑞广场,济南市,历下区,36.662076,117.071898,B0FFH02GVR,3,3,济南市和瑞广场 开发商,济南市和瑞广场 开业时间
MALL_C9EB268B,美莲广场,济南市,历下区,36.676554,117.137015,B0FFFDXC3Z,3,3,济南市美莲广场 开发商,济南市美莲广场 开业时间
MALL_255AF96D,淄博商厦,滨州市,邹平市,36.886016,117.770604,B0FFGMVRHC,3,3,滨州市淄博商厦 开发商,滨州市淄博商厦 开业时间
MALL_5E0BB78F,家家悦超市,潍坊市,高密市,36.381505,119.766667,B021815PL7,3,3,潍坊市家家悦超市 开发商,潍坊市家家悦超市 开业时间
MALL_E3A83061,温州城,运城市,河津市,35.589788,110.714485,B0FFH5VYXI,3,3,运城市温州城 开发商,运城市温州城 开业时间
MALL_852B845C,大信·新都汇,中山市,南朗街道,22.670159,113.24691,B02F80P2AF,3,3,中山市大信·新都汇 开发商,中山市大信·新都汇 开业时间
MALL_BA096CFB,泰德天润广场,云浮市,罗定市,22.751621,111.573063,B0IUMRDKCD,3,3,云浮市泰德天润广场 开发商,云浮市泰德天润广场 开业时间
MALL_26F6CC54,盈信广场,云浮市,郁南县,23.23901,111.536511,B0FFFOTIUX,3,3,云浮市盈信广场 开发商,云浮市盈信广场 开业时间
MALL_B7A84B7A,富弘广场,佛山市,南海区,23.059914,113.045197,B02F50ZYVX,3,3,佛山市富弘广场 开发商,佛山市富弘广场 开业时间
MALL_C38EE53C,金铂中心,佛山市,南海区,23.010862,113.156326,B0JDPUTBPN,3,3,佛山市金铂中心 开发商,佛山市金铂中心 开业时间
MALL_289E9008,天河领展广场,广州市,天河区,23.123706,113.344307,B0FFF9SW1I,3,3,广州市天河领展广场 开发商,广州市天河领展广场 开业时间
MALL_6A5CB907,钻汇广场,广州市,番禺区,22.947813,113.36263,B00140V160,3,3,广州市钻汇广场 开发商,广州市钻汇广场 开业时间
MALL_B937F669,华通广场,广州市,白云区,23.333805,113.296089,B00140NDIM,3,3,广州市华通广场 开发商,广州市华通广场 开业时间
MALL_5B96617A,来又来,广州市,花都区,23.398309,113.232038,B00141RG9U,3,3,广州市来又来 开发商,广州市来又来 开业时间
MALL_F98A64EB,星际云汇,广州市,黄埔区,23.17152,113.502695,B0H2Y5YCH3,3,3,广州市星际云汇 开发商,广州市星际云汇 开业时间
MALL_8530BFC4,融湖广场,深圳市,龙岗区,22.692841,114.122082,B0HUDSKXBL,3,3,深圳市融湖广场 开发商,深圳市融湖广场 开业时间
MALL_EF0E7ACE,美林广场,清远市,清新区,23.734413,113.022134,B02FB0P7Q3,3,3,清远市美林广场 开发商,清远市美林广场 开业时间
MALL_1EAB7FE3,融德广场,珠海市,香洲区,22.248324,113.523808,B0FFGBAJIA,3,3,珠海市融德广场 开发商,珠海市融德广场 开业时间
MALL_6CB9B27F,中豪广场,肇庆市,四会市,23.341722,112.692156,B02F601SF7,3,3,肇庆市中豪广场 开发商,肇庆市中豪广场 开业时间
MALL_82B3805F,天宁广场,肇庆市,端州区,23.048074,112.468566,B02F600A89,3,3,肇庆市天宁广场 开发商,肇庆市天宁广场 开业时间
MALL_FA828F25,兴隆广场,防城港市,港口区,21.672625,108.366575,B0LUN57I34,3,3,防城港市兴隆广场 开发商,防城港市兴隆广场 开业时间
MALL_1F9C9191,名品广场,塔城地区,乌苏市,44.43308,84.684936,B03850LUVM,3,3,塔城地区名品广场 开发商,塔城地区名品广场 开业时间
MALL_6A57B48D,瑞丰商场,巴音郭楞蒙古自治州,库尔勒市,41.760668,86.144564,B03E400JUM,3,3,巴音郭楞蒙古自治州瑞丰商场 开发商,巴音郭楞蒙古自治州瑞丰商场 开业时间
MALL_9CFCA449,美利广场,南京市,六合区,32.242867,118.749779,B0FFGG6HNJ,3,3,南京市美利广场 开发商,南京市美利广场 开业时间
MALL_8C87E5CE,金辉广场,南京市,浦口区,32.144395,118.71115,B0FFFVKJTF,3,3,南京市金辉广场 开发商,南京市金辉广场 开业时间
MALL_50A0F43D,天龙广场,扬州市,高邮市,32.764144,119.474963,B0JR6AK673,3,3,扬州市天龙广场 开发商,扬州市天龙广场 开业时间
MALL_1B40B9AA,欢乐广场,无锡市,滨湖区,31.506186,120.283333,B01FE18WHV,3,3,无锡市欢乐广场 开发商,无锡市欢乐广场 开业时间
MALL_6C443E86,新湖广场,苏州市,吴江区,31.178675,120.637137,B0FFJGJZTQ,3,3,苏州市新湖广场 开发商,苏州市新湖广场 开业时间
MALL_00FA2E10,昆山商厦,苏州市,昆山市,31.375674,120.957138,B02000K8IG,3,3,苏州市昆山商厦 开发商,苏州市昆山商厦 开业时间
MALL_4CB71A89,双湖广场,苏州市,虎丘区,31.283103,120.671863,B0FFGIFSKF,3,3,苏州市双湖广场 开发商,苏州市双湖广场 开业时间
MALL_441BB70E,星悦里,苏州市,虎丘区,31.345588,120.436757,B0H6JSF0AU,3,3,苏州市星悦里 开发商,苏州市星悦里 开业时间
MALL_3AEC2D78,万盛百货,上饶市,信州区,28.441243,117.970558,B0FFI1BS9Q,3,3,上饶市万盛百货 开发商,上饶市万盛百货 开业时间
MALL_C7A93FF1,润阳广场,廊坊市,三河市,39.917552,116.819255,B0G1PMJH0Q,3,3,廊坊市润阳广场 开发商,廊坊市润阳广场 开业时间
MALL_CB1EE9E1,智慧广场,沧州市,新华区,38.311803,116.863156,B013D0NQAP,3,3,沧州市智慧广场 开发商,沧州市智慧广场 开业时间
MALL_AA2EB25B,勒泰中心,石家庄市,长安区,38.044918,114.5067,B013706ZD9,3,3,石家庄市勒泰中心 开发商,石家庄市勒泰中心 开业时间
MALL_15FF652B,康德商场,邯郸市,丛台区,36.604389,114.483169,B0136018J5,3,3,邯郸市康德商场 开发商,邯郸市康德商场 开业时间
MALL_E92425B5,大裕城,南阳市,方城县,33.263074,113.017623,B0FFIUMJM4,3,3,南阳市大裕城 开发商,南阳市大裕城 开业时间
MALL_971CCB8E,双丰商城,平顶山市,新华区,33.732828,113.291447,B017700W6O,3,3,平顶山市双丰商城 开发商,平顶山市双丰商城 开业时间
MALL_F7F9E0FB,华商城,洛阳市,嵩县,34.149868,112.09575,B0I2YANQRT,3,3,洛阳市华商城 开发商,洛阳市华商城 开业时间
MALL_A2472088,金汇广场,许昌市,鄢陵县,34.082724,114.200743,B0FFHCYN6U,3,3,许昌市金汇广场 开发商,许昌市金汇广场 开业时间
MALL_74EB8DFC,宇龙广场,许昌市,长葛市,34.223513,113.770221,B0FFFZTO3A,3,3,许昌市宇龙广场 开发商,许昌市宇龙广场 开业时间
MALL_F08DB3B7,大禹城,郑州市,登封市,34.456787,113.044073,B0HAMS1SR4,3,3,郑州市大禹城 开发商,郑州市大禹城 开业时间
MALL_CE0EB05F,商城大厦,郑州市,管城回族区,34.753347,113.667326,B01730IDAY,3,3,郑州市商城大厦 开发商,郑州市商城大厦 开业时间
MALL_7C14EBB9,星港汇,嘉兴市,秀洲区,30.674391,120.65477,B0FFHDOD2E,3,3,嘉兴市星港汇 开发商,嘉兴市星港汇 开业时间
MALL_F6A98A2B,湖滨广场,宁波市,镇海区,29.961004,121.599546,B0J605B0AK,3,3,宁波市湖滨广场 开发商,宁波市湖滨广场 开业时间
MALL_022F4B01,银隆百货,杭州市,萧山区,30.171081,120.268274,B023B0BI3W,3,3,杭州市银隆百货 开发商,杭州市银隆百货 开业时间
MALL_858F9476,蝴蝶广场,温州市,乐清市,28.115923,120.990238,B0GKZS821T,3,3,温州市蝴蝶广场 开发商,温州市蝴蝶广场 开业时间
MALL_E083DE48,上百万和城,绍兴市,上虞区,30.031906,120.875621,B023F03B5B,3,3,绍兴市上百万和城 开发商,绍兴市上百万和城 开业时间
MALL_219D0A36,夏日广场,儋州市,白马井镇,19.527815,109.58889,B0FFF540I9,3,3,儋州市夏日广场 开发商,儋州市夏日广场 开业时间
MALL_A1581483,南亚广场,海口市,美兰区,20.030731,110.351465,B038202EYK,3,3,海口市南亚广场 开发商,海口市南亚广场 开业时间
MALL_3B32DD36,海甸城,海口市,美兰区,20.048855,110.343298,B0FFH0A43Z,3,3,海口市海甸城 开发商,海口市海甸城 开业时间
MALL_D8D9B82D,新城广场,仙桃市,陈场镇,30.349453,113.45649,B0FFJPAOVS,3,3,仙桃市新城广场 开发商,仙桃市新城广场 开业时间
MALL_54675AA3,新合作,十堰市,丹江口市,32.54236,111.521455,B02CF0442V,3,3,十堰市新合作 开发商,十堰市新合作 开业时间
MALL_33C7FAD3,泛悦Mall,武汉市,武昌区,30.505355,114.324906,B0FFI7V0MH,3,3,武汉市泛悦Mall 开发商,武汉市泛悦Mall 开业时间
MALL_1618FDA9,大洋晶典,武汉市,洪山区,30.505807,114.40166,B001B0JNE3,3,3,武汉市大洋晶典 开发商,武汉市大洋晶典 开业时间
MALL_E20F2A92,兆丰商厦,岳阳市,岳阳楼区,29.374599,113.109616,B02DA02VCU,3,3,岳阳市兆丰商厦 开发商,岳阳市兆丰商厦 开业时间
MALL_A05879FF,溪悦荟,长沙市,雨花区,28.142623,113.032284,B0GUO53F0T,3,3,长沙市溪悦荟 开发商,长沙市溪悦荟 开业时间
MALL_CD845E06,东湖广场,兰州市,城关区,36.051098,103.872941,B0FFHJ4QYL,3,3,兰州市东湖广场 开发商,兰州市东湖广场 开业时间
MALL_F1FB54F4,亚欧商厦,兰州市,城关区,36.060063,103.818187,B03A3085BC,3,3,兰州市亚欧商厦 开发商,兰州市亚欧商厦 开业时间
MALL_D089408A,京都之星,兰州市,皋兰县,36.480875,103.671925,B0L63Z6059,3,3,兰州市京都之星 开发商,兰州市京都之星 开业时间
MALL_2183D111,凤凰广场,莆田市,荔城区,25.429494,119.022351,B0GKPGW0E2,3,3,莆田市凤凰广场 开发商,莆田市凤凰广场 开业时间
MALL_C2F9BC91,不夜城,丹东市,宽甸满族自治县,40.726447,124.782916,B019F00NG1,3,3,丹东市不夜城 开发商,丹东市不夜城 开业时间
MALL_F17500F6,商海大厦,抚顺市,新抚区,41.862606,123.905507,B019D00XPI,3,3,抚顺市商海大厦 开发商,抚顺市商海大厦 开业时间
MALL_B686C119,桔子广场,盘锦市,兴隆台区,41.117564,122.094636,B0FFGBF5FP,3,3,盘锦市桔子广场 开发商,盘锦市桔子广场 开业时间
MALL_C83F4745,聚源润璟广场,重庆城区,九龙坡区,29.506155,106.494189,B0FFI0B01V,3,3,重庆城区聚源润璟广场 开发商,重庆城区聚源润璟广场 开业时间
MALL_B2B88CED,爱情广场,重庆城区,永川区,29.314017,105.936151,B0FFGENM4I,3,3,重庆城区爱情广场 开发商,重庆城区爱情广场 开业时间
MALL_62B990FC,时代商都,重庆城区,璧山区,29.588013,106.230775,B00178TY2W,3,3,重庆城区时代商都 开发商,重庆城区时代商都 开业时间
MALL_7481D1BA,赛高街区,西安市,未央区,34.328787,108.946101,B0FFFLLJT3,3,3,西安市赛高街区 开发商,西安市赛高街区 开业时间
MALL_AA52B1F8,太奥广场,西安市,莲湖区,34.282626,108.895068,B0FFFO60CO,3,3,西安市太奥广场 开发商,西安市太奥广场 开业时间
MALL_0EE19F19,荣民龙首广场,西安市,莲湖区,34.292094,108.948003,B0FFHJGLAP,3,3,西安市荣民龙首广场 开发商,西安市荣民龙首广场 开业时间
MALL_0DCC9207,西安大都荟,西安市,雁塔区,34.237634,108.893818,B0FFF8Z2GV,3,3,西安市西安大都荟 开发商,西安市西安大都荟 开业时间
MALL_59C11EAB,红博中央公园,哈尔滨市,南岗区,45.757638,126.698488,B0FFG1PEOL,3,3,哈尔滨市红博中央公园 开发商,哈尔滨市红博中央公园 开业时间
MALL_3C470F50,小米之家,太原市,尖草坪区,37.929573,112.526143,B0K6PASK59,2,2684,太原市小米之家 开发商,太原市小米之家 开业时间
MALL_DB8428D6,新世纪超市,大理白族自治州,洱源县,25.982958,99.805472,B0FFF2WTO4,2,6,大理白族自治州新世纪超市 开发商,大理白族自治州新世纪超市 开业时间
MALL_BB05A612,九州超市,临沂市,临沭县,34.916923,118.641192,B0FFK29PFO,2,6,临沂市九州超市 开发商,临沂市九州超市 开业时间
MALL_6AFD6C33,信业商厦,德州市,陵城区,37.32217,116.57259,B0FFM5M1OC,2,6,德州市信业商厦 开发商,德州市信业商厦 开业时间
MALL_A5BC74DC,兴隆商城,乌兰察布市,凉城县,40.526632,112.499766,B01DA14DY2,2,5,乌兰察布市兴隆商城 开发商,乌兰察布市兴隆商城 开业时间
MALL_67C7C1D0,盛德美,洛阳市,孟津区,34.811816,112.440776,B0K65CIHZ3,2,5,洛阳市盛德美 开发商,洛阳市盛德美 开业时间
MALL_05C29E6B,静安嘉里中心,上海城区,静安区,31.223558,121.449749,B0FFFYQI02,2,4,上海城区静安嘉里中心 开发商,上海城区静安嘉里中心 开业时间
MALL_D88DC32A,地下商场,丽江市,古城区,26.875741,100.231421,B0FFHRLNS4,2,4,丽江市地下商场 开发商,丽江市地下商场 开业时间
MALL_29E8634B,星城商厦,北京城区,大兴区,39.730513,116.338982,B000A6D895,2,4,北京城区星城商厦 开发商,北京城区星城商厦 开业时间
MALL_2D452347,华盛广场,合肥市,肥东县,31.831539,117.417169,B0FFITDXD7,2,4,合肥市华盛广场 开发商,合肥市华盛广场 开业时间
MALL_BEC768EF,伟星·星悦广场,芜湖市,弋江区,31.227363,118.27178,B0FFKS1TSJ,2,4,芜湖市伟星·星悦广场 开发商,芜湖市伟星·星悦广场 开业时间
MALL_23B8AA85,银座商厦,聊城市,临清市,36.834969,115.718,B0IAL98FE3,2,4,聊城市银座商厦 开发商,聊城市银座商厦 开业时间
MALL_05A46B2D,东湖井商城,晋中市,榆次区,37.683697,112.749939,B01620MWLR,2,4,晋中市东湖井商城 开发商,晋中市东湖井商城 开业时间
MALL_D5CE0D51,茶百道,无锡市,宜兴市,31.358164,119.843865,B0H1TYHVCE,2,4,无锡市茶百道 开发商,无锡市茶百道 开业时间
MALL_BDB44398,硅谷广场,郑州市,金水区,34.796452,113.665272,B017316QWP,2,4,郑州市硅谷广场 开发商,郑州市硅谷广场 开业时间
MALL_F4ECE664,东方超市,荆门市,京山市,31.020816,113.118644,B0FFGGZP0X,2,4,荆门市东方超市 开发商,荆门市东方超市 开业时间
MALL_D5910974,中闽百汇商场,泉州市,丰泽区,24.885719,118.610285,B025302IRT,2,4,泉州市中闽百汇商场 开发商,泉州市中闽百汇商场 开业时间
MALL_92C1CDA0,重百商场,重庆郊县,忠县,30.290939,108.036513,B0L3C9KEQX,2,4,重庆郊县重百商场 开发商,重庆郊县重百商场 开业时间
MALL_53630FAD,近铁城市广场,上海城区,普陀区,31.232492,121.3817,B00156F486,2,3,上海城区近铁城市广场 开发商,上海城区近铁城市广场 开业时间
MALL_DE235F7F,MOHO,上海城区,静安区,31.237478,121.448417,B0HDC9KZTB,2,3,上海城区MOHO 开发商,上海城区MOHO 开业时间
MALL_0EC7AAAB,金格百货,昆明市,盘龙区,25.062468,102.724099,B0367087NM,2,3,昆明市金格百货 开发商,昆明市金格百货 开业时间
MALL_330DDA6C,万人商厦,乌兰察布市,卓资县,40.902993,112.564519,B01DA14I3B,2,3,乌兰察布市万人商厦 开发商,乌兰察布市万人商厦 开业时间
MALL_EBFA2565,上海城,赤峰市,松山区,42.251952,118.890334,B01DC15O95,2,3,赤峰市上海城 开发商,赤峰市上海城 开业时间
MALL_094754FE,每天百货都市,鄂尔多斯市,东胜区,39.81756,110.004878,B01DD005JU,2,3,鄂尔多斯市每天百货都市 开发商,鄂尔多斯市每天百货都市 开业时间
MALL_9DABA6F8,鑫海韵通大卖场,北京城区,平谷区,40.154285,117.123726,B000A8X6JH,2,3,北京城区鑫海韵通大卖场 开发商,北京城区鑫海韵通大卖场 开业时间
MALL_4AEEA5F7,西单商场,北京城区,昌平区,40.066117,116.414413,B000A7XDCE,2,3,北京城区西单商场 开发商,北京城区西单商场 开业时间
MALL_2CC45047,百尚生活广场,北京城区,通州区,39.753013,116.544945,B0FFG72KQY,2,3,北京城区百尚生活广场 开发商,北京城区百尚生活广场 开业时间
MALL_1277B085,阳光新生活广场,北京城区,通州区,39.889718,116.656336,B000A8WEF5,2,3,北京城区阳光新生活广场 开发商,北京城区阳光新生活广场 开业时间
MALL_B72090EB,国商百货,四平市,双辽市,43.518894,123.48721,B0FFFFY9M9,2,3,四平市国商百货 开发商,四平市国商百货 开业时间
MALL_1E91865D,海悦广场,银川市,金凤区,38.461737,106.247324,B0HKPS92Z9,2,3,银川市海悦广场 开发商,银川市海悦广场 开业时间
MALL_9D7B4BC5,鲁商广场,济南市,历下区,36.646756,117.014795,B0JD151WC8,2,3,济南市鲁商广场 开发商,济南市鲁商广场 开业时间
MALL_F6FE625A,兰花城,晋城市,城区,35.498738,112.839706,B0FFJCX4T2,2,3,晋城市兰花城 开发商,晋城市兰花城 开业时间
MALL_DEE10A22,凯德世家广场,长治市,上党区,36.057818,113.058007,B0G21RA8MR,2,3,长治市凯德世家广场 开发商,长治市凯德世家广场 开业时间
MALL_0CCB20CB,碧乐时光,佛山市,顺德区,22.9223,113.268438,B0FFGZ09G8,2,3,佛山市碧乐时光 开发商,佛山市碧乐时光 开业时间
MALL_D376E0E6,万和百货,广州市,从化区,23.544795,113.596164,B00140B8G7,2,3,广州市万和百货 开发商,广州市万和百货 开业时间
MALL_D4B68B46,信和广场,广州市,海珠区,23.08954,113.274818,B00140BO2B,2,3,广州市信和广场 开发商,广州市信和广场 开业时间
MALL_ED99FE48,白云汇广场,广州市,白云区,23.202509,113.268988,B0FFG6RQV5,2,3,广州市白云汇广场 开发商,广州市白云汇广场 开业时间
MALL_ECA3D186,欧洲城,深圳市,南山区,22.55721,113.965459,B02F38NU68,2,3,深圳市欧洲城 开发商,深圳市欧洲城 开业时间
MALL_ED93575A,星河COCO City,深圳市,龙华区,22.602886,114.04669,B0FFFQ1HT3,2,3,深圳市星河COCO City 开发商,深圳市星河COCO City 开业时间
MALL_0DBAF79D,五星广场,石河子市,北泉镇,44.304472,86.039934,B0FFF4FQQW,2,3,石河子市五星广场 开发商,石河子市五星广场 开业时间
MALL_EED96D71,德润广场,盐城市,东台市,32.862141,120.319078,B020316Y88,2,3,盐城市德润广场 开发商,盐城市德润广场 开业时间
MALL_F1E46FB2,天洋广场,廊坊市,三河市,39.965075,116.821071,B0FFFDH245,2,3,廊坊市天洋广场 开发商,廊坊市天洋广场 开业时间
MALL_E194F63E,燕都广场,张家口市,怀来县,40.405894,115.518352,B013902KB9,2,3,张家口市燕都广场 开发商,张家口市燕都广场 开业时间
MALL_DB866488,兴龙广缘,秦皇岛市,卢龙县,39.900377,118.891127,B0HD6CCDUR,2,3,秦皇岛市兴龙广缘 开发商,秦皇岛市兴龙广缘 开业时间
MALL_3EACAF0A,冠兴商厦,邢台市,新河县,37.527484,115.250705,B0FFJYZEIS,2,3,邢台市冠兴商厦 开发商,邢台市冠兴商厦 开业时间
MALL_43DFB93D,梦乐城,三门峡市,陕州区,34.763408,111.155051,B0J6VZ898S,2,3,三门峡市梦乐城 开发商,三门峡市梦乐城 开业时间
MALL_6505FA0B,天空之城,新乡市,获嘉县,35.259675,113.655075,B0H2A77QIU,2,3,新乡市天空之城 开发商,新乡市天空之城 开业时间
MALL_A84910E9,金黄商厦,宁波市,慈溪市,30.170805,121.243356,B023E05P0M,2,3,宁波市金黄商厦 开发商,宁波市金黄商厦 开业时间
MALL_E9B65361,九宜城,杭州市,滨江区,30.212732,120.215311,B0FFIUU4II,2,3,杭州市九宜城 开发商,杭州市九宜城 开业时间
MALL_DE919C74,星光城,杭州市,西湖区,30.277361,120.121215,B0FFKQBYXM,2,3,杭州市星光城 开发商,杭州市星光城 开业时间
MALL_7CDCC441,HAGE,六盘水市,钟山区,26.583158,104.86239,B0G149FNL1,2,3,六盘水市HAGE 开发商,六盘水市HAGE 开业时间
MALL_9FB80FCA,嘉莲华国际商业广场,上海城区,嘉定区,31.260727,121.345227,B00155QYS7,2,2,上海城区嘉莲华国际商业广场 开发商,上海城区嘉莲华国际商业广场 开业时间
MALL_342BE28E,正大乐城,上海城区,宝山区,31.345256,121.371053,B0FFFA25ZX,2,2,上海城区正大乐城 开发商,上海城区正大乐城 开业时间
MALL_A094F94F,红太阳商业广场,上海城区,宝山区,31.337198,121.445787,B001573BRE,2,2,上海城区红太阳商业广场 开发商,上海城区红太阳商业广场 开业时间
MALL_96A66E9B,上海龙华会,上海城区,徐汇区,31.173657,121.453425,B0IUO56CFN,2,2,上海城区上海龙华会 开发商,上海城区上海龙华会 开业时间
MALL_7424956F,美罗城,上海城区,徐汇区,31.192944,121.439649,B00154DTEG,2,2,上海城区美罗城 开发商,上海城区美罗城 开业时间
MALL_F6DE7810,上海月星环球港,上海城区,普陀区,31.233244,121.412625,B0FFF00NQV,2,2,上海城区上海月星环球港 开发商,上海城区上海月星环球港 开业时间
MALL_023C5A56,九亭金地广场,上海城区,松江区,31.139704,121.318483,B0FFKWS6RA,2,2,上海城区九亭金地广场 开发商,上海城区九亭金地广场 开业时间
MALL_A1E705DE,上海ifc商场,上海城区,浦东新区,31.236165,121.502326,B00155LGJZ,2,2,上海城区上海ifc商场 开发商,上海城区上海ifc商场 开业时间
MALL_2D04427F,上海第一八佰伴,上海城区,浦东新区,31.228205,121.516925,B00153A673,2,2,上海城区上海第一八佰伴 开发商,上海城区上海第一八佰伴 开业时间
MALL_3D262231,金桥国际商业广场,上海城区,浦东新区,31.255737,121.57947,B0HBKOTXCC,2,2,上海城区金桥国际商业广场 开发商,上海城区金桥国际商业广场 开业时间
MALL_6E28675B,龙阳广场,上海城区,浦东新区,31.203196,121.557635,B0FFF2LJB6,2,2,上海城区龙阳广场 开发商,上海城区龙阳广场 开业时间
MALL_6208A459,尚嘉中心,上海城区,长宁区,31.205688,121.407137,B00156O7KU,2,2,上海城区尚嘉中心 开发商,上海城区尚嘉中心 开业时间
MALL_EE001DA7,金虹桥商场,上海城区,长宁区,31.208938,121.402662,B0FFFRKA1J,2,2,上海城区金虹桥商场 开发商,上海城区金虹桥商场 开业时间
MALL_20F709E7,龙之梦城市生活中心,上海城区,长宁区,31.219137,121.416666,B001552NYO,2,2,上海城区龙之梦城市生活中心 开发商,上海城区龙之梦城市生活中心 开业时间
MALL_F6AE35B6,大宁国际商业广场,上海城区,静安区,31.274037,121.452239,B00155DLSA,2,2,上海城区大宁国际商业广场 开发商,上海城区大宁国际商业广场 开业时间
MALL_A70E0382,芮欧百货,上海城区,静安区,31.223318,121.447479,B0FFFA6WPS,2,2,上海城区芮欧百货 开发商,上海城区芮欧百货 开业时间
MALL_A5F0C08B,阳光购物广场,丽江市,宁蒗彝族自治县,27.278028,100.850639,B03781517N,2,2,丽江市阳光购物广场 开发商,丽江市阳光购物广场 开业时间
MALL_FDCE970C,华联购物广场,保山市,腾冲市,25.022333,98.499479,B036B0NB3A,2,2,保山市华联购物广场 开发商,保山市华联购物广场 开业时间
MALL_873115BD,天城商业,保山市,腾冲市,25.025536,98.493311,B0IDCK2G1P,2,2,保山市天城商业 开发商,保山市天城商业 开业时间
MALL_F6DBC2D6,中红海峡广场,大理白族自治州,大理市,25.595448,100.240697,B0FFIZR4D6,2,2,大理白族自治州中红海峡广场 开发商,大理白族自治州中红海峡广场 开业时间
MALL_5BE44344,七都国际广场,文山壮族苗族自治州,砚山县,23.611415,104.344203,B0H6HHGM4Q,2,2,文山壮族苗族自治州七都国际广场 开发商,文山壮族苗族自治州七都国际广场 开业时间
MALL_A381F791,朗悦湾广场,昆明市,五华区,25.119662,102.742945,B0FFK0EQGQ,2,2,昆明市朗悦湾广场 开发商,昆明市朗悦湾广场 开业时间
MALL_760182F9,美辰百货,昆明市,五华区,25.043156,102.701935,B036702A7C,2,2,昆明市美辰百货 开发商,昆明市美辰百货 开业时间
MALL_AE34C639,羊甫商业中心,昆明市,官渡区,24.976865,102.788173,B0FFFENEWN,2,2,昆明市羊甫商业中心 开发商,昆明市羊甫商业中心 开业时间
MALL_7C6DB377,新世纪商场,昆明市,晋宁区,24.706552,102.746897,B036708HK1,2,2,昆明市新世纪商场 开发商,昆明市新世纪商场 开业时间
MALL_35EA70EA,东风商场,曲靖市,富源县,25.473124,104.324635,B0FFHAJPVY,2,2,曲靖市东风商场 开发商,曲靖市东风商场 开业时间
MALL_E0B0EC97,天元广场,楚雄彝族自治州,元谋县,25.703079,101.871489,B036E00AP2,2,2,楚雄彝族自治州天元广场 开发商,楚雄彝族自治州天元广场 开业时间
MALL_EDA6E83C,新龙江广场,楚雄彝族自治州,楚雄市,25.037961,101.54619,B036E00C6T,2,2,楚雄彝族自治州新龙江广场 开发商,楚雄彝族自治州新龙江广场 开业时间
MALL_0E006ECA,万泰城,兴安盟,扎赉特旗,46.722261,122.906922,B0FFKCERTY,2,2,兴安盟万泰城 开发商,兴安盟万泰城 开业时间
MALL_F02B9681,维多利喜悦汇,呼和浩特市,新城区,40.864852,111.691644,B0FFI8RPIF,2,2,呼和浩特市维多利喜悦汇 开发商,呼和浩特市维多利喜悦汇 开业时间
MALL_078A4D35,维多利摩尔城A座,呼和浩特市,赛罕区,40.830352,111.710004,B0FFFAFAST,2,2,呼和浩特市维多利摩尔城A座 开发商,呼和浩特市维多利摩尔城A座 开业时间
MALL_259EE709,新世纪商城,赤峰市,克什克腾旗,43.247266,117.536637,B0FFJ068VL,2,2,赤峰市新世纪商城 开发商,赤峰市新世纪商城 开业时间
MALL_4827A245,温州商城,通辽市,科尔沁左翼后旗,42.951712,122.352985,B01DB0MIK8,2,2,通辽市温州商城 开发商,通辽市温州商城 开业时间
MALL_8D2A3919,万博广场,鄂尔多斯市,东胜区,39.829181,109.978269,B0GUA9CI9H,2,2,鄂尔多斯市万博广场 开发商,鄂尔多斯市万博广场 开业时间
MALL_971F062C,银河购物,鄂尔多斯市,准格尔旗,39.865317,111.243453,B01DD0HZS8,2,2,鄂尔多斯市银河购物 开发商,鄂尔多斯市银河购物 开业时间
MALL_519F54ED,百荣世贸商城,北京城区,东城区,39.860897,116.398399,B000A8446U,2,2,北京城区百荣世贸商城 开发商,北京城区百荣世贸商城 开业时间
MALL_3EF3E268,上品折扣,北京城区,丰台区,39.850955,116.358333,B000AAF94Z,2,2,北京城区上品折扣 开发商,北京城区上品折扣 开业时间
MALL_0FB433AD,凤翔商厦,北京城区,怀柔区,40.314253,116.631371,B000A7OYK3,2,2,北京城区凤翔商厦 开发商,北京城区凤翔商厦 开业时间
MALL_0692EA75,燕隆汇生活广场,北京城区,房山区,39.711109,116.062261,B0J0RZMRON,2,2,北京城区燕隆汇生活广场 开发商,北京城区燕隆汇生活广场 开业时间
MALL_F79A41DF,路劲世界广场,北京城区,昌平区,40.206866,116.291906,B0FFKRTWAI,2,2,北京城区路劲世界广场 开发商,北京城区路劲世界广场 开业时间
MALL_363FA6AC,首开LONG街,北京城区,昌平区,40.084725,116.371438,B0IA3XGI20,2,2,北京城区首开LONG街 开发商,北京城区首开LONG街 开业时间
MALL_A0724008,双安商场,北京城区,海淀区,39.966354,116.325813,B000A7AFF1,2,2,北京城区双安商场 开发商,北京城区双安商场 开业时间
MALL_B759098D,新辰里,北京城区,海淀区,40.008667,116.354362,B000A88DTH,2,2,北京城区新辰里 开发商,北京城区新辰里 开业时间
MALL_D63D5A9B,长安商场,北京城区,西城区,39.907838,116.345154,B000A4E931,2,2,北京城区长安商场 开发商,北京城区长安商场 开业时间
MALL_DA72DDB0,国泰生活广场,北京城区,顺义区,40.046437,116.602821,B000A8XLYP,2,2,北京城区国泰生活广场 开发商,北京城区国泰生活广场 开业时间
MALL_FA58C8CC,中东新生活,吉林市,船营区,43.861979,126.526733,B01B0024P9,2,2,吉林市中东新生活 开发商,吉林市中东新生活 开业时间
MALL_8B6517E4,百利城,延边朝鲜族自治州,延吉市,42.907177,129.513133,B0FFFN4KMJ,2,2,延边朝鲜族自治州百利城 开发商,延边朝鲜族自治州百利城 开业时间
MALL_30500518,中心商城,松原市,前郭尔罗斯蒙古族自治县,45.114939,124.822372,B01B60MMJF,2,2,松原市中心商城 开发商,松原市中心商城 开业时间
MALL_957D3296,合兴大厦,白山市,浑江区,41.938553,126.423564,B01B700BWO,2,2,白山市合兴大厦 开发商,白山市合兴大厦 开业时间
MALL_59593300,力旺广场,长春市,朝阳区,43.840732,125.290844,B0FFGY6JEE,2,2,长春市力旺广场 开发商,长春市力旺广场 开业时间
MALL_167C4EB5,仁和广场,南充市,顺庆区,30.81888,106.077831,B0FFI0BQFL,2,2,南充市仁和广场 开发商,南充市仁和广场 开业时间
MALL_056CA06B,中明广场,宜宾市,江安县,28.723683,105.058831,B0G3NUR0FH,2,2,宜宾市中明广场 开发商,宜宾市中明广场 开业时间
MALL_138C0D68,航利广场,成都市,彭州市,30.987777,103.954694,B0FFL9QYFA,2,2,成都市航利广场 开发商,成都市航利广场 开业时间
MALL_B9097F07,莱蒙都会,成都市,武侯区,30.631569,104.033674,B0FFIGASGX,2,2,成都市莱蒙都会 开发商,成都市莱蒙都会 开业时间
MALL_2E428316,瑞云欣广场,成都市,邛崃市,30.401741,103.462481,B0FFF00B5N,2,2,成都市瑞云欣广场 开发商,成都市瑞云欣广场 开业时间
MALL_317D64A5,晶融汇,成都市,锦江区,30.651415,104.08209,B001C8QJIB,2,2,成都市晶融汇 开发商,成都市晶融汇 开业时间
MALL_DD1FCB59,银石广场,成都市,锦江区,30.653141,104.079683,B001C8X4RV,2,2,成都市银石广场 开发商,成都市银石广场 开业时间
MALL_85A6C46E,金瓯广场,攀枝花市,东区,26.57309,101.727493,B032C0M5CH,2,2,攀枝花市金瓯广场 开发商,攀枝花市金瓯广场 开业时间
MALL_01A56E9C,新世界商场,泸州市,古蔺县,28.042635,105.813875,B033E0NGSA,2,2,泸州市新世界商场 开发商,泸州市新世界商场 开业时间
MALL_EC75E83E,凯立广场,遂宁市,射洪市,30.882672,105.385344,B0H1NC9X4H,2,2,遂宁市凯立广场 开发商,遂宁市凯立广场 开业时间
MALL_D4454FA6,汇城广场,天津城区,东丽区,39.084542,117.30636,B0FFF0EMNE,2,2,天津城区汇城广场 开发商,天津城区汇城广场 开业时间
MALL_0EAEB480,商贸园,天津城区,北辰区,39.216408,117.183244,B0HK5SL8NP,2,2,天津城区商贸园 开发商,天津城区商贸园 开业时间
MALL_13E81FDA,乐宾百货,天津城区,和平区,39.120217,117.195045,B00160E4WY,2,2,天津城区乐宾百货 开发商,天津城区乐宾百货 开业时间
MALL_F1C6D0C5,天津海信广场,天津城区,和平区,39.117519,117.218004,B00160E7RR,2,2,天津城区天津海信广场 开发商,天津城区天津海信广场 开业时间
MALL_38EFFC59,金海岸广场,天津城区,武清区,39.353498,117.070634,B0016152DG,2,2,天津城区金海岸广场 开发商,天津城区金海岸广场 开业时间
MALL_E12A440C,嘉里汇,天津城区,河东区,39.127266,117.21696,B0FFF6YL4R,2,2,天津城区嘉里汇 开发商,天津城区嘉里汇 开业时间
MALL_45CB53CC,悦海广场,天津城区,河北区,39.180124,117.208435,B0FFH1O1YT,2,2,天津城区悦海广场 开发商,天津城区悦海广场 开业时间
MALL_859929C1,供销商厦,天津城区,津南区,38.988257,117.385173,B001604FD5,2,2,天津城区供销商厦 开发商,天津城区供销商厦 开业时间
MALL_23BFB2D3,益海商厦,天津城区,蓟州区,40.044376,117.417694,B0016151BN,2,2,天津城区益海商厦 开发商,天津城区益海商厦 开业时间
MALL_A3E50565,银桥商场,天津城区,静海区,38.933276,116.945474,B00160F5GY,2,2,天津城区银桥商场 开发商,天津城区银桥商场 开业时间
MALL_521EEE98,新百广场,吴忠市,青铜峡市,38.019398,106.094842,B0FFJV51RT,2,2,吴忠市新百广场 开发商,吴忠市新百广场 开业时间
MALL_FF68194D,宏泰购物城,银川市,灵武市,38.095309,106.33334,B03B70POU1,2,2,银川市宏泰购物城 开发商,银川市宏泰购物城 开业时间
MALL_A0D8E69C,新百贺兰中心,银川市,贺兰县,38.555446,106.350313,B0HG6KA9WS,2,2,银川市新百贺兰中心 开发商,银川市新百贺兰中心 开业时间
MALL_F3769920,建发悠阅城,银川市,金凤区,38.428065,106.23916,B0FFM9BPHI,2,2,银川市建发悠阅城 开发商,银川市建发悠阅城 开业时间
MALL_B12678C4,七彩世界,亳州市,利辛县,33.149689,116.208084,B0FFF2WT7A,2,2,亳州市七彩世界 开发商,亳州市七彩世界 开业时间
MALL_80707B33,山水奥莱,六安市,金安区,31.743121,116.529059,B0HRLU0PX3,2,2,六安市山水奥莱 开发商,六安市山水奥莱 开业时间
MALL_3D0E632D,加侨国际广场,合肥市,包河区,31.815188,117.301237,B0HR5AAQPZ,2,2,合肥市加侨国际广场 开发商,合肥市加侨国际广场 开业时间
MALL_E2A4C8BD,悦方ID MALL,合肥市,包河区,31.740055,117.304565,B0FFG8SYUZ,2,2,合肥市悦方ID MALL 开发商,合肥市悦方ID MALL 开业时间
MALL_F557F12E,香港广场,合肥市,庐阳区,31.865748,117.286336,B02270JS0Y,2,2,合肥市香港广场 开发商,合肥市香港广场 开业时间
MALL_BDFE1C16,港澳广场,合肥市,蜀山区,31.791216,117.208242,B0227161K1,2,2,合肥市港澳广场 开发商,合肥市港澳广场 开业时间
MALL_6DC388E7,凤鸣广场,宿州市,埇桥区,33.651187,117.002687,B0G1HAIT0O,2,2,宿州市凤鸣广场 开发商,宿州市凤鸣广场 开业时间
MALL_B2CC97D7,同盛广场,宿州市,埇桥区,33.639689,116.985424,B0FFFT8KD2,2,2,宿州市同盛广场 开发商,宿州市同盛广场 开业时间
MALL_97094013,嘉泰广场,宿州市,砀山县,34.430773,116.351479,B0FFFZPCOT,2,2,宿州市嘉泰广场 开发商,宿州市嘉泰广场 开业时间
MALL_178412D6,袁庄商场,淮南市,潘集区,32.784079,116.818153,B022A02G4N,2,2,淮南市袁庄商场 开发商,淮南市袁庄商场 开业时间
MALL_824FBEEC,金鹏琅琊玖玖广场,滁州市,琅琊区,32.320922,118.329488,B0G3XLDVG9,2,2,滁州市金鹏琅琊玖玖广场 开发商,滁州市金鹏琅琊玖玖广场 开业时间
MALL_DB8C61B5,大润民生活广场,临沂市,平邑县,35.515921,117.62141,B0FFIDC5JK,2,2,临沂市大润民生活广场 开发商,临沂市大润民生活广场 开业时间
MALL_882F028E,鲁商城市广场,临沂市,郯城县,34.613347,118.387696,B0JK0CQVB0,2,2,临沂市鲁商城市广场 开发商,临沂市鲁商城市广场 开业时间
MALL_617C1C8A,阳光商城,德州市,临邑县,37.188257,116.871045,B0FFG30N63,2,2,德州市阳光商城 开发商,德州市阳光商城 开业时间
MALL_95DCA602,成和商厦,德州市,平原县,37.16466,116.441429,B0FFGMG3IA,2,2,德州市成和商厦 开发商,德州市成和商厦 开业时间
MALL_CFC4CAF7,金安商城,日照市,岚山区,35.300576,119.214148,B0FFKPPK05,2,2,日照市金安商城 开发商,日照市金安商城 开业时间
MALL_C938ADF3,丁豪广场,济南市,历下区,36.680959,117.123176,B02130U9YD,2,2,济南市丁豪广场 开发商,济南市丁豪广场 开业时间
MALL_8ECB9579,欧亚大观乐活城,济南市,市中区,36.633151,116.982364,B0GK4ANU8A,2,2,济南市欧亚大观乐活城 开发商,济南市欧亚大观乐活城 开业时间
MALL_772C1976,金汇大厦,济南市,章丘区,36.715195,117.528149,B021308051,2,2,济南市金汇大厦 开发商,济南市金汇大厦 开业时间
MALL_A11377FE,秀水城,济宁市,任城区,35.405475,116.587899,B02190ADON,2,2,济宁市秀水城 开发商,济宁市秀水城 开业时间
MALL_EFCF0DE3,联民广场,济宁市,汶上县,35.720174,116.494778,B02190A7OM,2,2,济宁市联民广场 开发商,济宁市联民广场 开业时间
MALL_9A1DFBD3,太平洋广场,烟台市,牟平区,37.389324,121.560404,B02170TGLQ,2,2,烟台市太平洋广场 开发商,烟台市太平洋广场 开业时间
MALL_0AE41C56,南尧新都汇,烟台市,芝罘区,37.508726,121.366405,B0FFFLWWR7,2,2,烟台市南尧新都汇 开发商,烟台市南尧新都汇 开业时间
MALL_FB84F3AC,振华广场,烟台市,芝罘区,37.565621,121.356298,B02170380Q,2,2,烟台市振华广场 开发商,烟台市振华广场 开业时间
MALL_70347253,华府广场,烟台市,龙口市,37.619476,120.322034,B0FFKH077A,2,2,烟台市华府广场 开发商,烟台市华府广场 开业时间
MALL_634877D6,振华五星百货,聊城市,东昌府区,36.462017,115.989183,B027B01693,2,2,聊城市振华五星百货 开发商,聊城市振华五星百货 开业时间
MALL_91AD9B53,鑫江东方城,青岛市,城阳区,36.236828,120.427996,B02140WSLV,2,2,青岛市鑫江东方城 开发商,青岛市鑫江东方城 开业时间
MALL_B22F87D3,金荷广场,青岛市,平度市,36.785364,119.954744,B0FFFAIQ43,2,2,青岛市金荷广场 开发商,青岛市金荷广场 开业时间
MALL_318AE773,吉韩商厦,青岛市,黄岛区,35.968173,120.181441,B021409PKT,2,2,青岛市吉韩商厦 开发商,青岛市吉韩商厦 开业时间
MALL_58A387EF,长江商厦,青岛市,黄岛区,35.968591,120.180413,B02140VXXX,2,2,青岛市长江商厦 开发商,青岛市长江商厦 开业时间
MALL_24CD6AB3,V盟荟,太原市,小店区,37.800967,112.597015,B0FFL994OR,2,2,太原市V盟荟 开发商,太原市V盟荟 开业时间
MALL_C285F69F,龙凤商场,忻州市,五台县,38.645134,113.152752,B0FFJ3EKES,2,2,忻州市龙凤商场 开发商,忻州市龙凤商场 开业时间
MALL_92610DF3,丽都广场,忻州市,繁峙县,39.183459,113.263984,B0KGXASBTO,2,2,忻州市丽都广场 开发商,忻州市丽都广场 开业时间
MALL_00D66F94,太行国潮奥莱,晋城市,高平市,35.803258,112.939252,B0JG1HAFUE,2,2,晋城市太行国潮奥莱 开发商,晋城市太行国潮奥莱 开业时间
MALL_13A8F976,万佳广场,运城市,临猗县,35.130804,110.781175,B0FFGQ6K9Z,2,2,运城市万佳广场 开发商,运城市万佳广场 开业时间
MALL_469A84A9,顺昌广场,中山市,南朗街道,22.3639,113.442812,B02F80OTDH,2,2,中山市顺昌广场 开发商,中山市顺昌广场 开业时间
MALL_3D404723,兴业广场,云浮市,云城区,22.930106,112.036643,B02FE01KGY,2,2,云浮市兴业广场 开发商,云浮市兴业广场 开业时间
MALL_6661EB3F,新动力广场,佛山市,三水区,23.172862,112.868182,B0FFG8Y2VA,2,2,佛山市新动力广场 开发商,佛山市新动力广场 开业时间
MALL_A596F3B9,信基广场,佛山市,南海区,22.841557,113.013926,B0FFF2SPO6,2,2,佛山市信基广场 开发商,佛山市信基广场 开业时间
MALL_009004EC,顺成·顺融城,佛山市,顺德区,22.826503,113.272961,B0FFKWMFIS,2,2,佛山市顺成·顺融城 开发商,佛山市顺成·顺融城 开业时间
MALL_7DCA9157,欣荣广场,广州市,从化区,23.532032,113.590676,B0FFIVO5WA,2,2,广州市欣荣广场 开发商,广州市欣荣广场 开业时间
MALL_2E1466E1,悦方城,广州市,南沙区,22.81418,113.501538,B0IA9ZKRCB,2,2,广州市悦方城 开发商,广州市悦方城 开业时间
MALL_6C4875EE,亚运城广场,广州市,番禺区,22.941816,113.476557,B0FFILWI5N,2,2,广州市亚运城广场 开发商,广州市亚运城广场 开业时间
MALL_28B2D81F,基盛万科里,广州市,番禺区,22.931507,113.386662,B0FFIPT5GV,2,2,广州市基盛万科里 开发商,广州市基盛万科里 开业时间
MALL_88AADC59,龙归金铂广场,广州市,白云区,23.267491,113.294412,B00141U9ID,2,2,广州市龙归金铂广场 开发商,广州市龙归金铂广场 开业时间
MALL_EA256D7A,恒宝广场,广州市,荔湾区,23.117591,113.241417,B00140DZIZ,2,2,广州市恒宝广场 开发商,广州市恒宝广场 开业时间
MALL_80CBEA09,丽柏广场,广州市,越秀区,23.137517,113.286259,B001401F54,2,2,广州市丽柏广场 开发商,广州市丽柏广场 开业时间
MALL_403D366E,领好广场,广州市,黄埔区,23.085076,113.524997,B00140W28S,2,2,广州市领好广场 开发商,广州市领好广场 开业时间
MALL_0A71CB3E,隆生广场,惠州市,惠城区,23.08327,114.422619,B0FFGWYMTX,2,2,惠州市隆生广场 开发商,惠州市隆生广场 开业时间
MALL_8A15B8D5,天安里,惠州市,惠阳区,22.79595,114.458137,B0HBB760S3,2,2,惠州市天安里 开发商,惠州市天安里 开业时间
MALL_93EF6C67,岁宝百货,梅州市,兴宁市,24.136194,115.741789,B0FFFA0WDA,2,2,梅州市岁宝百货 开发商,梅州市岁宝百货 开业时间
MALL_7C01092D,合胜百货,汕头市,龙湖区,23.377775,116.724293,B0FFFV301O,2,2,汕头市合胜百货 开发商,汕头市合胜百货 开业时间
MALL_4C9E0F83,锦江国际广场,江门市,恩平市,22.185581,112.345452,B0FFGQ0H31,2,2,江门市锦江国际广场 开发商,江门市锦江国际广场 开业时间
MALL_FCCF77E4,前海壹方汇,深圳市,南山区,22.529207,113.896641,B0J6B5UREG,2,2,深圳市前海壹方汇 开发商,深圳市前海壹方汇 开业时间
MALL_A700037F,悦方广场,深圳市,南山区,22.58128,113.945205,B0FFH0YBOX,2,2,深圳市悦方广场 开发商,深圳市悦方广场 开业时间
MALL_17E5B463,凤凰安荟邻,深圳市,坪山区,22.722874,114.385389,B0JKSAZLJS,2,2,深圳市凤凰安荟邻 开发商,深圳市凤凰安荟邻 开业时间
MALL_09595BAB,iN城市广场,深圳市,福田区,22.539703,114.098805,B02F38IZN3,2,2,深圳市iN城市广场 开发商,深圳市iN城市广场 开业时间
MALL_DE6E25E3,卓悦中心西区,深圳市,福田区,22.536119,114.064581,B0IUMC8LUD,2,2,深圳市卓悦中心西区 开发商,深圳市卓悦中心西区 开业时间
MALL_0F7697A6,喜荟城,深圳市,罗湖区,22.568401,114.139869,B02F37W76Z,2,2,深圳市喜荟城 开发商,深圳市喜荟城 开业时间
MALL_0FC2B50E,深圳万象食家,深圳市,罗湖区,22.561698,114.110613,B0G23K7W60,2,2,深圳市深圳万象食家 开发商,深圳市深圳万象食家 开业时间
MALL_DD5659DE,观澜湖新城MH MALL,深圳市,龙华区,22.722588,114.075847,B0FFFDNINF,2,2,深圳市观澜湖新城MH MALL 开发商,深圳市观澜湖新城MH MALL 开业时间
MALL_21E5658E,壹悦城,清远市,清城区,23.710401,113.035174,B02FB0PH4V,2,2,清远市壹悦城 开发商,清远市壹悦城 开业时间
MALL_C29E370D,丽悦新天,湛江市,赤坎区,21.266212,110.392862,B02F70P5LH,2,2,湛江市丽悦新天 开发商,湛江市丽悦新天 开业时间
MALL_D3D755CA,十字门华发商都二期,珠海市,香洲区,22.173585,113.520591,B0JU47BEX5,2,2,珠海市十字门华发商都二期 开发商,珠海市十字门华发商都二期 开业时间
MALL_6BE98CD6,大旺广场,肇庆市,四会市,23.295131,112.811774,B02F60PR87,2,2,肇庆市大旺广场 开发商,肇庆市大旺广场 开业时间
MALL_D1C2D064,缤纷世界,茂名市,电白区,21.511342,111.016078,B0FFH97Q82,2,2,茂名市缤纷世界 开发商,茂名市缤纷世界 开业时间
MALL_4523B71B,潘州广场,茂名市,高州市,21.900934,110.87109,B0H2YCWIB5,2,2,茂名市潘州广场 开发商,茂名市潘州广场 开业时间
MALL_2EAC1033,一号广场,南宁市,江南区,22.800114,108.249259,B0FFGAJ0O2,2,2,南宁市一号广场 开发商,南宁市一号广场 开业时间
MALL_2BE5E2AA,三祺广场,南宁市,青秀区,22.812009,108.396695,B0FFF0DL64,2,2,南宁市三祺广场 开发商,南宁市三祺广场 开业时间
MALL_E6198F09,梦之岛百货,南宁市,青秀区,22.81694,108.369251,B030306115,2,2,南宁市梦之岛百货 开发商,南宁市梦之岛百货 开业时间
MALL_B9251466,南宁百货,崇左市,天等县,23.080211,107.135473,B0FFHUZXCT,2,2,崇左市南宁百货 开发商,崇左市南宁百货 开业时间
MALL_B4F713D7,万达城,崇左市,扶绥县,22.63155,107.908017,B06EB0MDHW,2,2,崇左市万达城 开发商,崇左市万达城 开业时间
MALL_55E77947,方盛广场,来宾市,兴宾区,23.741339,109.220391,B0FFG3UDC7,2,2,来宾市方盛广场 开发商,来宾市方盛广场 开业时间
MALL_49BBAEE5,桂林客世界广场,桂林市,七星区,25.258767,110.311503,B0FFMBPFV8,2,2,桂林市桂林客世界广场 开发商,桂林市桂林客世界广场 开业时间
MALL_67BFA1D4,森林中心城,百色市,右江区,23.895869,106.615838,B0FFGK8PMV,2,2,百色市森林中心城 开发商,百色市森林中心城 开业时间
MALL_84DEF70C,百商广场,乌鲁木齐市,新市区,43.860639,87.58924,B0FFGRKODK,2,2,乌鲁木齐市百商广场 开发商,乌鲁木齐市百商广场 开业时间
MALL_1B2D113F,米古里西域水游城2期,乌鲁木齐市,米东区,43.962493,87.64257,B0JUTM6BYS,2,2,乌鲁木齐市米古里西域水游城2期 开发商,乌鲁木齐市米古里西域水游城2期 开业时间
MALL_92B3AA7D,三洋广场,伊犁哈萨克自治州,奎屯市,44.426859,84.904569,B03E700F80,2,2,伊犁哈萨克自治州三洋广场 开发商,伊犁哈萨克自治州三洋广场 开业时间
MALL_B96A22E8,汇金广场,博尔塔拉蒙古自治州,精河县,44.606153,82.892934,B0FFF6A32C,2,2,博尔塔拉蒙古自治州汇金广场 开发商,博尔塔拉蒙古自治州汇金广场 开业时间
MALL_5413369D,太百购物,巴音郭楞蒙古自治州,库尔勒市,41.761597,86.146698,B0FFI0J9H7,2,2,巴音郭楞蒙古自治州太百购物 开发商,巴音郭楞蒙古自治州太百购物 开业时间
MALL_C765B09B,金都广场,巴音郭楞蒙古自治州,库尔勒市,41.759407,86.14421,B03E40MBRZ,2,2,巴音郭楞蒙古自治州金都广场 开发商,巴音郭楞蒙古自治州金都广场 开业时间
MALL_2B7BDE6B,万都MALL,石河子市,北泉镇,44.309169,86.040778,B0G0H6F1LY,2,2,石河子市万都MALL 开发商,石河子市万都MALL 开业时间
MALL_85A55FD0,六角广场,南京市,玄武区,32.08083,118.810761,B0H1SCI4GI,2,2,南京市六角广场 开发商,南京市六角广场 开业时间
MALL_CD33E6FD,南京商厦,南京市,玄武区,32.091004,118.784947,B001905109,2,2,南京市南京商厦 开发商,南京市南京商厦 开业时间
MALL_5E006CAB,南京新百,南京市,秦淮区,32.040797,118.785067,B00190499A,2,2,南京市南京新百 开发商,南京市南京新百 开业时间
MALL_C47C358A,南通海门大有境,南通市,海门区,31.879754,121.166196,B0G3LCIXBP,2,2,南通市南通海门大有境 开发商,南通市南通海门大有境 开业时间
MALL_ABBB9599,利达广场,宿迁市,泗洪县,33.46119,118.216626,B0FFKJGR6T,2,2,宿迁市利达广场 开发商,宿迁市利达广场 开业时间
MALL_0A459BB2,苏杭时代,宿迁市,泗洪县,33.23113,118.185532,B0JGODT0NF,2,2,宿迁市苏杭时代 开发商,宿迁市苏杭时代 开业时间
MALL_DAA435E3,空港星光城,常州市,新北区,31.896775,119.819775,B0KR7CLCGS,2,2,常州市空港星光城 开发商,常州市空港星光城 开业时间
MALL_C008428C,上河城,常州市,溧阳市,31.426405,119.478566,B02070U0PT,2,2,常州市上河城 开发商,常州市上河城 开业时间
MALL_02FFA4D1,京华城,扬州市,邗江区,32.385314,119.374468,B020216HV0,2,2,扬州市京华城 开发商,扬州市京华城 开业时间
MALL_8BDB7547,昌建广场,泰州市,泰兴市,32.172155,120.059623,B0FFGL90UJ,2,2,泰州市昌建广场 开发商,泰州市昌建广场 开业时间
MALL_3E5B6928,东商城,淮安市,涟水县,33.769915,119.272333,B0FFKPNNKG,2,2,淮安市东商城 开发商,淮安市东商城 开业时间
MALL_E93E46A4,颐高广场,盐城市,滨海县,34.016736,119.856813,B0FFKDMDAP,2,2,盐城市颐高广场 开发商,盐城市颐高广场 开业时间
MALL_8643464F,今雨荟,苏州市,姑苏区,31.312069,120.588773,B0FFFGPKC0,2,2,苏州市今雨荟 开发商,苏州市今雨荟 开业时间
MALL_0D94E80B,汇邻广场,苏州市,姑苏区,31.280843,120.633854,B0FFF4ZI0V,2,2,苏州市汇邻广场 开发商,苏州市汇邻广场 开业时间
MALL_EBBBEA5D,盛景广场,连云港市,东海县,34.383929,118.756305,B0FFKJ820H,2,2,连云港市盛景广场 开发商,连云港市盛景广场 开业时间
MALL_D5EED221,宝地广场,镇江市,句容市,31.948477,119.153179,B0IDLAR7MB,2,2,镇江市宝地广场 开发商,镇江市宝地广场 开业时间
MALL_6C7B7093,利群超市,上饶市,余干县,28.531475,116.598007,B0FFME73XW,2,2,上饶市利群超市 开发商,上饶市利群超市 开业时间
MALL_647DFD6C,南门商城,上饶市,德兴市,28.93471,117.582918,B031901M7T,2,2,上饶市南门商城 开发商,上饶市南门商城 开业时间
MALL_8833EDC0,凯旋城,九江市,共青城市,29.247483,115.809783,B0FFL5KVGH,2,2,九江市凯旋城 开发商,九江市凯旋城 开业时间
MALL_97EB7C1D,万国广场,保定市,定州市,38.517815,114.982231,B0FFI823H1,2,2,保定市万国广场 开发商,保定市万国广场 开业时间
MALL_17054ED8,惠友钻石广场,保定市,涿州市,39.484064,116.032864,B0FFGT3YRF,2,2,保定市惠友钻石广场 开发商,保定市惠友钻石广场 开业时间
MALL_94B960EA,大地商厦,唐山市,古冶区,39.715189,118.454129,B013B03ZRO,2,2,唐山市大地商厦 开发商,唐山市大地商厦 开业时间
MALL_6BEAA925,金缘购物,唐山市,遵化市,40.196124,117.96568,B013B0Q953,2,2,唐山市金缘购物 开发商,唐山市金缘购物 开业时间
MALL_E52DB295,金泉广场,张家口市,怀来县,40.400709,115.517452,B0FFF0DKE9,2,2,张家口市金泉广场 开发商,张家口市金泉广场 开业时间
MALL_C8626B72,北雁商城,承德市,丰宁满族自治县,41.206484,116.648628,B013A0PMN7,2,2,承德市北雁商城 开发商,承德市北雁商城 开业时间
MALL_6AF4D6F5,信源商厦,沧州市,沧县,38.38718,116.555513,B0FFFS89FM,2,2,沧州市信源商厦 开发商,沧州市信源商厦 开业时间
MALL_AE785D1A,新华广场,石家庄市,新乐市,38.35365,114.683875,B0FFHJB80U,2,2,石家庄市新华广场 开发商,石家庄市新华广场 开业时间
MALL_EFF8CE8E,天河通信广场,石家庄市,长安区,38.07475,114.512731,B013705K51,2,2,石家庄市天河通信广场 开发商,石家庄市天河通信广场 开业时间
MALL_A8AB42F9,怡然城,衡水市,桃城区,37.748953,115.700484,B0FFF6Z2E1,2,2,衡水市怡然城 开发商,衡水市怡然城 开业时间
MALL_6A713C55,家乐园·百货,邢台市,临西县,36.882775,115.506597,B0FFK9PKCY,2,2,邢台市家乐园·百货 开发商,邢台市家乐园·百货 开业时间
MALL_FAA16A97,天一悦尚,邢台市,信都区,37.062583,114.479468,B013F009SU,2,2,邢台市天一悦尚 开发商,邢台市天一悦尚 开业时间
MALL_3E8DC926,逗号立方购物公园,邢台市,信都区,37.062531,114.478256,B0FFHIBK5J,2,2,邢台市逗号立方购物公园 开发商,邢台市逗号立方购物公园 开业时间
MALL_96463827,美乐城,邯郸市,丛台区,36.607384,114.524033,B0H1DROMD0,2,2,邯郸市美乐城 开发商,邯郸市美乐城 开业时间
MALL_FFE00B0C,千禧百货,三门峡市,义马市,34.743319,111.875941,B018E0NBSB,2,2,三门峡市千禧百货 开发商,三门峡市千禧百货 开业时间
MALL_74169DA5,南虹广场,信阳市,浉河区,32.102047,114.099591,B0FFH2ROPT,2,2,信阳市南虹广场 开发商,信阳市南虹广场 开业时间
MALL_883D17B7,西亚和美广场,信阳市,浉河区,32.122436,114.068711,B01780019K,2,2,信阳市西亚和美广场 开发商,信阳市西亚和美广场 开业时间
MALL_40BEF10B,大统百货,南阳市,宛城区,32.991089,112.536403,B017900PWI,2,2,南阳市大统百货 开发商,南阳市大统百货 开业时间
MALL_902F854D,东大门,商丘市,永城市,33.931552,116.449854,B0FFHW2CTW,2,2,商丘市东大门 开发商,商丘市东大门 开业时间
MALL_0A3C2CD7,人民广场MALL,安阳市,林州市,36.079357,113.819154,B0FFGAFHRG,2,2,安阳市人民广场MALL 开发商,安阳市人民广场MALL 开业时间
MALL_9F9D7C1B,乐和城,新乡市,卫滨区,35.258134,113.883523,B0FFGRLVPW,2,2,新乡市乐和城 开发商,新乡市乐和城 开业时间
MALL_71CEC091,银兴广场,洛阳市,伊川县,34.424214,112.445439,B0FFF3WP1H,2,2,洛阳市银兴广场 开发商,洛阳市银兴广场 开业时间
MALL_BFD72241,东周百货,洛阳市,西工区,34.673989,112.441046,B017B01J05,2,2,洛阳市东周百货 开发商,洛阳市东周百货 开业时间
MALL_CAC514EC,新亚商厦,焦作市,解放区,35.242592,113.229121,B0187004F9,2,2,焦作市新亚商厦 开发商,焦作市新亚商厦 开业时间
MALL_C7E607F3,乐强百货,郑州市,上街区,34.80646,113.315083,B0FFIH5DFM,2,2,郑州市乐强百货 开发商,郑州市乐强百货 开业时间
MALL_DCF8C05E,帝湖商场,郑州市,中原区,34.720072,113.616485,B01730IN0Z,2,2,郑州市帝湖商场 开发商,郑州市帝湖商场 开业时间
MALL_1AA91530,朗悦公园茂,郑州市,中原区,34.819459,113.555837,B0H22BG1ZY,2,2,郑州市朗悦公园茂 开发商,郑州市朗悦公园茂 开业时间
MALL_1F8540AA,福都广场,郑州市,惠济区,34.864163,113.687308,B0IA7HBX48,2,2,郑州市福都广场 开发商,郑州市福都广场 开业时间
MALL_B86638DD,天然商厦,郑州市,管城回族区,34.752512,113.667731,B01730HZU8,2,2,郑州市天然商厦 开发商,郑州市天然商厦 开业时间
MALL_B9A8A73B,盛华里,郑州市,管城回族区,34.722253,113.753076,B0FFLKR4MC,2,2,郑州市盛华里 开发商,郑州市盛华里 开业时间
MALL_7C7D0023,正上豪布斯卡,郑州市,荥阳市,34.783391,113.424471,B0FFHHCQLY,2,2,郑州市正上豪布斯卡 开发商,郑州市正上豪布斯卡 开业时间
MALL_052EBA0F,万达坊,郑州市,金水区,34.79354,113.680542,B0FFFWIZUA,2,2,郑州市万达坊 开发商,郑州市万达坊 开业时间
MALL_ACDA00C3,江泰广场,丽水市,莲都区,28.409517,119.856563,B0FFHXOH9C,2,2,丽水市江泰广场 开发商,丽水市江泰广场 开业时间
MALL_8CCD5E74,多方里,台州市,温岭市,28.458859,121.25707,B0J2GHAER4,2,2,台州市多方里 开发商,台州市多方里 开业时间
MALL_ECF11968,银都广场,台州市,路桥区,28.586225,121.377075,B0K0FZHSWZ,2,2,台州市银都广场 开发商,台州市银都广场 开业时间
MALL_7975D31B,杭海万朵城,嘉兴市,海宁市,30.42433,120.365803,B0H6JAAHEM,2,2,嘉兴市杭海万朵城 开发商,嘉兴市杭海万朵城 开业时间
MALL_C917FD6E,蓝天·市心广场,绍兴市,柯桥区,30.086084,120.490566,B023F02SY9,2,2,绍兴市蓝天·市心广场 开发商,绍兴市蓝天·市心广场 开业时间
MALL_442C3489,友谊·南海城,海口市,龙华区,19.996506,110.296294,B0G335W56Z,2,2,海口市友谊·南海城 开发商,海口市友谊·南海城 开业时间
MALL_947C061B,凯德1818,武汉市,武昌区,30.552896,114.340074,B0FFFQZI96,2,2,武汉市凯德1818 开发商,武汉市凯德1818 开业时间
MALL_6EB4514E,华发中城商都,武汉市,江汉区,30.60227,114.261018,B0G2M7XU0Y,2,2,武汉市华发中城商都 开发商,武汉市华发中城商都 开业时间
MALL_CEE5691A,新唐万芊荟,武汉市,江汉区,30.623342,114.26199,B0FFGE6URB,2,2,武汉市新唐万芊荟 开发商,武汉市新唐万芊荟 开业时间
MALL_CC47815E,东澜岸广场,武汉市,洪山区,30.432761,114.263432,B0FFF4ICM0,2,2,武汉市东澜岸广场 开发商,武汉市东澜岸广场 开业时间
MALL_A7A29D80,乐天城,武汉市,洪山区,30.525462,114.354388,B001B0JUKZ,2,2,武汉市乐天城 开发商,武汉市乐天城 开业时间
MALL_51F7162F,天骄广场,荆州市,监利市,29.815518,112.905581,B0FFMF287J,2,2,荆州市天骄广场 开发商,荆州市天骄广场 开业时间
MALL_FE569EC5,石首才知文化广场,荆州市,石首市,29.710017,112.426427,B0FFL44V3V,2,2,荆州市石首才知文化广场 开发商,荆州市石首才知文化广场 开业时间
MALL_E95A3926,鼓楼商场,襄阳市,襄城区,32.017257,112.152117,B02C60090F,2,2,襄阳市鼓楼商场 开发商,襄阳市鼓楼商场 开业时间
MALL_47C4A087,大东门商场,随州市,曾都区,31.71336,113.378252,B0FFM69DBB,2,2,随州市大东门商场 开发商,随州市大东门商场 开业时间
MALL_839A901C,嘉隆广场,永州市,冷水滩区,26.436507,111.60472,B0LAJCSQ64,2,2,永州市嘉隆广场 开发商,永州市嘉隆广场 开业时间
MALL_C3961362,精品商厦,永州市,零陵区,26.224648,111.618977,B02EA002DI,2,2,永州市精品商厦 开发商,永州市精品商厦 开业时间
MALL_ED326FCC,康星百货,湘潭市,雨湖区,27.859801,112.906761,B02DC01MB2,2,2,湘潭市康星百货 开发商,湘潭市康星百货 开业时间
MALL_1912AEA7,悦购广场,长沙市,岳麓区,28.16405,112.935358,B02DB0XSNZ,2,2,长沙市悦购广场 开发商,长沙市悦购广场 开业时间
MALL_4702B27B,润和彩虹MALL,长沙市,望城区,28.293027,112.904198,B0FFJ26TOO,2,2,长沙市润和彩虹MALL 开发商,长沙市润和彩虹MALL 开业时间
MALL_5FA3785B,友谊商店B座,长沙市,芙蓉区,28.195802,112.997831,B02DB0UPJQ,2,2,长沙市友谊商店B座 开发商,长沙市友谊商店B座 开业时间
MALL_A42F87AC,东方丽晶茂,庆阳市,西峰区,35.71695,107.642846,B0FFK7FHLG,2,2,庆阳市东方丽晶茂 开发商,庆阳市东方丽晶茂 开业时间
MALL_684BC8C8,金地大厦,张掖市,民乐县,38.438421,100.813072,B0FFKZ2URV,2,2,张掖市金地大厦 开发商,张掖市金地大厦 开业时间
MALL_80CE3CA7,夏商百货,三明市,三元区,26.233219,117.608131,B0256026HG,2,2,三明市夏商百货 开发商,三明市夏商百货 开业时间
MALL_0AF35BA3,建发悦城中心,南平市,建阳区,27.330669,118.106508,B0FFGC1RQL,2,2,南平市建发悦城中心 开发商,南平市建发悦城中心 开业时间
MALL_BC9F3447,百货超市,南平市,松溪县,27.52519,118.785583,B02570SHBS,2,2,南平市百货超市 开发商,南平市百货超市 开业时间
MALL_CA5FF7BA,悦城广场,泉州市,安溪县,25.015464,118.095097,B0GUYL3472,2,2,泉州市悦城广场 开发商,泉州市悦城广场 开业时间
MALL_601C9105,德辉广场,泉州市,石狮市,24.73036,118.650379,B02530200H,2,2,泉州市德辉广场 开发商,泉州市德辉广场 开业时间
MALL_FE2DB2B3,开元盛世广场,泉州市,鲤城区,24.918285,118.584685,B0FFFNMDAA,2,2,泉州市开元盛世广场 开发商,泉州市开元盛世广场 开业时间
MALL_51B89CBD,金城湾广场,福州市,仓山区,26.049395,119.244687,B0H0NHV3RG,2,2,福州市金城湾广场 开发商,福州市金城湾广场 开业时间
MALL_17744E8D,东百元洪城,福州市,台江区,26.052216,119.316239,B0FFHWPGF9,2,2,福州市东百元洪城 开发商,福州市东百元洪城 开业时间
MALL_35FBF3B0,名城广场,福州市,马尾区,26.017593,119.3988,B0FFFBW2Y7,2,2,福州市名城广场 开发商,福州市名城广场 开业时间
MALL_91BC4CA7,东百中心C2馆,福州市,鼓楼区,26.083334,119.299624,B0IR2C32RH,2,2,福州市东百中心C2馆 开发商,福州市东百中心C2馆 开业时间
MALL_B86F7697,九华广场,莆田市,荔城区,25.473698,119.024434,B0H3F9CHDF,2,2,莆田市九华广场 开发商,莆田市九华广场 开业时间
MALL_59A075FC,万利商厦,毕节市,七星关区,27.301281,105.283649,B03590P19Z,2,2,毕节市万利商厦 开发商,毕节市万利商厦 开业时间
