brand,poi_id,name,address,province,city,district,lat,lng,typecode,source_keyword,source_method,score,status,matched_uuid,matched_name,llm_used,llm_is_brand_store,llm_confidence,llm_reason
Kenzo,B0LR9BOR3E,KENZO(北京apm店),王府井大街138号北京apm1F层,北京市,北京市,东城区,39.913746,116.411884,061101,Kenzo,around,11.0,new_candidate,,,False,,,
Kenzo,B0KG7LBSV7,KENZO(老佛爷百货店),西单北大街110号老佛爷百货F1层,北京市,北京市,西城区,39.914013,116.375281,061100,Kenzo,around,11.0,new_candidate,,,False,,,
Kenzo,B0K3ZZ6TJ4,KENZO KIDS(国贸商城店),建国门外大街1号(二期)地下一层NB142号铺位,北京市,北京市,朝阳区,39.910755,116.458554,061100,Kenzo,around,11.0,new_candidate,,,False,,,
Kenzo,B0FFH0KWKC,KENZO(北京SKP店),建国路87号SKP商场三层,北京市,北京市,朝阳区,39.910065,116.479021,061101,Kenzo,around,11.0,new_candidate,,,False,,,
Kenzo,B0LBSCJSJ3,KENZO,香江北路28号王府井奥莱·香江小镇,北京市,北京市,朝阳区,40.036568,116.505174,061101,Kenzo,around,10.0,new_candidate,,,False,,,
Kenzo,B0FFHCZVFS,KENZO(环贸 iAPM店),淮海中路999号(陕西南路地铁站8号口旁),上海市,上海市,徐汇区,31.215445,121.458872,061101,Kenzo,around,11.0,new_candidate,,,False,,,
Kenzo,B0FFI55UVC,KENZO(久光百货店),南京西路1618号久光百货F1层(静安寺地铁站出入口旁),上海市,上海市,静安区,31.22394,121.44587,061101,Kenzo,around,11.0,new_candidate,,,False,,,
Kenzo,B0FFGYN4LB,KENZO(上海国金中心商场),世纪大道8号上海ifc商场LG1层LG1-25,上海市,上海市,浦东新区,31.236496,121.502358,061101,Kenzo,around,10.0,new_candidate,,,False,,,
Kenzo,B00156EYGN,KENZO(上海港汇恒隆广场店),港汇恒隆广场,上海市,上海市,徐汇区,31.194581,121.437276,061101,Kenzo,around,11.0,new_candidate,,,False,,,
Kenzo,B0LGNXW99H,KENZO(比斯特上海购物村店),申迪东路88号比斯特上海购物村F1层,上海市,上海市,浦东新区,31.14037,121.679287,061101,Kenzo,around,11.0,new_candidate,,,False,,,
Kenzo,B0FFH15R0M,KENZO,沪青平公路2888号A123甲,上海市,上海市,青浦区,31.154988,121.228,061101,Kenzo,around,10.0,new_candidate,,,False,,,
Kenzo,B0FFI9169X,KENZO(深圳万象天地店),粤街道深南大道9668号华润万象天地SL405铺,广东省,深圳市,南山区,22.5415,113.956393,061101,Kenzo,around,11.0,new_candidate,,,False,,,
Kenzo,B0I1SDJWMC,KENZO(广州白云国际机场T1航站楼店),机场大道东888号广州白云国际机场T1航站楼3F层,广东省,广州市,花都区,23.388838,113.300853,061100,Kenzo,around,11.0,new_candidate,,,False,,,
Kenzo,B0I1SHLSTH,KENZO(广州白云国际机场T2航站楼店),机场大道东888号广州白云国际机场T2航站楼2F层T22R27,广东省,广州市,花都区,23.398293,113.303685,061100,Kenzo,around,11.0,new_candidate,,,False,,,
Kenzo,B0FFG89YYF,KENZO(成都太古里店),中纱帽街8号(成都太古里)第一层1338a号商铺,四川省,成都市,锦江区,30.653232,104.084165,061101,Kenzo,around,11.0,new_candidate,,,False,,,
Kenzo,B0FFHEQY29,KENZO(杭州大厦购物城B座店),武林广场1号杭州大厦B座3楼,浙江省,杭州市,拱墅区,30.272486,120.161531,061101,Kenzo,around,11.0,new_candidate,,,False,,,
Kenzo,B0FFF6X9Q8,KENZO(德基广场店),中山路18号德基广场二期3楼店铺,江苏省,南京市,玄武区,32.044123,118.78481,061101,Kenzo,around,11.0,new_candidate,,,False,,,
Kenzo,B0LR6AFKIC,KENZO,砂之船(南京)奥莱(秣周东路地铁站出入口步行300米),江苏省,南京市,江宁区,31.868108,118.829605,061100,Kenzo,around,10.0,new_candidate,,,False,,,
Kenzo,B0FFHN52LH,KENZO(星光68广场店),洋河一路68号重庆星光68广场F1层,重庆市,重庆市,两江新区,29.579188,106.530436,061100,Kenzo,around,11.0,new_candidate,,,False,,,
Kenzo,B0HD29FAG5,KENZO(西安SKP),长安北路261号西安SKP3F层,陕西省,西安市,碑林区,34.247796,108.949548,061101,Kenzo,around,10.0,new_candidate,,,False,,,
Kenzo,B0FFHZRF58,KENZO(中大国际高新店),高新路72号中大国际商业中心F1层,陕西省,西安市,雁塔区,34.221428,108.897365,061100,Kenzo,around,11.0,new_candidate,,,False,,,
Kenzo,B0H26UZQM2,KENZO(武汉恒隆广场店),京汉大道668号武汉恒隆广场东区L2层L218,湖北省,武汉市,硚口区,30.578061,114.274823,061101,Kenzo,around,11.0,new_candidate,,,False,,,
Kenzo,B0FFMFK2SE,KENZO(比斯特苏州购物村),苏州工业园区阳澄环路969号比斯特苏州购物村F6.3单元,江苏省,苏州市,吴中区,31.378244,120.760839,061101,Kenzo,around,10.0,new_candidate,,,False,,,
Prada,B0J3MCAX8V,PRADA(王府中环东座店),王府井大街269号王府中环东座,北京市,北京市,东城区,39.912752,116.410133,061100,Prada,around,11.0,new_candidate,,,False,,,
Prada,B0FFIKJBRY,PRADA(王府中环东座店),王府井大街269号王府中环东座L2层221a、221b,北京市,北京市,东城区,39.912746,116.41025,061103,Prada,around,11.0,new_candidate,,,False,,,
Prada,B0HR0UWMU4,PRADA(国贸商城店),建国门外大街1号国贸商城南区L1层L105、L106,北京市,北京市,朝阳区,39.909575,116.459529,061103|061104,Prada,around,11.0,new_candidate,,,False,,,
Prada,B0G25OZG9F,PRADA(SKP南馆店),建国路86号SKP南馆1层D1007,北京市,北京市,朝阳区,39.907262,116.478813,061101,Prada,around,11.0,new_candidate,,,False,,,
Prada,B0FFFTKPSL,PRADA(北京SKP店),建国路87号北京SKP一层M1017号店铺,北京市,北京市,朝阳区,39.909938,116.478787,061104,Prada,around,11.0,new_candidate,,,False,,,
Prada,B0FFF0EUUP,PRADA(北京SKP店),建国路87号SKP(原新光天地)4层,北京市,北京市,朝阳区,39.909568,116.47892,061103|061104|061400,Prada,around,11.0,new_candidate,,,False,,,
Prada,B0FFLMILLY,PRADA(王府井奥莱·香江小镇店),崔各庄镇香江北路28号赛特奥特莱斯1,北京市,北京市,朝阳区,40.036073,116.505314,061103|061101,Prada,around,11.0,new_candidate,,,False,,,
Prada,B0FFG4LJ7O,PRADA(八达岭奥莱店),南口镇陈庄村八达岭奥特莱斯一层500-504号店铺,北京市,北京市,昌平区,40.235008,116.167751,061101|061103,Prada,around,11.0,new_candidate,,,False,,,
Prada,B0FFIVFIIM,PRADA(环贸IAPM店),淮海路999号环贸广场一楼(陕西南路地铁站出入口旁),上海市,上海市,徐汇区,31.216298,121.458759,061101|061102,Prada,around,11.0,new_candidate,,,False,,,
Prada,B0FFM1P860,PRADA(国贸汇店),华山路1901号国贸汇L1-117&118店铺,上海市,上海市,徐汇区,31.197449,121.438,061103,Prada,around,11.0,new_candidate,,,False,,,
Prada,B0GDHL39XK,PRADA(百联奥特莱斯店),沪青平公路2888号青浦百联奥特莱斯A102号店铺,上海市,上海市,青浦区,31.154788,121.228824,061101,Prada,around,11.0,new_candidate,,,False,,,
Prada,B0FFIGBOXW,PRADA(佛罗伦萨小镇店),祝桥镇卓耀路58号佛罗伦萨小镇C区1号,上海市,上海市,浦东新区,31.195081,121.765085,061103,Prada,around,11.0,new_candidate,,,False,,,
Prada,B02F37WMHC,PRADA(万象城店),宝安南路1881号万象城一楼,广东省,深圳市,罗湖区,22.539139,114.111348,061103|061101,Prada,around,11.0,new_candidate,,,False,,,
Prada,B0LR3NB2C8,PRADA普拉达(科苑南路店),科苑南路与逸湖六街交叉口南20米,广东省,深圳市,南山区,22.515925,113.945275,061101,Prada,around,11.0,new_candidate,,,False,,,
Prada,B0I0GA5BHW,PRADA(宝安机场店),宝安大道深圳宝安国际机场T3航站楼国内候机厅3楼24号门旁,广东省,深圳市,宝安区,22.628623,113.811104,061100,Prada,around,11.0,new_candidate,,,False,,,
Prada,B00141JNST,PRADA(太古汇店),天河路385号太古汇商业中心首层,广东省,广州市,天河区,23.134511,113.332541,061103,Prada,around,11.0,new_candidate,,,False,,,
Prada,B0IKO7ASUH,PRADA(成都SKP店),天府大道北段2001号成都SKP F2层,四川省,成都市,武侯区,30.571103,104.069745,061104,Prada,around,11.0,new_candidate,,,False,,,
Prada,B0J09CX8LJ,PRADA REACTIVE(成都SKP店),天府大道北段2001号成都SKP F1层,四川省,成都市,武侯区,30.567177,104.07027,061100,Prada,around,11.0,new_candidate,,,False,,,
Prada,B0FFJT190D,PRADA(城守街),春熙路南段8号群光广场1层,四川省,成都市,锦江区,30.653984,104.076708,061400|061100,Prada,around,10.0,new_candidate,,,False,,,
Prada,B0FFFXUB8I,PRADA(国际金融中心店),红星路三段一号IFS国际金融中心2楼,四川省,成都市,锦江区,30.654949,104.080642,061103|061200,Prada,around,11.0,new_candidate,,,False,,,
Prada,B0GR3KI166,PRADA(佛罗伦萨小镇店),郫都县银杏路888号佛罗伦萨小镇H03&H04&H08号店铺,四川省,成都市,郫都区,30.809076,103.839602,061103|061104,Prada,around,11.0,new_candidate,,,False,,,
Prada,B0FFGFPI3W,PRADA(杭州大厦店),武林广场1号杭州大厦A幢一层A1005号店铺,浙江省,杭州市,拱墅区,30.27184,120.161625,061104,Prada,around,11.0,new_candidate,,,False,,,
Prada,B0LR9NNK57,PRADA普拉达(杭州中心店),环城北路辅路与展览东路交叉口东100米,浙江省,杭州市,拱墅区,30.273022,120.165328,061101,Prada,around,11.0,new_candidate,,,False,,,
Prada,B023B1GWOG,PRADA(杭州万象城店),钱江新城富春路701号万象城一层156号店铺,浙江省,杭州市,上城区,30.251524,120.215065,061103|061000|061200,Prada,around,11.0,new_candidate,,,False,,,
Prada,B0FFF6XBWC,PRADA(德基广场店),中山路18号德基广场一期负一楼B127,江苏省,南京市,玄武区,32.043166,118.7848,061103|061202|061400,Prada,around,11.0,new_candidate,,,False,,,
Prada,B0JG956K3X,Prada(南京国金中心店),江东中路351号(元通地铁站3号口旁)南京IFC国金中心商场南区L1层L1-8,江苏省,南京市,建邺区,31.993626,118.721081,061104,Prada,around,11.0,new_candidate,,,False,,,
Prada,B0FFFAJV8J,PRADA(环球金融中心店),民族路188号重庆环球金融中心一层101号店铺,重庆市,重庆市,渝中区,29.558653,106.577643,061103,Prada,around,11.0,new_candidate,,,False,,,
Prada,B0FFKSDXY4,PRADA(万象城店),谢家湾正街49号华润万象城L182号店铺,重庆市,重庆市,九龙坡区,29.517665,106.517925,061103,Prada,around,11.0,new_candidate,,,False,,,
Prada,B00161ADX2,PRADA(万象城店),全境乐园道9号银行国际购物中心,天津市,天津市,河西区,39.090616,117.214963,061103,Prada,around,11.0,new_candidate,,,False,,,
Prada,B0FFFN40E4,PRADA(佛罗伦萨小镇店),前进路北佛罗伦萨小镇38-39号,天津市,天津市,武清区,39.376341,117.014648,061103|061101,Prada,around,11.0,new_candidate,,,False,,,
Prada,B0HAD4C22S,PRADA(国金中心店),解放西路188号长沙国金中心一层L124号店铺,湖南省,长沙市,芙蓉区,28.192363,112.979586,061104|061200,Prada,around,11.0,new_candidate,,,False,,,
Prada,B0FFK7LEES,PRADA(长沙友阿奥特莱斯店),芙蓉南路27号友阿奥特莱斯A104-105,湖南省,长沙市,天心区,28.071336,112.992053,061103,Prada,around,11.0,new_candidate,,,False,,,
Prada,B0GK2ONE9L,PRADA(SKP南馆店),南关正街111号西安SKPA栋4层A4012号,陕西省,西安市,碑林区,34.247919,108.949973,061101|061103|061203,Prada,around,11.0,new_candidate,,,False,,,
Prada,B0HU5OQPYF,PRADA(SKP女鞋店),南关正街111号西安SKP五层A5009号店铺,陕西省,西安市,碑林区,34.247407,108.946532,061100,Prada,around,11.0,new_candidate,,,False,,,
Prada,B0FFF5YQNT,PRADA(国际广场店),解放大道690号武汉国际广场c座1楼,湖北省,武汉市,江汉区,30.579315,114.271204,061103|061200|061400,Prada,around,11.0,new_candidate,,,False,,,
Prada,B0L1ZOP32C,PRADA(国际广场店),武商路与京汉大道交叉口西北160米,湖北省,武汉市,江汉区,30.579179,114.270308,061100,Prada,around,11.0,new_candidate,,,False,,,
Prada,B0L1ZOOOIB,PRADA(国际广场店),京汉大道与武商路交叉口西北120米,湖北省,武汉市,江汉区,30.578758,114.270497,061100,Prada,around,11.0,new_candidate,,,False,,,
Prada,B0IDGDSNIG,PRADA(楚河汉街北区店),楚河汉街1号楚河汉街北区F1层,湖北省,武汉市,武昌区,30.557483,114.339895,061100,Prada,around,11.0,new_candidate,,,False,,,
Prada,B0JB7CHCTZ,PRADA(百联奥特莱斯广场-C区1号店),百联奥特莱斯广场-C区1号,湖北省,武汉市,黄陂区,30.729484,114.258607,061100,Prada,around,11.0,new_candidate,,,False,,,
Prada,B0FFF63NBU,PRADA(美罗百货观前店),观前街245号美罗百货观前店一层1006号店铺,江苏省,苏州市,姑苏区,31.31027,120.621811,061101,Prada,around,11.0,new_candidate,,,False,,,
Prada,B0FFJ6XAXP,PRADA(比斯特店),阳澄环路969号比斯特精品购物村C7店铺,江苏省,苏州市,吴中区,31.376929,120.761408,061100,Prada,around,11.0,new_candidate,,,False,,,
Prada,B0FFG4BGQZ,PRADA(丹尼斯·大卫城店),解放路街道民主路和解放路交叉口万象城,河南省,郑州市,金水区,34.757753,113.666186,061100,Prada,around,11.0,new_candidate,,,False,,,
Prada,B0LBUUT9OC,PRADA普拉达(郑州正弘城店),花园路126号郑州正弘城L1层(东风路地铁站C口旁),河南省,郑州市,金水区,34.795225,113.680975,061101,Prada,around,11.0,new_candidate,,,False,,,
Prada,B0LUXRR0BJ,PRADA(郑州郑东万象城店),金水东路辅路与才高街交叉口东南200米郑州郑东万象城L1层,河南省,郑州市,金水区,34.765709,113.76437,061104,Prada,around,11.0,new_candidate,,,False,,,
Prada,B01C31AQR6,PRADA(卓展购物中心店),安隆街106号卓展购物中心1层,黑龙江省,哈尔滨市,道里区,45.757493,126.606111,061103,Prada,around,11.0,new_candidate,,,False,,,
ToryBurch,B0H6P9UP1X,TORY BURCH北京王府中环店,王府井大街269号院1号楼2层205b号商铺,北京市,北京市,东城区,39.912306,116.409781,061101|061103,Tory Burch,around,11.0,new_candidate,,,False,,,
ToryBurch,B0FFGJBXN8,TORY BURCH北京SKP精品店,建国路87号北京SKP三层D3138号,北京市,北京市,朝阳区,39.910526,116.478665,061102,Tory Burch,around,11.0,new_candidate,,,False,,,
ToryBurch,B0LUUHQ8A6,TORY BURCH北京SKP鞋履店,中国北京市朝阳区建国路87号北京SKP四层,北京市,北京市,朝阳区,39.910695,116.478935,061102,Tory Burch,around,11.0,new_candidate,,,False,,,
ToryBurch,B0JRCU47Y0,TORY BURCH北京DT51店,北苑路98号院1号楼二层A200号,北京市,北京市,朝阳区,39.999451,116.419534,061100,Tory Burch,around,11.0,new_candidate,,,False,,,
ToryBurch,B0JRCC0LCB,TORY BURCH北京王府井奥莱香江小镇店,中国北京市朝阳区崔各庄乡香江北路28号北京赛特奥莱1-006商铺,北京市,北京市,朝阳区,40.034963,116.5051,061100,Tory Burch,around,11.0,new_candidate,,,False,,,
ToryBurch,B0FFG4LK05,TORY BURCH北京八达岭奥莱店,南口镇陈庄村八达岭奥特莱斯A区1022号店铺,北京市,北京市,昌平区,40.234418,116.168819,061101,Tory Burch,around,11.0,new_candidate,,,False,,,
ToryBurch,B0GK793SX2,TORY BURCH上海新世界大丸百货店,南京东路228号上海新世界大丸百货F1层1A-06B精品店铺,上海市,上海市,黄浦区,31.238546,121.484972,061101,Tory Burch,around,11.0,new_candidate,,,False,,,
ToryBurch,B0I0N5A38G,TORY BURCH上海环贸IAPM店,淮海中路999号环贸iapm商场L2层L2-226,上海市,上海市,徐汇区,31.215586,121.458151,061101,Tory Burch,around,11.0,new_candidate,,,False,,,
ToryBurch,B0LBTH3Y31,TORY BURCH上海嘉里中心旗舰店,"南京西路1515号静安嘉里中心商场一层E1-02A,二层E2-02A号精品店铺",上海市,上海市,静安区,31.2247,121.449713,061101,Tory Burch,around,11.0,new_candidate,,,False,,,
ToryBurch,B0LUULSQBY,TORY BURCH上海久光百货店,南京西路1618号久光百货F1层D103号店铺,上海市,上海市,静安区,31.224225,121.446122,061100,Tory Burch,around,11.0,new_candidate,,,False,,,
ToryBurch,B0JR45IV85,TORY BURCH上海IFC国金中心店,世纪大道8号上海国金中心D座地下一层LG1-9室,上海市,上海市,浦东新区,31.236108,121.502638,061101,Tory Burch,around,11.0,new_candidate,,,False,,,
ToryBurch,B0HGMXZ7FR,TORY BURCH上海第一八佰伴店,浦东新区张杨路501号第一八佰伴一层B01-1F01-038号精品店铺,上海市,上海市,浦东新区,31.227953,121.516786,061101,Tory Burch,around,11.0,new_candidate,,,False,,,
ToryBurch,B0FFGPRIEI,TORY BURCH上海港汇恒隆广场店,中国上海市徐汇区虹桥路1号港汇恒隆广场一期2楼220号精品店铺,上海市,上海市,徐汇区,31.19474,121.437374,061100,Tory Burch,around,11.0,new_candidate,,,False,,,
ToryBurch,B0FFL5O9F0,TORY BURCH比斯特上海购物村店,申迪东路88号比斯特上海购物村20-101d单元,上海市,上海市,浦东新区,31.140034,121.681106,061101,Tory Burch,around,11.0,new_candidate,,,False,,,
ToryBurch,B0FFFQ1AF9,TORY BURCH上海百联奥特莱斯广场店,沪青平公路2888号百联奥特莱斯广场B区1F层B140,上海市,上海市,青浦区,31.156159,121.228388,061101,Tory Burch,around,11.0,new_candidate,,,False,,,
ToryBurch,B0FFHJK9YK,TORY BURCH上海佛罗伦萨小镇店,中国上海市浦东新区祝桥镇卓耀路58弄365号佛罗伦萨小镇上海名品奥特莱斯P01a-P01b号奥莱店铺,上海市,上海市,浦东新区,31.194793,121.76577,061100,Tory Burch,around,11.0,new_candidate,,,False,,,
ToryBurch,B0H6RM6BJS,TORY BURCH深圳罗湖万象城店,宝安南路1881号深圳华润中心万象城B80号精品店铺,广东省,深圳市,罗湖区,22.538681,114.111165,061101,Tory Burch,around,11.0,new_candidate,,,False,,,
ToryBurch,B0JKJDEQ7O,TORY BURCH深圳万象天地店,粤海街道大冲社区深南大道9668号深圳万象天地LG层21号,广东省,深圳市,南山区,22.541832,113.956192,061100,Tory Burch,around,11.0,new_candidate,,,False,,,
ToryBurch,B0FFJFNLHZ,TORY BURCH广州太古汇店,天河区天河路383号广州太古汇二层L228号精品店铺,广东省,广州市,天河区,23.134277,113.331455,061101,Tory Burch,around,11.0,new_candidate,,,False,,,
ToryBurch,B0JR6CVQ3I,TORY BURCH广州天汇广场IGC店,兴民路222号天汇广场101房L125,广东省,广州市,天河区,23.11594,113.331651,061101|061104,Tory Burch,around,11.0,new_candidate,,,False,,,
ToryBurch,B0I1SHMNNY,TORY BURCH(广州白云国际机场T2航站楼),机场大道东888号广州白云国际机场T2航站楼3F层,广东省,广州市,花都区,23.39839,113.305612,061100,Tory Burch,around,10.0,new_candidate,,,False,,,
ToryBurch,B0L1KNTTUF,TORY BURCH(环球中心B馆店),天府大道北段1700号环球中心,四川省,成都市,武侯区,30.568766,104.065028,061101,Tory Burch,around,11.0,new_candidate,,,False,,,
ToryBurch,B0FFKX3B8A,TORY BURCH成都IFS国际金融中心店,红星路三段1号IFS国际金融中心1层L116号精品店铺(在ifs外面喜茶的对面),四川省,成都市,锦江区,30.654252,104.081141,061101,Tory Burch,around,11.0,new_candidate,,,False,,,
ToryBurch,B0FFKSBD07,TORY BURCH成都万象城店,双庆路8号成都华润万象城A馆中庭1号门L1-125号精品店铺,四川省,成都市,成华区,30.650201,104.115292,061100,Tory Burch,around,11.0,new_candidate,,,False,,,
ToryBurch,B0GR6KXOR7,TORY BURCH成都时代奥特莱斯店,双楠大道中段99号时代奥特莱斯一层A区1125号奥莱店铺,四川省,成都市,双流区,30.602431,103.945455,061101,Tory Burch,around,11.0,new_candidate,,,False,,,
ToryBurch,B0LR7SHYIC,TORY BURCH成都佛罗伦萨小镇店,中国四川省成都市郫都区友爱镇银杏路888号成都佛罗伦萨小镇一楼E13&E14单元,四川省,成都市,郫都区,30.809833,103.838957,061100,Tory Burch,around,11.0,new_candidate,,,False,,,
ToryBurch,B0J3FS5XEC,TORY BURCH(杭州嘉里中心店),延安路385号杭州嘉里中心L1层,浙江省,杭州市,拱墅区,30.26013,120.162823,061100,Tory Burch,around,11.0,new_candidate,,,False,,,
ToryBurch,B0I24UJI3S,TORY BURCH(杭州临平百联奥莱店),香岸路33号杭州百联奥特莱斯广场D1-101号奥莱店铺,浙江省,杭州市,临平区,30.434975,120.239875,061101,Tory Burch,around,11.0,new_candidate,,,False,,,
ToryBurch,B0H3ZOGEMK,TORY BURCH(百联奥特莱斯广场店),香岸路33号百联奥特莱斯广场(浙江杭州)F1层5-1-18、5-1-19,浙江省,杭州市,临平区,30.435696,120.240161,061101,Tory Burch,around,11.0,new_candidate,,,False,,,
ToryBurch,B0I6LU1ZWI,TORY BURCH南京德基广场店,中国江苏省南京市玄武区中山路18号德基广场一期三层L331号精品店铺,江苏省,南京市,玄武区,32.043193,118.784847,061101,Tory Burch,around,11.0,new_candidate,,,False,,,
ToryBurch,B0I247OS9V,TORY BURCH南京百联奥特莱斯店,汤山街道圣汤大道99号百联奥特莱斯广场A2-111,江苏省,南京市,江宁区,32.030263,119.053208,061100,Tory Burch,around,11.0,new_candidate,,,False,,,
ToryBurch,B0GK9SPYXX,TORY BURCH重庆时代广场店,中国重庆市渝中区解放碑邹容路100号时代广场二层L208号精品店铺,重庆市,重庆市,渝中区,29.558211,106.576979,061100,Tory Burch,around,11.0,new_candidate,,,False,,,
ToryBurch,B0H17L9UZW,TORY BURCH重庆星光68广场店,重庆市江北区洋河一路68号重庆星光广场LB105/106精品店铺,重庆市,重庆市,两江新区,29.579004,106.530328,061104,Tory Burch,around,11.0,new_candidate,,,False,,,
ToryBurch,B0I0NZ4V23,TORY BURCH重庆佛罗伦萨小镇店,土主街道和阳路8号重庆佛罗伦萨小镇一层G14,重庆市,重庆市,沙坪坝区,29.651532,106.373029,061100,Tory Burch,around,11.0,new_candidate,,,False,,,
ToryBurch,B0FFFN3Z9J,TORY BURCH天津佛罗伦萨小镇店,天津市新技术产业园区武清开发区前进道北侧佛罗伦萨小镇购物中心一单元一楼158-159单元,天津市,天津市,武清区,39.375718,117.015621,061100,Tory Burch,around,11.0,new_candidate,,,False,,,
ToryBurch,B0FFJ4HOZF,TORY BURCH 长沙IFS国金中心店,中国湖南省长沙市芙蓉区解放西路188号长沙IFS国金中心商场二层L259号精品商铺,湖南省,长沙市,芙蓉区,28.192746,112.978353,061101,Tory Burch,around,11.0,new_candidate,,,False,,,
ToryBurch,B0GDR1CMYX,TORY BURCH西安SKP精品店,长安北路261号西安SKP三层A3034号精品店铺,陕西省,西安市,碑林区,34.247484,108.948321,061104|061102,Tory Burch,around,11.0,new_candidate,,,False,,,
ToryBurch,B0L2BSJ83B,TORYBURCH,赛格国际购物中心,陕西省,西安市,雁塔区,34.223355,108.948373,061100,Tory Burch,around,10.0,new_candidate,,,False,,,
ToryBurch,B0H3UA7FH0,TORYBURCH武汉恒隆广场店,京汉大道668号武汉恒隆广场东区L2层L234,湖北省,武汉市,硚口区,30.577662,114.274075,061100,Tory Burch,around,11.0,new_candidate,,,False,,,
ToryBurch,B0K6UHTSY4,TORY BURCH武汉SKP鞋履店,中国湖北省武汉市武昌区水果湖街中央文化旅游区K5地块武汉skp商场2F D2068,湖北省,武汉市,武昌区,30.55709,114.33832,061104,Tory Burch,around,11.0,new_candidate,,,False,,,
ToryBurch,B0FFKQXRJK,TORY BURCH武汉百联奥特莱斯店,湖北省武汉市黄陂区盘龙大道51号武汉百联奥特莱斯广场112B号奥莱店铺,湖北省,武汉市,黄陂区,30.730242,114.258627,061101,Tory Burch,around,11.0,new_candidate,,,False,,,
ToryBurch,B0HATAZ2GP,TORY BURCH苏州美罗百货店,观前街245号美罗商城2003号,江苏省,苏州市,姑苏区,31.310225,120.622475,061101,Tory Burch,around,11.0,new_candidate,,,False,,,
ToryBurch,B0FFHCJR8A,TORY BURCH郑州丹尼斯大卫城店,北二七路188号丹尼斯大卫城二层L2-020,河南省,郑州市,金水区,34.757656,113.666115,061101,Tory Burch,around,11.0,new_candidate,,,False,,,
ToryBurch,B0FFK66H51,TORY BURCH哈尔滨卓展购物中心店,安隆街106号哈尔滨卓展购物中心B座一层1A-003号,黑龙江省,哈尔滨市,道里区,45.75746,126.60506,061101,Tory Burch,around,11.0,new_candidate,,,False,,,
ToryBurch,B0L6HKDAEU,TORY BURCH哈尔滨杉杉奥莱店,"中国哈尔滨市利民开发区利民大道555号,杉杉奥特莱斯购物广场A14400-A14500店铺",黑龙江省,哈尔滨市,呼兰区,45.875409,126.558399,061101,Tory Burch,around,11.0,new_candidate,,,False,,,
Dior,B0I1F1V890,DIOR 迪奥(王府中环东座店),王府井大街269号王府中环东座L1层105a、105b、105c,北京市,北京市,东城区,39.912306,116.410455,061101,Dior,around,11.0,new_candidate,,,False,,,
Dior,B000A84TTL,DIOR 迪奥(北京君太百货店),西单北大街133号北京君太百货1-2层,北京市,北京市,西城区,39.909661,116.373274,061101|061400,Dior,around,11.0,new_candidate,,,False,,,
Dior,B0FFGYO01A,DIOR 迪奥(国贸商城店),建国门外大街1号国贸商城L116二楼,北京市,北京市,朝阳区,39.909529,116.458595,061101,Dior,around,11.0,new_candidate,,,False,,,
Dior,B0HRDNWLDY,DIOR 迪奥(北京SKP店),建国路87号北京SKP L4层,北京市,北京市,朝阳区,39.910826,116.478992,061207|061101|061400,Dior,around,11.0,new_candidate,,,False,,,
Dior,B0FFF6X7KW,DIOR 迪奥(恒隆广场店),南京西路街道1266号恒隆广场125-127号,上海市,上海市,静安区,31.227553,121.453446,061101|061104|061400,Dior,around,11.0,new_candidate,,,False,,,
Dior,B0FFF7AQ4T,DIOR 迪奥(上海港汇恒隆广场店),虹桥路1号上海港汇恒隆广场B1层(徐家汇地铁站出口旁),上海市,上海市,徐汇区,31.194719,121.437517,061100,Dior,around,11.0,new_candidate,,,False,,,
Dior,B001572WKO,DIOR 迪奥(仙霞路尚嘉中心),仙霞路99号尚嘉中心地下一楼,上海市,上海市,长宁区,31.205379,121.407145,061401|061100,Dior,around,10.0,new_candidate,,,False,,,
Dior,B0I1N59D5R,DIOR 迪奥(上海前滩太古里精品店),"东育路500弄1-9号前滩太古里S-L1-38, S-L2-21商铺",上海市,上海市,浦东新区,31.152691,121.481967,061100,Dior,around,11.0,new_candidate,,,False,,,
Dior,B0HKMCAVS5,DIOR 迪奥(前滩太古里店),东育路500弄1-9号前滩太古里L3层,上海市,上海市,浦东新区,31.152598,121.481955,061101|050500,Dior,around,11.0,new_candidate,,,False,,,
Dior,B0015783ES,DIOR 迪奥(上海虹桥国际机场店),申达一路1号上海虹桥国际机场2号航站楼,上海市,上海市,闵行区,31.194283,121.326401,061101,Dior,around,11.0,new_candidate,,,False,,,
Dior,B02F38IPTI,DIOR 迪奥(金光华广场店),人民南路2028号金光华广场负一楼,广东省,深圳市,罗湖区,22.539276,114.120142,061101|061400,Dior,around,11.0,new_candidate,,,False,,,
Dior,B0G3LBE12N,DIOR 迪奥(深圳湾万象城店),科苑南路2888号华润深圳湾万象城L112、L116、L118商铺,广东省,深圳市,南山区,22.516456,113.946178,061400|061100,Dior,around,11.0,new_candidate,,,False,,,
Dior,B0KDOUIR44,2084 Vintage【Dior 珍藏馆】,天河南一路与正佳大街交叉口南100米,广东省,广州市,天河区,23.130035,113.32585,061100,Dior,around,10.0,new_candidate,,,False,,,
Dior,B0FFFVXVQI,DIOR 迪奥(正佳广场店),天河路228号正佳广场1F层(体育中心地铁站出入口旁),广东省,广州市,天河区,23.132372,113.327262,061100,Dior,around,11.0,new_candidate,,,False,,,
Dior,B0G0CRXA11,DIOR 迪奥(太古汇店),"天河路383号太古汇商场一楼111店铺,二楼L215店铺",广东省,广州市,天河区,23.134283,113.332625,061400|061100,Dior,around,11.0,new_candidate,,,False,,,
Dior,B0FFL7AA0I,DIOR 迪奥(悠方购物中心店),交子大道300号悠方购物中心1F层,四川省,成都市,武侯区,30.583411,104.058367,061101,Dior,around,11.0,new_candidate,,,False,,,
Dior,B0FFJN6ZSL,DIOR 迪奥(成都太古里店),中纱帽街8号成都太古里L1-1209-1210、1212、L2-2207、2209、2211、L3,四川省,成都市,锦江区,30.652491,104.082811,061101|061400,Dior,around,11.0,new_candidate,,,False,,,
Dior,B0FFH693TM,DIOR 迪奥(成都IFS店),红星路三段1号国际金融中心l103&l203店铺,四川省,成都市,锦江区,30.654875,104.081625,061400|061100,Dior,around,11.0,new_candidate,,,False,,,
Dior,B0FFIIVHI4,DIOR 迪奥(王府井百货总府店),"红星路三段1号国际金融中心L102-L103, L202-L203商铺",四川省,成都市,锦江区,30.658245,104.079195,061101|061400,Dior,around,11.0,new_candidate,,,False,,,
Dior,B0FFHEQY1W,DIOR 迪奥(杭州大厦店),武林广场1号杭州大厦购物中心B121、B210、B320商铺,浙江省,杭州市,拱墅区,30.272468,120.161627,061100,Dior,around,11.0,new_candidate,,,False,,,
Dior,B023B14KMK,DIOR 迪奥(杭州万象城店),富春路701号万象城1楼121号商铺,浙江省,杭州市,上城区,30.251574,120.215677,061101|061400,Dior,around,11.0,new_candidate,,,False,,,
Dior,B0FFHPJN83,DIOR 迪奥(德基广场店),"中山路18号德基广场L135-L136, L233, F627商铺",江苏省,南京市,玄武区,32.04307,118.784765,061207|061400|061100,Dior,around,11.0,new_candidate,,,False,,,
Dior,B0LRFD6KO3,DIOR 迪奥(Beings金奥·缤润汇店),楠溪江东街83号Beings金奥·缤润汇,江苏省,南京市,建邺区,31.99379,118.7294,061100,Dior,around,11.0,new_candidate,,,False,,,
Dior,B0KA1KLQ7D,DIOR 迪奥(南京国金中心精品店),江东中路345号国金中心三层L2-L2-12室,江苏省,南京市,建邺区,31.993907,118.721264,061202|061100|061400,Dior,around,11.0,new_candidate,,,False,,,
Dior,B0J6MZEFCJ,DIOR 迪奥(重庆国际金融中心精品店),江北城北大街38号国金中心3层l302-l303号,重庆市,重庆市,两江新区,29.57598,106.573578,061400|061100,Dior,around,11.0,new_candidate,,,False,,,
Dior,B0FFF3KGA3,DIOR 迪奥(天津万象城店),大营门街道乐园路9号银河购物中心1楼,天津市,天津市,河西区,39.090641,117.213573,061101|061400,Dior,around,11.0,new_candidate,,,False,,,
Dior,B0JBOZOQ94,Dior(长沙北辰三角洲大悦城店),湘江大道1500号长沙北辰三角洲大悦城L1-L1-29,湖南省,长沙市,开福区,28.238327,112.978702,061100,Dior,around,11.0,new_candidate,,,False,,,
Dior,B0G235DDTY,DIOR 迪奥(九龙仓长沙国金中心店),解放西路188号国金中心1楼L103、L111商铺,湖南省,长沙市,芙蓉区,28.192549,112.979858,061101|061400,Dior,around,11.0,new_candidate,,,False,,,
Dior,B0HBPRBY9A,DIOR 迪奥(大洋晶典店),中山大道756号大洋晶典(武汉中山店)1F层,湖北省,武汉市,江汉区,30.577868,114.290265,061100|061400,Dior,around,11.0,new_candidate,,,False,,,
Dior,B0JA9SHMPY,DIOR 迪奥(恒隆广场精品店),"京汉大道668号中心地带66恒隆广场L128-L131, L230-L232商铺",湖北省,武汉市,硚口区,30.577904,114.274311,061101|061400,Dior,around,11.0,new_candidate,,,False,,,
Dior,B0LRY7VUH9,DIOR 迪奥(武商MALL店),解放大道690号武商MALLAB座L1层,湖北省,武汉市,江汉区,30.580419,114.271293,061100,Dior,around,11.0,new_candidate,,,False,,,
Dior,B0LRY7WH5T,Dior Homme(武商MALLAB座),解放大道690号武商MALLAB座L1层,湖北省,武汉市,江汉区,30.580526,114.271189,061100,Dior,around,10.0,new_candidate,,,False,,,
Dior,B0FFHH3DF2,DIOR 迪奥(武商MALLB座店),解放大道690号武汉国际广场b座1楼,湖北省,武汉市,江汉区,30.580449,114.270007,061103|061400,Dior,around,11.0,new_candidate,,,False,,,
Dior,B0HGXBVPXN,DIOR 迪奥(石路国际店),石路18号石路国际1F层,江苏省,苏州市,姑苏区,31.311934,120.60195,061400|061100,Dior,around,11.0,new_candidate,,,False,,,
Givenchy,B0FFG4LI67,GIVENCHY(八达岭奥莱店),G6京藏高速s216号八达岭奥莱1F层,北京市,北京市,昌平区,40.234838,116.168515,061101,Givenchy,around,11.0,new_candidate,,,False,,,
Givenchy,B0J2DHYDWX,GIVENCHY(新世界城店),南京西路2-68号新世界城L1层,上海市,上海市,黄浦区,31.235001,121.473741,061101,Givenchy,around,11.0,new_candidate,,,False,,,
Givenchy,B0LR1XUJJA,GIVENCHY纪梵希(新世界大丸百货店),南京东路228号上海新世界大丸百货F1层,上海市,上海市,黄浦区,31.238365,121.485527,061100,Givenchy,around,11.0,new_candidate,,,False,,,
Givenchy,B0H0XS2XTE,GIVENCHY(壹方天地店),龙华街道景龙社区龙华大道3639号环智中心C座壹方天地C区深圳龙华壹方城F1-053A,广东省,深圳市,龙华区,22.644275,114.029575,061101,Givenchy,around,11.0,new_candidate,,,False,,,
Givenchy,B0JGH7NZZN,纪梵希(成都SKP店),天府大道北段2001成都SKP商场1F1121Givenchy店铺,四川省,成都市,武侯区,30.569007,104.070336,061100,Givenchy,around,5.0,new_candidate,,,True,True,0.95,门店名称为‘纪梵希(成都SKP店)’，明确指向Givenchy品牌；地址位于高端商场成都SKP，符合品牌直营店布局特征；类型码061100通常对应品牌专卖店；无任何二手、维修、寄卖等非正品迹象。
Givenchy,B0KKD55LGI,G GIVENCHY(仁和新城购物中心),府城大道西段505号仁和新城购物中心1F层,四川省,成都市,武侯区,30.587561,104.05292,061101,Givenchy,around,10.0,new_candidate,,,False,,,
Givenchy,B023B1GZUZ,G GIVENCHY (杭州大厦店),杭州大厦C座2楼G GIVENCHY专柜,浙江省,杭州市,拱墅区,30.273952,120.160967,061101,Givenchy,around,13.0,new_candidate,,,False,,,
Givenchy,B0K13UV11V,GIVENCHY,湖彩路118号重庆光环购物公园F1层,重庆市,重庆市,两江新区,29.65045,106.529607,061101,Givenchy,around,10.0,new_candidate,,,False,,,
Givenchy,B0LRY7WH4G,Givenchy,解放大道690号武商MALLAB座L1层,湖北省,武汉市,江汉区,30.580352,114.270922,061100,Givenchy,around,10.0,new_candidate,,,False,,,
Givenchy,B0FFH1VJNH,GIVENCHY(群光广场),珞喻路6号群光广场F1层(街道口地铁站B口步行90米),湖北省,武汉市,洪山区,30.525139,114.355364,061101,Givenchy,around,10.0,new_candidate,,,False,,,
Givenchy,B0FFIARJDR,GGIVENCHY(丹尼斯·大卫城店),北二七路188号大卫城二楼B031(化妆品区),河南省,郑州市,金水区,34.758136,113.666279,061101,Givenchy,around,11.0,new_candidate,,,False,,,
MCM,B0FFG4BYIC,MCM(北京SKP店),建国路87号北京SKP3层D3036(大望路地铁站F东北口旁),北京市,北京市,朝阳区,39.910329,116.47859,061104,MCM,around,11.0,existing_exact,962b8b56-9881-4616-b3ce-a64ab65e1430,MCM(北京SKP店),False,,,
MCM,B0FFJQQQXA,MCM(首都机场2号航站楼),首都机场路11北京首都国际机场2号航站楼F2层,北京市,北京市,朝阳区,40.082651,116.594276,061104,MCM,around,10.0,existing_exact,b49f45af-7f0f-4265-9e56-0549874712dc,MCM(首都机场2号航站楼),False,,,
MCM,B0FFG4LJ1V,MCM(八达岭奥莱店),周口镇陈庄奥特莱斯购物中心1F层U638店铺,北京市,北京市,昌平区,40.234612,116.169707,061101,MCM,around,11.0,existing_exact,55f71850-e662-4b26-b7d2-277c1575ecbd,MCM(八达岭奥莱店),False,,,
MCM,B0FFFT29RD,MCM(上海新世界大丸百货店),南京东路228号新世界大丸百货1层1A-06A商铺(近河南中路),上海市,上海市,黄浦区,31.238446,121.484861,061104,MCM,around,11.0,existing_exact,cb70c32b-e58c-4004-aee9-b98ee9bb70d6,MCM(上海新世界大丸百货店),False,,,
MCM,B0HK2HWTVA,MCM(上海中信泰富广场店),南京西路1168号中信泰富广场L1层107单元及L2层209单元,上海市,上海市,静安区,31.228276,121.456019,061100,MCM,around,11.0,existing_exact,3ffbb962-15ba-450e-aa50-87735f43e5d2,MCM(上海中信泰富广场店),False,,,
MCM,B0FFK30EZP,MCM(上海虹桥国际机场2号航站楼店),华漕镇虹桥路2550号虹桥综合交通枢纽F3层,上海市,上海市,闵行区,31.196313,121.328639,061100,MCM,around,11.0,existing_exact,3650b165-a95b-4d29-a525-6039aaaf17e6,MCM(上海虹桥国际机场2号航站楼店),False,,,
MCM,B0LACUL0FH,MCM(金域广场店),沪青平公路5599号荟品仓城市奥莱广场青浦 F2层,上海市,上海市,青浦区,31.134496,121.101013,061101,MCM,around,11.0,existing_exact,19216fd5-a931-4826-955f-f519ca6001e1,MCM(金域广场店),False,,,
MCM,B0FFHBVY1H,MCM(深圳宝安国际机场T3航站楼),机场南路深圳宝安国际机场T3航站楼3楼国内出发厅22号登机口旁3S-13-03,广东省,深圳市,宝安区,22.627436,113.811764,061104,MCM,around,10.0,existing_exact,ad26f21c-e937-4e05-8382-8de91b299934,MCM(深圳宝安国际机场T3航站楼),False,,,
MCM,B0IUHSPC6V,MCM(广州白云国际机场T1航站楼店),机场大道东888号广州白云国际机场T1航站楼3F层B9031,广东省,广州市,花都区,23.388732,113.300836,061100,MCM,around,11.0,existing_exact,bced6678-0cfd-47bc-a128-a28238b74483,MCM(广州白云国际机场T1航站楼店),False,,,
MCM,B0KK1KO1XN,MCM(机场大道北店),机场大道东888号广州白云机场T2航站楼F3层T23R60,广东省,广州市,花都区,23.398607,113.304384,061103,MCM,around,11.0,existing_exact,21084dd6-39b5-48a8-b2ee-80e007e62dfa,MCM(机场大道北店),False,,,
MCM,B0FFKL4SN7,MCM(广州白云国际机场店),机场大道东888号广州白云机场T2航站楼F3层T23R60,广东省,广州市,花都区,23.398607,113.304384,061104,MCM,around,11.0,existing_exact,21084dd6-39b5-48a8-b2ee-80e007e62dfa,MCM(机场大道北店),False,,,
MCM,B0IK1HK5NK,MCM(成都SKP店),天府大道北段2001号成都SKP街区K大道2层D2186,四川省,成都市,武侯区,30.568304,104.070306,061100,MCM,around,11.0,existing_exact,16619647-9462-4e63-9bdf-6c954ed1ea11,MCM(成都SKP店),False,,,
MCM,B0H6LPBOVU,MCM(成都IFS店),红星路三段1号成都国际金融中心商场二层L229-230商铺,四川省,成都市,锦江区,30.655501,104.081881,061100,MCM,around,11.0,existing_exact,9126cc39-7010-46f3-b91f-e82a2c714a15,MCM(成都IFS店),False,,,
MCM,B0IBT75JL6,MCM(杭州大厦购物城B座店),武林广场1号杭州大厦购物城B座二楼BF201,浙江省,杭州市,拱墅区,30.272667,120.161156,061104,MCM,around,11.0,existing_exact,85aa42c4-e2f9-42f1-ab91-67424ec68d15,MCM(杭州大厦购物城B座店),False,,,
MCM,B0FFLHVXGD,MCM(湖滨银泰in77A区北区店),东坡路3号杭州湖滨银泰in77一层A区L1012,浙江省,杭州市,上城区,30.25298,120.162473,061104,MCM,around,11.0,existing_exact,bc2a1b50-e43b-491a-b459-f45f94b018c9,MCM(湖滨银泰in77A区北区店),False,,,
MCM,B0HBBS2RK2,MCM(杭州萧山国际机场店),机场1号路1号杭州萧山国际机场3F层,浙江省,杭州市,萧山区,30.237212,120.436801,061100,MCM,around,11.0,existing_exact,c729487d-699b-4987-8e9c-22d1a57053c3,MCM(杭州萧山国际机场店),False,,,
MCM,B0FFF6XAN0,MCM(南京德基广场店),中山路18号德基广场二期三楼F309商铺,江苏省,南京市,玄武区,32.044427,118.78498,061103|061101|061104,MCM,around,11.0,new_candidate,,,False,,,
MCM,B0FFFP0PHO,MCM(星光68广场店),洋河一路68号星光68广场B栋F1层LB1-17店铺,重庆市,重庆市,两江新区,29.57911,106.530558,061100,MCM,around,11.0,new_candidate,,,False,,,
MCM,B0LR37E55K,BOgicmcm(中原百货滨海店),解放路629号中原百货(滨海店),天津市,天津市,滨海新区,39.01628,117.667444,061101,MCM,around,11.0,new_candidate,,,False,,,
MCM,B0K3ZAF2HV,MCM(长沙国际金融中心店),解放西路188号L226铺位(东牌楼街与犁头街交叉口南140米),湖南省,长沙市,芙蓉区,28.19238,112.979351,061104,MCM,around,11.0,new_candidate,,,False,,,
MCM,B0FFL4KWX7,MCM(西安SKP店),长安北路261号西安SKP A栋3层A3033 (永宁门地铁站出入口步行80米),陕西省,西安市,碑林区,34.247575,108.948242,061104,MCM,around,11.0,existing_exact,1d56884e-adb8-411a-b537-5fa93a9a9953,MCM(西安SKP店),False,,,
MCM,B0FFG229XT,MCM(武汉国际广场C座店),解放大道690号武汉国际广场C座L1层C11-1商铺,湖北省,武汉市,江汉区,30.578728,114.271487,061101,MCM,around,11.0,existing_exact,2a503017-d10a-48e2-b17d-9018786348bd,MCM(武汉国际广场C座店),False,,,
MCM,B0K1KLJ41F,MCM(武汉SKP精品店),水果湖街中央文化旅游区K5地块2楼D2009号(沙湖大道18号武汉SKP),湖北省,武汉市,武昌区,30.557471,114.338634,061104,MCM,around,11.0,existing_exact,e3e8e668-62c8-480a-b91b-fdd8f9d232c0,MCM(武汉SKP精品店),False,,,
MCM,B0FFJ1ORNM,MCM(武汉天河国际机场T3航站楼店),机场路天河机场T3航站楼4D2-28,湖北省,武汉市,黄陂区,30.771736,114.220064,061103,MCM,around,11.0,existing_exact,5a0b001a-95a3-49f0-8940-f3c7dc4ce83e,MCM(武汉天河国际机场T3航站楼店),False,,,
MCM,B0FFG00CCU,MCM(苏州比斯特购物村店),苏州工业园区阳澄环路969号比斯特苏州购物村T6,江苏省,苏州市,吴中区,31.379803,120.761102,061100,MCM,around,11.0,existing_exact,7d841b92-8d77-44d1-9b46-73e7a5e3df5f,MCM(苏州比斯特购物村店),False,,,
MCM,B0I1FMO3K9,MCM(郑州正弘城),花园路126号郑州正弘城L1层,河南省,郑州市,金水区,34.79604,113.680852,061104,MCM,around,10.0,existing_exact,ee287363-26c1-4b6f-b400-2e77a7c2936d,MCM(郑州正弘城),False,,,
Gucci,B0FFIKJ7HO,Gucci(王府中环东座店),王府井大街269号王府中环东座一层103a-b及二层223a-b号商铺,北京市,北京市,东城区,39.912557,116.410639,061101|061103,Gucci,around,11.0,new_candidate,,,False,,,
Gucci,B0G3FHJ4BL,GUCCI(西单大悦城店),皮库胡同西单北大街132号西单大悦城二楼,北京市,北京市,西城区,39.910686,116.37295,061100,Gucci,around,11.0,new_candidate,,,False,,,
Gucci,B0FFFFXQIK,Gucci(北京国贸商城店),建国门外大街1号国贸商城商铺SL1020+SL1021和SL2027+SL2028,北京市,北京市,朝阳区,39.909851,116.459937,061101,Gucci,around,11.0,new_candidate,,,False,,,
Gucci,B0KGRMCR94,Gucci(北京三里屯太古里店),"三里屯路11号院3号楼一层N3-15,二层N3-25",北京市,北京市,朝阳区,39.93896,116.454201,061100|050000,Gucci,around,11.0,new_candidate,,,False,,,
Gucci,B0FFFRIE78,Gucci(北京SKP童装店),建国路87号北京SKP五层D5234号,北京市,北京市,朝阳区,39.90919,116.478537,061101,Gucci,around,11.0,new_candidate,,,False,,,
Gucci,B0JGA5E7PO,Gucci(北京SKP女鞋店),建国路87号北京SKP四层D4033-1号,北京市,北京市,朝阳区,39.91051,116.478614,061103|061104,Gucci,around,11.0,new_candidate,,,False,,,
Gucci,B0K35Z8GU5,Gucci(北京SKP南馆Retail店),建国路86号SKP1号楼1层D1018号,北京市,北京市,朝阳区,39.907003,116.478973,061101|061200,Gucci,around,11.0,new_candidate,,,False,,,
Gucci,B0I0RRYZBZ,GUCCI(北京朝阳合生汇店),西大望路甲22号北京朝阳合生汇L1层L1-04A,北京市,北京市,朝阳区,39.894246,116.4787,061400|061100,Gucci,around,11.0,new_candidate,,,False,,,
Gucci,B0LRPXSFNI,GUCCI,杨庄路与五里店2号胡同交叉口南460米,北京市,北京市,通州区,39.901375,116.633325,061101,Gucci,around,10.0,new_candidate,,,False,,,
Gucci,B0FFHIDJT3,GUCCI(首创奥特莱斯店),长阳镇悦盛路6号院首创奥特莱斯1期F1层,北京市,北京市,房山区,39.76286,116.188718,061100,Gucci,around,11.0,new_candidate,,,False,,,
Gucci,B0FFG4LICT,Gucci(北京八达岭奥莱店),南口镇陈庄村八达岭奥莱U1030-1034号,北京市,北京市,昌平区,40.234549,116.168127,061101,Gucci,around,11.0,new_candidate,,,False,,,
Gucci,B0FFINOYK4,GUCCI(第一百货商业中心店),南京东路830号第一百货商业中心A馆一层,上海市,上海市,黄浦区,31.235232,121.474896,061103|061203,Gucci,around,11.0,new_candidate,,,False,,,
Gucci,B0FFF6X8QC,GUCCI(宏伊国际广场店),南京东路228号上海新世界大丸百货F1层,上海市,上海市,黄浦区,31.23794,121.485392,061203|061101,Gucci,around,11.0,new_candidate,,,False,,,
Gucci,B0FFM9K438,Gucci(上海恒隆广场店),南京西路1266号恒隆广场B115&B116&111&111A&210&310&310A号铺位,上海市,上海市,静安区,31.227961,121.453634,061101|061103,Gucci,around,11.0,new_candidate,,,False,,,
Gucci,B0FFF4NAIZ,Gucci(上海环贸iapm商场店),淮海中路999号上海环贸广场L109-110L209-210,上海市,上海市,徐汇区,31.215614,121.457096,061103,Gucci,around,11.0,new_candidate,,,False,,,
Gucci,B0FFJP1UE2,GUCCI(久光百货店),南京西路1618号久光百货F1层(静安寺地铁站出入口旁),上海市,上海市,静安区,31.223878,121.446255,061202|061400|061100,Gucci,around,11.0,new_candidate,,,False,,,
Gucci,B0FFL00CL0,Gucci(上海国金童装店),世纪大道8号上海国金中心3层L3-3号,上海市,上海市,浦东新区,31.235995,121.503009,061101|061207|061400,Gucci,around,11.0,new_candidate,,,False,,,
Gucci,B00157HG3U,Gucci(上海国金店),世纪大道8号上海国金中心一层L1-5号,上海市,上海市,浦东新区,31.236642,121.503007,061100,Gucci,around,11.0,new_candidate,,,False,,,
Gucci,B0FFM0QBOR,Gucci(上海国贸汇广场店),"华山路1901号上海国贸汇广场一层101,102室",上海市,上海市,徐汇区,31.198124,121.437424,061103,Gucci,around,11.0,new_candidate,,,False,,,
Gucci,B0IA3XHCU1,Gucci(上海前滩太古里店),"东育路500弄1-9号前滩太古里一层S-L104a及二层S-L203,S-L204",上海市,上海市,浦东新区,31.152659,121.480618,061100,Gucci,around,11.0,new_candidate,,,False,,,
Gucci,B0FFJVAH6X,Gucci(上海虹桥机场店),申达一路1号虹桥机场二号航站楼D47-1&D47-2,上海市,上海市,闵行区,31.194744,121.328765,061101,Gucci,around,11.0,new_candidate,,,False,,,
Gucci,B0LG0R5NNF,GUCCI(美兰湖荟品仓店),罗芬路与美丹路交叉口东120米,上海市,上海市,宝山区,31.402469,121.353646,061101,Gucci,around,11.0,new_candidate,,,False,,,
Gucci,B0FFIB984P,Gucci(上海百联奥莱店),沪青平公路2888号百联奥特莱斯A111号-A113号商铺,上海市,上海市,青浦区,31.154772,121.228496,061101,Gucci,around,11.0,new_candidate,,,False,,,
Gucci,B0FFG8KNL7,Gucci(上海佛罗伦萨小镇奥莱店),"祝桥镇卓耀路58弄1-365号上海佛罗伦萨小镇一层G1,G2,G3,G4号",上海市,上海市,浦东新区,31.195494,121.764709,061103,Gucci,around,11.0,new_candidate,,,False,,,
Gucci,B0JRZCAD0K,GUCCI(茂业天地店),茂业天地1层(华强北地铁站B口旁),广东省,深圳市,福田区,22.545214,114.086408,061101,Gucci,around,11.0,new_candidate,,,False,,,
Gucci,B02F37UMS8,Gucci(深圳万象城店),宝安南路1881号深圳万象城N101-301号,广东省,深圳市,罗湖区,22.539559,114.110872,061101|061103|061400,Gucci,around,11.0,new_candidate,,,False,,,
Gucci,B0JUVH595J,Gucci(深圳湾万象城店),科苑南路2888号深圳湾万象城A区L1层L166,广东省,深圳市,南山区,22.515775,113.946922,061100,Gucci,around,11.0,new_candidate,,,False,,,
Gucci,B0KDVCJ0X3,Gucci(深圳湾万象城童装店),科苑南路2888号深圳湾万象城4楼L425号商铺,广东省,深圳市,南山区,22.516621,113.945991,061103,Gucci,around,11.0,new_candidate,,,False,,,
Gucci,B0H2KS82XN,GUCCI(壹方城购物中心北区店),新湖路99号壹方城购物中心北区L1层025号,广东省,深圳市,宝安区,22.552843,113.887166,061202|061103|061400,Gucci,around,11.0,new_candidate,,,False,,,
Gucci,B0FFFCN4H9,Gucci(深圳宝安国际机场T3店),宝安国际机场T3航站楼3S-04-01&3S-04-02,广东省,深圳市,宝安区,22.62694,113.812249,061101|061104,Gucci,around,11.0,new_candidate,,,False,,,
Gucci,B0J6YM0ANK,Gucci(深圳宝安国际机场1号卫星厅店),"深圳宝安国际机场卫星厅3A001,3A002,3A003",广东省,深圳市,宝安区,22.640632,113.805715,061101,Gucci,around,11.0,new_candidate,,,False,,,
Gucci,B0HAZC8SQN,GUCCI(正佳广场商场店),天河路218号正佳广场1层(体育中心地铁站出入口旁),广东省,广州市,天河区,23.132363,113.326844,061101,Gucci,around,11.0,new_candidate,,,False,,,
Gucci,B0LRK7K6F1,Gucci(广州K11店),珠江新城珠江东路6号广州K11购物中心一层L102号,广东省,广州市,天河区,23.118356,113.326129,061101,Gucci,around,11.0,new_candidate,,,False,,,
Gucci,B0J32AAQX5,GUCCI(太古汇店),天河路383号太古汇一层L113号及二层L217号,广东省,广州市,天河区,23.13428,113.332315,061104|061101|061400,Gucci,around,11.0,new_candidate,,,False,,,
Gucci,B0LAJRIN73,Gucci(广州太古汇店),天河路383号太古汇一层L113号及二层L217号,广东省,广州市,天河区,23.134218,113.332479,061101,Gucci,around,11.0,new_candidate,,,False,,,
Gucci,B0KUT7X7SB,Gucci(广州太古汇男装店),天河路383号太古汇二层L218号及二层L219号,广东省,广州市,天河区,23.134478,113.332502,061100,Gucci,around,11.0,new_candidate,,,False,,,
Gucci,B0LRLNM69D,GUCCI(花都广百广场店),新华街龙珠路41号广百广场F1层,广东省,广州市,花都区,23.398518,113.232836,061101,Gucci,around,11.0,new_candidate,,,False,,,
Gucci,B0FFJH92PW,Gucci(广州白云机场店),"机场大道888号广州白云国际机场2号航站楼国内西连廊二层商业集中区T22R33,T22R34a,T22R34b,T22R35商铺",广东省,广州市,花都区,23.398927,113.303547,061101,Gucci,around,11.0,new_candidate,,,False,,,
Gucci,B0KR5AMGO7,Gucci(成都SKP南馆店),天府大道北段2001号成都SKP铺位号D1179-1,四川省,成都市,武侯区,30.570575,104.069175,061103|061104,Gucci,around,11.0,new_candidate,,,False,,,
Gucci,B0JG47CE3N,Gucci(成都SKP主店),天府大道北段2001号成都SKP铺位号D1123D2217,四川省,成都市,武侯区,30.569575,104.069975,061101|061400,Gucci,around,11.0,new_candidate,,,False,,,
Gucci,B0KUT78FZZ,Gucci(成都SKP鞋店),天府大道北段2001号成都SKP铺位号D1090,四川省,成都市,武侯区,30.569527,104.070101,061100,Gucci,around,11.0,new_candidate,,,False,,,
Gucci,B0H0ACUX3U,GUCCI(仁和新城店),府城大道西段505号仁和新城购物中心1F层,四川省,成都市,武侯区,30.587739,104.051419,061101,Gucci,around,11.0,new_candidate,,,False,,,
Gucci,B0FFLP8N7J,GUCCI(科华成都王府井购物中心店),科华中路9号成都王府井购物中心(科华店)1F层,四川省,成都市,武侯区,30.618925,104.075388,061103,Gucci,around,11.0,new_candidate,,,False,,,
Gucci,B0FFFQ663B,Gucci(成都太古里店),中纱帽街8号成都太古里1101号,四川省,成都市,锦江区,30.653118,104.082002,061101,Gucci,around,11.0,new_candidate,,,False,,,
Gucci,B0HAV9BENL,Gucci(成都国金店),红星路三段1号成都国际金融中心商场第一层L122及L174商铺,四川省,成都市,锦江区,30.654368,104.081599,061101,Gucci,around,11.0,new_candidate,,,False,,,
Gucci,B0FFG2LT2Z,GUCCI(王府井百货店),华兴正街9号王府井百货1楼,四川省,成都市,锦江区,30.658114,104.079622,061400|061100,Gucci,around,11.0,new_candidate,,,False,,,
Gucci,B0LADC66X4,GUCCI(提督街店),提督街1号雄飞中心A栋F1层,四川省,成都市,青羊区,30.659921,104.07584,061101,Gucci,around,11.0,new_candidate,,,False,,,
Gucci,B0FFF5TLO7,GUCCI(万象城店),双庆路8号万象城1层,四川省,成都市,成华区,30.650195,104.116311,061101|061103|061203,Gucci,around,11.0,new_candidate,,,False,,,
Gucci,B0G1SK7N24,Gucci(成都佛罗伦萨小镇奥莱店),银杏路888号佛罗伦萨小镇成都名品奥特莱斯一层G02-G04,四川省,成都市,郫都区,30.809649,103.840036,061103,Gucci,around,11.0,new_candidate,,,False,,,
Gucci,B0HR6H9NKL,Gucci(成都天府机场店),成都天府国际机场T2航站楼T2-CEN-R-19商铺,四川省,成都市,简阳市,30.310163,104.447388,061101,Gucci,around,11.0,new_candidate,,,False,,,
Gucci,B0JAGUC1I5,Gucci(杭州大厦店),武林广场1号杭州大厦购物中心一层B栋104号,浙江省,杭州市,拱墅区,30.272505,120.161454,061101,Gucci,around,11.0,new_candidate,,,False,,,
Gucci,B0KRJZ0DMO,Gucci(杭州大厦童装临时店),武林广场1号杭州大厦购物中心B栋二层204号,浙江省,杭州市,拱墅区,30.272525,120.161475,061203|061103,Gucci,around,11.0,new_candidate,,,False,,,
Gucci,B0FFFDB30F,Gucci(杭州大厦男装店),武林广场20号杭州大厦购物中心B座三层B306号,浙江省,杭州市,拱墅区,30.272868,120.161757,061100,Gucci,around,11.0,new_candidate,,,False,,,
Gucci,B0KDH5M3ZA,GUCCI(武林银泰百货A馆店),延安路武林银泰A馆1楼,浙江省,杭州市,拱墅区,30.268396,120.164242,061103|061400,Gucci,around,11.0,new_candidate,,,False,,,
Gucci,B023B13P5R,Gucci(杭州湖滨银泰in77店),平海路123号杭州湖滨银泰in77A区一层L1004二层L2003单元,浙江省,杭州市,上城区,30.253598,120.162388,061103|061202,Gucci,around,11.0,new_candidate,,,False,,,
Gucci,B0FFJCVU1P,GUCCI(杭州湖滨银泰in77店),延安路258号杭州湖滨银泰in77C区C1区1F层,浙江省,杭州市,上城区,30.253165,120.164549,061100,Gucci,around,11.0,new_candidate,,,False,,,
Gucci,B0G23AA6OA,Gucci(杭州万象城店),四季青街道富春路701号万象城L169号店铺,浙江省,杭州市,上城区,30.251838,120.21452,061100,Gucci,around,11.0,new_candidate,,,False,,,
Gucci,B0I0BUDFJ9,GUCCI(滨江银泰百货B区店),滨和路598号银泰百货滨江店B区F1层,浙江省,杭州市,滨江区,30.202096,120.221718,061100,Gucci,around,11.0,new_candidate,,,False,,,
Gucci,B001918324,Gucci(南京德基店),中山路18号德基广场1期一层L118及二层L208,江苏省,南京市,玄武区,32.043028,118.785197,061100|061400,Gucci,around,11.0,new_candidate,,,False,,,
Gucci,B0JB9CWX17,Gucci(南京国金店),江东中路345号南京国金中心一层L1-3号,江苏省,南京市,建邺区,31.994258,118.721528,061100,Gucci,around,11.0,new_candidate,,,False,,,
Gucci,B0LA2RK8VF,GUCCI(ONEMALL万摩购物中心店),青年路77号ONEMALL万摩购物中心F1层,重庆市,重庆市,渝中区,29.555493,106.574388,061100,Gucci,around,11.0,new_candidate,,,False,,,
Gucci,B001792CL9,Gucci(重庆星光68广场店),洋河一路68号星光68广场A馆L101,重庆市,重庆市,两江新区,29.578055,106.531918,061103|061101,Gucci,around,11.0,new_candidate,,,False,,,
Gucci,B0FFIC7ADW,Gucci(重庆IFS男装店),城北大街38号重庆国金中心L232店铺,重庆市,重庆市,两江新区,29.575844,106.573298,061100,Gucci,around,11.0,new_candidate,,,False,,,
Gucci,B0JAGUHEBA,Gucci(重庆IFS女装店),城北大街38号重庆国金中心L319店铺,重庆市,重庆市,两江新区,29.575842,106.573389,061100,Gucci,around,11.0,new_candidate,,,False,,,
Gucci,B0FFHMS3Q2,GUCCI(茂业天地店),建新北路16号茂业天地2F层,重庆市,重庆市,两江新区,29.577666,106.531116,061100,Gucci,around,11.0,new_candidate,,,False,,,
Gucci,B0HGZ543VJ,GUCCI(腕表珠宝精品店),民族路188号环球购物中心1层,重庆市,重庆市,渝中区,29.558929,106.577883,061101,Gucci,around,11.0,new_candidate,,,False,,,
Gucci,B0FFFFW96O,Gucci(重庆金鹰财富中心店),"邹容路88号重庆金鹰财富中心101,201号",重庆市,重庆市,渝中区,29.557308,106.577503,061100,Gucci,around,11.0,new_candidate,,,False,,,
Gucci,B0K3CY4SNT,GUCCI,龙湖时代星空(石油路地铁站1B口步行320米),重庆市,重庆市,渝中区,29.537912,106.511113,061103,Gucci,around,10.0,new_candidate,,,False,,,
Gucci,B0J3YC17XZ,Gucci(重庆江北机场T3店),江北国际机场T3A航站楼第三层中心商业区域T3A-L308T3A-L309店铺,重庆市,重庆市,两江新区,29.708975,106.655475,061101,Gucci,around,11.0,new_candidate,,,False,,,
Gucci,B0FFF3KH76,Gucci(天津万象城店),乐园道9号天津万象城L1005-1006-1007号店,天津市,天津市,河西区,39.090482,117.215502,061101,Gucci,around,11.0,new_candidate,,,False,,,
Gucci,B0FFHQ9UQ4,Gucci(天津海信广场店),解放路188号天津海信广场一层101-102号,天津市,天津市,和平区,39.117686,117.217421,061209|061101,Gucci,around,11.0,new_candidate,,,False,,,
Gucci,B001618UX6,Gucci(天津佛罗伦萨小镇奥莱店),前进道北侧佛罗伦萨小镇226号店铺,天津市,天津市,武清区,39.374843,117.017815,061104|061103,Gucci,around,11.0,new_candidate,,,False,,,
Gucci,B0FFI7WCMY,GUCCI(金元宝滨海国际购物中心),黄海路19号金元宝滨海国际购物中心F1层,天津市,天津市,滨海新区,39.033045,117.687581,061101|061203,Gucci,around,10.0,new_candidate,,,False,,,
Gucci,B0H3ZMBZXA,GUCCI(五一广场王府井百货店),黄兴中路27号王府井百货F1,湖南省,长沙市,天心区,28.192994,112.975724,061103|061400,Gucci,around,11.0,new_candidate,,,False,,,
Gucci,B0FFJ4HPLA,Gucci(长沙国金店),解放西路188号长沙国金中心1层L128-129及2层L228-229,湖南省,长沙市,芙蓉区,28.192522,112.978313,061203|061202|061100,Gucci,around,11.0,new_candidate,,,False,,,
Gucci,B0I6CZK84K,GUCCI(步步高·星城天地店),湘府东路二段398号步步高·星城天地G层,湖南省,长沙市,雨花区,28.11146,113.01642,061400|061100,Gucci,around,11.0,new_candidate,,,False,,,
Gucci,B0FFHITFDG,GUCCI(开元商城钟楼店店),解放市场6号开元商城钟楼店1F层,陕西省,西安市,碑林区,34.258226,108.947935,061101|061400,Gucci,around,11.0,new_candidate,,,False,,,
Gucci,B0LDYDXG8F,Gucci(西安SKP女装店),长安北路261号西安SKP一层A1003号,陕西省,西安市,碑林区,34.247924,108.948229,061101,Gucci,around,11.0,new_candidate,,,False,,,
Gucci,B0FFJVKWFK,Gucci(西安SKP男装店),长安北路261号西安SKP一层B1001号,陕西省,西安市,碑林区,34.247913,108.949539,061101,Gucci,around,11.0,new_candidate,,,False,,,
Gucci,B0HU59R1P7,Gucci(西安SKP童装店),长安北路261号西安SKP六层A6013号,陕西省,西安市,碑林区,34.247767,108.948589,061101|061207|061400,Gucci,around,11.0,new_candidate,,,False,,,
Gucci,B0LDZ5TTND,GUCCI(高新路店),高新路与科技一路交叉口西南60米,陕西省,西安市,雁塔区,34.225428,108.90019,061101,Gucci,around,11.0,new_candidate,,,False,,,
Gucci,B0IDTU0BNV,GUCCI(武汉万象城店),台北街街道建设大道668号武汉万象城负一楼,湖北省,武汉市,江岸区,30.599274,114.280714,061100|061400,Gucci,around,11.0,new_candidate,,,False,,,
Gucci,B0I174LTJS,Gucci(武汉恒隆广场店),京汉大道668号恒隆广场一层L136及二层L236,湖北省,武汉市,硚口区,30.57824,114.274227,061103,Gucci,around,11.0,new_candidate,,,False,,,
Gucci,B0IGOAGWG3,Gucci(武汉恒隆广场店),京汉大道668号恒隆广场L1&L2层L136&L236,湖北省,武汉市,江汉区,30.58116,114.271136,061101,Gucci,around,11.0,new_candidate,,,False,,,
Gucci,B0FFF5YPVA,GUCCI(武汉国际广场店),解放大道690号武商MALLAB座L1层,湖北省,武汉市,江汉区,30.580958,114.271017,061101,Gucci,around,11.0,new_candidate,,,False,,,
Gucci,B0KR5ATNAK,Gucci(武汉SKP南馆店),水果湖街沙湖大道18号武汉SKPB1036号商铺,湖北省,武汉市,武昌区,30.557325,114.338437,061104,Gucci,around,11.0,new_candidate,,,False,,,
Gucci,B0KDN5UHVJ,Gucci(武汉SKP主店),水果湖街沙湖大道18号中央文化旅游区J3-6栋A1036-A2036-A3036号商铺,湖北省,武汉市,武昌区,30.557836,114.339217,061100,Gucci,around,11.0,new_candidate,,,False,,,
Gucci,B0KR5ALTKN,Gucci(武汉SKP女鞋店),水果湖街沙湖大道18号武汉SKPD2039号商铺,湖北省,武汉市,武昌区,30.557275,114.338975,061104,Gucci,around,11.0,new_candidate,,,False,,,
Gucci,B0KULAF94N,Gucci(武汉SKP童装店),水果湖街沙湖大道18号武汉SKPD4029号商铺,湖北省,武汉市,武昌区,30.556493,114.338232,061104,Gucci,around,11.0,new_candidate,,,False,,,
Gucci,B0I0AUAXM3,GUCCI(武商梦时代店),武珞路598号武商梦时代B158,湖北省,武汉市,武昌区,30.528925,114.340625,061101,Gucci,around,11.0,new_candidate,,,False,,,
Gucci,B0GKOC8HIJ,GUCCI(光谷大洋晶典店),光谷世界城光谷街3号1区101号大洋百货(武汉光谷店)F1层,湖北省,武汉市,洪山区,30.505785,114.401645,061101,Gucci,around,11.0,new_candidate,,,False,,,
Gucci,B0IA3KC9K2,GUCCI(罗马春天奥特莱斯店),江夏大道56号罗马春天奥特莱斯F1层,湖北省,武汉市,江夏区,30.386546,114.371405,061100,Gucci,around,11.0,new_candidate,,,False,,,
Gucci,B02000HTJF,Gucci(苏州美罗百货店),观前街245号苏州美罗商城南一层1001号,江苏省,苏州市,姑苏区,31.309659,120.621927,061100,Gucci,around,11.0,new_candidate,,,False,,,
Gucci,B0FFFFSH20,Gucci(比斯特苏州购物村店),唯亭阳澄环路969号比斯特购物村J5.2号,江苏省,苏州市,吴中区,31.377819,120.761775,061103,Gucci,around,11.0,new_candidate,,,False,,,
Gucci,B017319X21,Gucci(郑州大卫城店),北二七路188号丹尼斯大卫城1F-B001,河南省,郑州市,金水区,34.756737,113.666368,061103,Gucci,around,11.0,new_candidate,,,False,,,
Gucci,B0FFG2VP4L,GUCCI(郑州大卫城店),西太康路与二七路交汇处西北角丹尼斯·大卫城1F层,河南省,郑州市,金水区,34.756741,113.666369,061101,Gucci,around,11.0,new_candidate,,,False,,,
Gucci,B0FFIQBPPB,GUCCI(郑州二七万达广场店),大学南路8号郑州二七万达广场1F层,河南省,郑州市,二七区,34.718233,113.642799,061101,Gucci,around,11.0,new_candidate,,,False,,,
Gucci,B0ID710SYV,GUCCI(郑州正弘城店),花园路126号郑州正弘城L1层(东风路地铁站D口旁),河南省,郑州市,金水区,34.796179,113.680273,061103,Gucci,around,11.0,new_candidate,,,False,,,
Gucci,B0FFHE1DV0,GUCCI(杉杉奥特莱斯店),郑开大道与雁鸣大道交叉口东北380米,河南省,郑州市,中牟县,34.781524,114.03022,061101,Gucci,around,11.0,new_candidate,,,False,,,
Gucci,B0FFGBRS8E,GUCCI(振华商厦店),新威路89号振华商厦1层,山东省,威海市,环翠区,37.500125,122.123925,061101,Gucci,around,11.0,new_candidate,,,False,,,
Gucci,B01C31ARK9,Gucci(哈尔滨卓展店),安隆街106号哈尔滨卓展购物中心一层1104号,黑龙江省,哈尔滨市,道里区,45.757829,126.605258,061103|061204,Gucci,around,11.0,new_candidate,,,False,,,
Gucci,B0KU29WW2X,GUCCI(关东古巷王府井购物中心店),景江东路899号王府井购物中心关东古巷店1F层,黑龙江省,哈尔滨市,道里区,45.733222,126.567141,061103,Gucci,around,11.0,new_candidate,,,False,,,
MichaelKors,B000AAETKE,MICHAEL KORS(汉光百货店),西单北大街176号汉光百货2层,北京市,北京市,西城区,39.909452,116.3753,061103|061203,Michael Kors,around,11.0,new_candidate,,,False,,,
MichaelKors,B0FFJD13D4,MICHAEL KORS(燕莎奥特莱斯购物中心店),东四环南路9号北京燕莎奥特莱斯购物中心C座1F层1069、1076、1077,北京市,北京市,朝阳区,39.878372,116.486114,061103|061104,Michael Kors,around,11.0,new_candidate,,,False,,,
MichaelKors,B0H6LCFDEM,MICHAEL KORS(花乡奥莱村店),南四环西路76号花乡奥莱村1F层,北京市,北京市,丰台区,39.828449,116.324013,061103,Michael Kors,around,11.0,new_candidate,,,False,,,
MichaelKors,B0FFHD4S51,MICHAEL KORS(首创奥特莱斯店),长阳镇悦盛路6号院首创奥特莱斯一层A区F23-F25,北京市,北京市,房山区,39.762675,116.18812,061103,Michael Kors,around,11.0,new_candidate,,,False,,,
MichaelKors,B0FFK6L4ZV,MICHAEL KORS(八达岭奥莱店),南口镇陈庄村八达岭奥特莱斯B区902,北京市,北京市,昌平区,40.234003,116.170036,061103,Michael Kors,around,11.0,new_candidate,,,False,,,
MichaelKors,B0FFH86RK9,MICHAEL KORS(新世界城店),南京西路2-68号新世界城1层,上海市,上海市,黄浦区,31.234824,121.473324,061103,Michael Kors,around,11.0,new_candidate,,,False,,,
MichaelKors,B0FFF54MOY,MICHAEL KORS(上海静安嘉里中心旗舰店),南京西路1551号静安嘉里中心1层N1-8、2层N2-7,上海市,上海市,静安区,31.224341,121.449629,061103,Michael Kors,around,11.0,new_candidate,,,False,,,
MichaelKors,B0HATO1F3H,MICHAEL KORS(上海港汇恒隆广场),虹桥路1号上海港汇恒隆广场F2层(徐家汇地铁站出口旁),上海市,上海市,徐汇区,31.195107,121.437257,061103,Michael Kors,around,10.0,new_candidate,,,False,,,
MichaelKors,B0HKLDQI57,MICHAEL KORS(上海久光中心久光百货店),共和新路2188号上海久光中心L1层L105,上海市,上海市,静安区,31.275626,121.450895,061103,Michael Kors,around,11.0,new_candidate,,,False,,,
MichaelKors,B0FFHRESBL,MICHAEL KORS(上海环球港店),中山北路3300号月星环球港L1146号,上海市,上海市,普陀区,31.232033,121.412332,061103|061101|061202,Michael Kors,around,11.0,new_candidate,,,False,,,
MichaelKors,B0KR7KD2LN,MICHAEL KORS(万象城吴中路店),吴中路1599号万象城F1(紫藤路地铁站1号口步行450米),上海市,上海市,闵行区,31.170668,121.369495,061103,Michael Kors,around,11.0,new_candidate,,,False,,,
MichaelKors,B0FFGXQ2NT,Michael Kors(比斯特上海购物村店),浦东申迪东路88号奕欧来上海购物村K6,上海市,上海市,浦东新区,31.139684,121.680214,061101,Michael Kors,around,11.0,new_candidate,,,False,,,
MichaelKors,B0FFHIBWRH,MICHAEL KORS(百联奥特莱斯广场B区店),沪青平公路2888号百联青浦奥特莱斯B151甲,上海市,上海市,青浦区,31.156238,121.227884,061103|061101,Michael Kors,around,11.0,new_candidate,,,False,,,
MichaelKors,B0FFJGFPMA,MICHAEL KORS(佛罗伦萨小镇上海名品奥特莱斯店),祝桥镇卓耀路1-365号F16-F18号58弄佛罗伦萨小镇,上海市,上海市,浦东新区,31.194442,121.764791,061103,Michael Kors,around,11.0,new_candidate,,,False,,,
MichaelKors,B0FFKS9P6B,MICHAEL KORS(福田星河COCOPark店),福华三路268号福田星河COCO Park一期L1层L1-063,广东省,深圳市,福田区,22.53302,114.054485,061103,Michael Kors,around,11.0,new_candidate,,,False,,,
MichaelKors,B0FFIDMYLK,MICHAEL KORS(金光华店),嘉宾路4号金光华广场L1层L1-003,广东省,深圳市,罗湖区,22.539687,114.11997,061103|061104,Michael Kors,around,11.0,new_candidate,,,False,,,
MichaelKors,B0FFK9EHRC,MICHAEL KORS(8号仓店),民康路1号8号仓奥特莱斯L1层L108,广东省,深圳市,龙华区,22.618325,114.055526,061103,Michael Kors,around,11.0,new_candidate,,,False,,,
MichaelKors,B0FFIGBLFU,MICHAEL KORS(万象天地店),科发路19号深圳万象天地LG层,广东省,深圳市,南山区,22.54141,113.95564,061103,Michael Kors,around,11.0,new_candidate,,,False,,,
MichaelKors,B0FFHZW7A1,MICHAEL KORS(海雅缤纷城店),建安一路99号海雅缤纷城F1层L1-008,广东省,深圳市,宝安区,22.559884,113.905916,061103,Michael Kors,around,11.0,new_candidate,,,False,,,
MichaelKors,B0FFJ8IHIP,MICHAEL KORS(深圳前海壹方城店),新安街道新安湖社区新湖路99号深圳前海壹方城F1,广东省,深圳市,宝安区,22.55288,113.88773,061103,Michael Kors,around,11.0,new_candidate,,,False,,,
MichaelKors,B0IUCU0ASF,MICHAEL KORS(深圳龙岗万科广场店),龙翔大道7188号深圳龙岗万科广场F1层,广东省,深圳市,龙岗区,22.714074,114.243492,061100,Michael Kors,around,11.0,new_candidate,,,False,,,
MichaelKors,B0I1C5CWIX,MICHAEL KORS(满纷天地杉杉奥莱店),松岗街道沙浦社区艺展三路8号满纷天地杉杉奥莱L1层,广东省,深圳市,宝安区,22.783644,113.837211,061103,Michael Kors,around,11.0,new_candidate,,,False,,,
MichaelKors,B0FFIS2C05,MICHAEL KORS(天汇广场店),珠江新城兴民路222号IGC天汇广场L1层L128-L129,广东省,广州市,天河区,23.116255,113.331458,061103|061101,Michael Kors,around,11.0,new_candidate,,,False,,,
MichaelKors,B0FFI4HEUY,MICHAEL KORS (广州海印又一城奥特莱斯广场店),番禺大道北383号海印又一城奥特莱斯广场A座1F层,广东省,广州市,番禺区,22.998975,113.348739,061103|061400,Michael Kors,around,11.0,new_candidate,,,False,,,
MichaelKors,B0J01C0EDO,MICHAEL KORS(8号仓流溪河奥莱小镇店),广从南路2231号广州8号仓原8号仓流溪河奥莱小镇F1层,广东省,广州市,从化区,23.477652,113.518836,061100,Michael Kors,around,11.0,new_candidate,,,False,,,
MichaelKors,B0JB2MW24T,MICHAEL KORS(成都SKP店),天府大道北段2001号成都SKP F2层,四川省,成都市,武侯区,30.56777,104.070536,061100,Michael Kors,around,11.0,new_candidate,,,False,,,
MichaelKors,B0FFIIVHJ9,MICHAEL KORS,总府路15号成都王府井百货一楼化妆品,四川省,成都市,锦江区,30.658499,104.079543,061103,Michael Kors,around,10.0,new_candidate,,,False,,,
MichaelKors,B0FFGRAOJT,Michael Kors(时代奥特莱斯店),双楠大道中段633号成都时代奥特莱斯F1层1174A-1207,四川省,成都市,双流区,30.603299,103.944156,061103,Michael Kors,around,11.0,new_candidate,,,False,,,
MichaelKors,B0LRXC1F2K,MICHAEL KORS迈克高仕(成都杉杉奥特莱斯广场驿都西路店),驿都大道西路4388号成都杉杉奥特莱斯广场,四川省,成都市,龙泉驿区,30.571925,104.219875,061100,Michael Kors,around,11.0,new_candidate,,,False,,,
MichaelKors,B0FFLC0RBP,MICHAEL KORS(佛罗伦萨小镇成都名品奥特莱斯),友爱镇银杏路888号佛罗伦萨小镇-成都名品奥特莱斯F1,四川省,成都市,郫都区,30.809712,103.839104,061103,Michael Kors,around,10.0,new_candidate,,,False,,,
MichaelKors,B0IUC4FENV,MICHAEL KORS(湖滨银泰IN77C1区店),延安路258号杭州湖滨银泰IN77C1区B1层,浙江省,杭州市,上城区,30.25344,120.164715,061100,Michael Kors,around,11.0,new_candidate,,,False,,,
MichaelKors,B0LG3A7BNO,MICHAEL KORS(砂之船国际生活广场店),解放东路6号(市民中心地铁站L口步行60米),浙江省,杭州市,上城区,30.244934,120.212974,061104,Michael Kors,around,11.0,new_candidate,,,False,,,
MichaelKors,B0JR3RD5WQ,MICHAEL KORS(南京德基广场店),中山路18号南京德基广场一期3F层,江苏省,南京市,玄武区,32.043019,118.785207,061101,Michael Kors,around,11.0,new_candidate,,,False,,,
MichaelKors,B0FFIMWQOS,MICHAEL KORS(新街口金鹰国际广场店),汉中路89号金鹰国际购物中心B座L1层,江苏省,南京市,秦淮区,32.041615,118.779585,061100,Michael Kors,around,11.0,new_candidate,,,False,,,
MichaelKors,B0KA1KN85M,Michael Kors(南京IFC国金中心商场北区),江东中路351号(元通地铁站3号口旁)南京IFC国金中心商场北区L3层L3-22,江苏省,南京市,建邺区,31.993879,118.721659,061101,Michael Kors,around,10.0,new_candidate,,,False,,,
MichaelKors,B0IKMCIS5N,Michael Kors(砂之船超级奥莱店),砂之船超级奥莱,江苏省,南京市,浦口区,32.041901,118.654409,061100,Michael Kors,around,11.0,new_candidate,,,False,,,
MichaelKors,B0FFGMS8SU,Michael Kors(砂之船奥特莱斯店),秣周东路18号砂之船奥特莱斯艺术商业广场1层A28-30,江苏省,南京市,江宁区,31.867425,118.82933,061103,Michael Kors,around,11.0,new_candidate,,,False,,,
MichaelKors,B0GRYCVTZE,MICHAEL KORS(百联奥特莱斯折扣店),汤山街道圣大99号百联奥特莱斯广场A3-101号店铺,江苏省,南京市,江宁区,32.029253,119.052114,061103,Michael Kors,around,11.0,new_candidate,,,False,,,
MichaelKors,B0HGNCNVOT,MICHAEL KORS(万象城店),谢家湾正街53号重庆万象城L134A号,重庆市,重庆市,九龙坡区,29.515733,106.518047,061103|061101,Michael Kors,around,11.0,new_candidate,,,False,,,
MichaelKors,B0FFG4BPXN,MICHAEL KORS(砂之船奥莱店),奥特莱斯路1号西部奥特莱斯购物广场B馆1F层B122-123,重庆市,重庆市,两江新区,29.629732,106.565011,061103,Michael Kors,around,11.0,new_candidate,,,False,,,
MichaelKors,B0FFFN4669,MICHAEL KORS(佛罗伦萨小镇-京津名品奥特莱斯店),前进道北侧佛罗伦萨小镇(京津名品奥特莱斯)1F层23-25,天津市,天津市,武清区,39.37544,117.015401,061103,Michael Kors,around,11.0,new_candidate,,,False,,,
MichaelKors,B0FFJ4HOZ4,MICHAEL KORS(长沙国金中心),解放西路188号IFS国金中心L1层,湖南省,长沙市,芙蓉区,28.192639,112.976821,061103,Michael Kors,around,10.0,new_candidate,,,False,,,
MichaelKors,B0FFKSCIMR,MICHAEL KORS(砂之船奥莱店),金星北路三段378号长沙砂之船奥特莱斯F1层,湖南省,长沙市,望城区,28.287893,112.918293,061103,Michael Kors,around,11.0,new_candidate,,,False,,,
MichaelKors,B0ID45PQ87,MICHAEL KORS(步步高星城天地店),湘府东路二段398号步步高·星城天地G层,湖南省,长沙市,雨花区,28.111167,113.016234,061100,Michael Kors,around,11.0,new_candidate,,,False,,,
MichaelKors,B0L1FUXIU4,MICHAEL KORS,长沙杉杉奥特莱斯广场,湖南省,长沙市,长沙县,28.141439,113.092048,061100,Michael Kors,around,10.0,new_candidate,,,False,,,
MichaelKors,B0G25YR7NG,MICHAEL KORS(友阿奥特莱斯店),芙蓉南路三段27号友阿奥特莱斯F1,湖南省,长沙市,天心区,28.071194,112.992395,061103,Michael Kors,around,11.0,new_candidate,,,False,,,
MichaelKors,B0G29LSB2Y,MICHAEL KORS(百联奥莱店),大元东路108号百联奥特莱斯广场湖南∙长沙F1层,湖南省,长沙市,长沙县,28.196956,113.203878,061103,Michael Kors,around,11.0,new_candidate,,,False,,,
MichaelKors,B0FFK9239S,MICHAEL KORS(大融城),凤城七路51号大融城1F层,陕西省,西安市,未央区,34.338908,108.948779,061103,Michael Kors,around,10.0,new_candidate,,,False,,,
MichaelKors,B0FFJ3XYQL,MICHAEL KORS(砂之船奥莱店),世博大道5001号西安砂之船艺术商业广场1楼A-13/14号,陕西省,西安市,灞桥区,34.344619,109.046483,061103,Michael Kors,around,11.0,new_candidate,,,False,,,
MichaelKors,B0G1J19OWG,MICHAEL KORS(西安SKP),长安北路261号西安SKP3F层,陕西省,西安市,碑林区,34.247861,108.948444,061103,Michael Kors,around,10.0,new_candidate,,,False,,,
MichaelKors,B0FFK97QWZ,MICHAEL KORS(赛格国际购物中心店),小寨东路赛格国际购物中心F1层,陕西省,西安市,雁塔区,34.223659,108.947414,061103,Michael Kors,around,11.0,new_candidate,,,False,,,
MichaelKors,B0FFK9JTOZ,MICHAEL KORS(西安大悦城店),慈恩西路67号西安大悦城1F层L1-45,陕西省,西安市,雁塔区,34.216206,108.962362,061103|061104,Michael Kors,around,11.0,new_candidate,,,False,,,
MichaelKors,B0FFHMZ9UQ,MICHAEL KORS(王府井赛特奥莱店),凤凰大道11号王府井赛特奥莱(临潼店)1F层A1-135、A1-136、A1-142、A1-143,陕西省,西安市,临潼区,34.36419,109.175468,061100,Michael Kors,around,11.0,new_candidate,,,False,,,
MichaelKors,B0L1SOSF9Y,MICHAEL KORS(王府井百货西安赛特奥莱临潼店),凤凰大道西恩奥莱2号门,陕西省,西安市,临潼区,34.364212,109.175627,061103,Michael Kors,around,11.0,new_candidate,,,False,,,
MichaelKors,B0KR2ZM44N,MICHAEL KORS(武汉中央文化旅游区-楚河汉街南区),楚河汉街1号楚河汉街南区F1层,湖北省,武汉市,武昌区,30.556332,114.341956,061104,Michael Kors,around,10.0,new_candidate,,,False,,,
MichaelKors,B0I0A587PG,MICHAEL KORS(武商梦时代店),武珞路598号武商梦时代A133(宝通寺地铁站B口旁),湖北省,武汉市,武昌区,30.529174,114.341511,061103,Michael Kors,around,11.0,new_candidate,,,False,,,
MichaelKors,B0FFIWA6SY,MICHAEL KORS(群光百货店),珞喻路6号群光广场一层(街道口地铁站B口步行50米),湖北省,武汉市,洪山区,30.525464,114.355564,061103|061104,Michael Kors,around,11.0,new_candidate,,,False,,,
MichaelKors,B0FFG05F8H,MICHAEL KORS迈克尔高司(比斯特苏州购物村店),苏州工业园区阳澄环路969号比斯特苏州购物村F1层,江苏省,苏州市,吴中区,31.377875,120.761275,061103,Michael Kors,around,11.0,new_candidate,,,False,,,
MichaelKors,B0ID7CG0RR,MICHAEL KORS(金鹰国际购物中心昆山店),珠江中路199号昆山金鹰国际购物中心L1层,江苏省,苏州市,昆山市,31.376161,120.97273,061100,Michael Kors,around,11.0,new_candidate,,,False,,,
MichaelKors,B0FFGSH0WP,MICHAEL KORS(丹尼斯·大卫城店),二七路188号丹尼斯大卫城1F-B020,河南省,郑州市,金水区,34.758106,113.666134,061103,Michael Kors,around,11.0,new_candidate,,,False,,,
MichaelKors,B0FFK6E0CP,MICHAEL KORS(郑州正弘城),花园路126号郑州正弘城L1层(东风路地铁站C口旁),河南省,郑州市,金水区,34.795826,113.68049,061103,Michael Kors,around,10.0,new_candidate,,,False,,,
MichaelKors,B0IKF54JRJ,Michael Kors,正弘汇,河南省,郑州市,中原区,34.809475,113.566125,061100,Michael Kors,around,10.0,new_candidate,,,False,,,
MichaelKors,B0FFHE0MLC,MICHAEL KORS(杉杉奥特莱斯折扣店),郑开大道与S223省道交汇处杉杉奥特莱斯A13500-A13600-A16000号,河南省,郑州市,中牟县,34.782312,114.028981,061100,Michael Kors,around,11.0,new_candidate,,,False,,,
MichaelKors,B0FFHQK1AW,MICHAEL KORS(杉杉奥莱店),利民大道555号杉杉奥莱1层A12400店铺,黑龙江省,哈尔滨市,呼兰区,45.875581,126.557929,061103,Michael Kors,around,11.0,new_candidate,,,False,,,
MichaelKors,B0FFHXYY5I,MICHAEL KORS(枫叶小镇奥特莱斯店),中源大道16999号枫叶小镇奥特莱斯1层A1068-1070号,黑龙江省,哈尔滨市,松北区,45.821214,126.464202,061103,Michael Kors,around,11.0,new_candidate,,,False,,,
MichaelKors,B0FFGY75D6,MK专柜(北京市百货大楼店),王府井大街253号北京市百货大楼1F层,北京市,北京市,东城区,39.914125,116.410425,061100,MK,around,11.0,new_candidate,,,False,,,
MichaelKors,B0LRSK435Z,MK(DT51店),北苑路98号院1号楼DT51,北京市,北京市,朝阳区,39.999452,116.419662,061101,MK,around,11.0,new_candidate,,,False,,,
MichaelKors,B0KUP1L0A0,MK服装店,茂名南路169弄之1-22号茂名坊,上海市,上海市,黄浦区,31.215235,121.462196,061100,MK,around,11.0,new_candidate,,,False,,,
MichaelKors,B0LDV751UN,MK男装,庙前街106号,上海市,上海市,松江区,31.005953,121.23359,061100,MK,around,10.0,new_candidate,,,False,,,
MichaelKors,B0LAKXPRMS,MK,阔街与松江长桥街交叉口西20米,上海市,上海市,松江区,31.005782,121.231534,061100,MK,around,10.0,new_candidate,,,False,,,
MichaelKors,B0LGAPFK3I,R MK,东门中路2047号茂业百货,广东省,深圳市,罗湖区,22.547175,114.121261,061100,MK,around,10.0,new_candidate,,,False,,,
MichaelKors,B0FFKP35RJ,MK.(乐汇城店),吉华路999号乐汇城F2层,广东省,深圳市,龙岗区,22.633234,114.062768,061100,MK,around,11.0,new_candidate,,,False,,,
MichaelKors,B0L1N9XV80,MK包包店(利金城集团购物广场店),利金城集团购物广场,广东省,深圳市,龙华区,22.652889,114.020593,061101,MK,around,11.0,new_candidate,,,False,,,
MichaelKors,B0J1XUSCHU,MK-BEILA(大浪商业中心A栋店),华旺路大浪商业中心A栋F1层,广东省,深圳市,龙华区,22.675345,113.996093,061101,MK,around,11.0,new_candidate,,,False,,,
MichaelKors,B0LRXC1D3D,MK,人民中路279号广州风格商厦,广东省,广州市,荔湾区,23.116786,113.252873,061100,MK,around,10.0,new_candidate,,,False,,,
MichaelKors,B0L6RKTM8I,MK服装定制工作室,钓台坊大街与后底岗东路交叉口东南180米,广东省,广州市,番禺区,23.018703,113.365471,061100|070000,MK,around,10.0,new_candidate,,,False,,,
MichaelKors,B0LDCDTD69,MK圆圆,营溪营南街与营溪营西街交叉口西120米,广东省,广州市,白云区,23.293331,113.344039,061100,MK,around,10.0,new_candidate,,,False,,,
MichaelKors,B0GURCPJUX,MK轻奢女包,狮岭镇益群村胡屋河路,广东省,广州市,花都区,23.471876,113.182554,061100,MK,around,10.0,new_candidate,,,False,,,
MichaelKors,B0JG5ATYYQ,MK5广场,新华街新街大道5号之一108号铺,广东省,广州市,花都区,23.371777,113.198543,060101,MK,around,10.0,new_candidate,,,False,,,
MichaelKors,B0J095TBO5,M·K衣间(303生活广场店),厚仁路313号303生活广场F2层,浙江省,杭州市,西湖区,30.333375,120.077918,061101,MK,around,11.0,new_candidate,,,False,,,
MichaelKors,B0LRSA3SP2,MK&C,新大地广场c去7号,浙江省,杭州市,临平区,30.424358,120.300283,061100,MK,around,10.0,new_candidate,,,False,,,
MichaelKors,B0J6NCPIJT,MK(砂之船店),砂之船(南京江北新区)奥莱,江苏省,南京市,浦口区,32.041613,118.654542,061101,MK,around,11.0,new_candidate,,,False,,,
MichaelKors,B0LGXY84D1,mk,狮山路与大马山路交叉口西20米,江苏省,南京市,浦口区,32.072583,118.611049,061100,MK,around,10.0,new_candidate,,,False,,,
MichaelKors,B0LU6LMS69,MK男品汇,惠工路与湖滨路交叉口西南40米,重庆市,重庆市,南岸区,29.525672,106.563864,061100,MK,around,10.0,new_candidate,,,False,,,
MichaelKors,B0FFHHGMWO,mk男品,鱼洞二小西南门东南50米,重庆市,重庆市,巴南区,29.381355,106.52285,061100,MK,around,10.0,new_candidate,,,False,,,
MichaelKors,B0LA4D9PI9,MKhouse自助女装店,熙街熙都会,重庆市,重庆市,沙坪坝区,29.602398,106.301787,061100,MK,around,11.0,new_candidate,,,False,,,
MichaelKors,B0LGTR0FR2,MK,,天津市,天津市,滨海新区,39.032911,117.604043,061100,MK,around,10.0,new_candidate,,,False,,,
MichaelKors,B0FFIA320C,MK(佛罗伦萨小镇店),武清区开发区前进道北侧佛罗伦萨小镇24号,天津市,天津市,武清区,39.375589,117.015449,061100,MK,around,11.0,new_candidate,,,False,,,
MichaelKors,B0H0KSO0C3,MK护肤造型(汶川里小区店),汶川里小区东门旁,天津市,天津市,南开区,39.128827,117.126126,061100|071100,MK,around,11.0,new_candidate,,,False,,,
MichaelKors,B0KD2PSMXZ,MK时尚,湘江中路万达总部国际C2座9楼,湖南省,长沙市,开福区,28.20201,112.971312,061100|071100,MK,around,10.0,new_candidate,,,False,,,
MichaelKors,B0L1K7UV1W,mk,体育新城古曲南路198号茂华·禧都会,湖南省,长沙市,雨花区,28.163556,113.037208,061100,MK,around,10.0,new_candidate,,,False,,,
MichaelKors,B0JGLUJ2WQ,mk(西安大明宫万达广场店),太华北路369号万达广场西安大明宫店F2层,陕西省,西安市,未央区,34.314881,108.972731,061102,MK,around,11.0,new_candidate,,,False,,,
MichaelKors,B0LRLKLNOV,mk(中贸广场店),长安北路辅路与中贸街交叉口西南140米,陕西省,西安市,碑林区,34.242486,108.945945,061101,MK,around,11.0,new_candidate,,,False,,,
MichaelKors,B0L66MLHRQ,MOMOPARK2店负二MK专柜,小寨西路232号MOMOPARK艺术购物中心B2层,陕西省,西安市,雁塔区,34.22213,108.934246,061101,MK,around,11.0,new_candidate,,,False,,,
MichaelKors,B0IK15JMC7,MK(武商梦时代店),武珞路598号武商梦时代,湖北省,武汉市,武昌区,30.528775,114.340625,061100,MK,around,11.0,new_candidate,,,False,,,
MichaelKors,B0FFJP7NQT,MK熙熙(明日星城城欣园店),虞山街道嫩江路142号明日星城城欣园,江苏省,苏州市,常熟市,31.678438,120.733981,061100,MK,around,11.0,new_candidate,,,False,,,
MichaelKors,B0LRFH6EOP,MK,光明路与云桥路交叉口东60米,江苏省,苏州市,昆山市,31.295301,121.123196,061100,MK,around,10.0,new_candidate,,,False,,,
MichaelKors,B0LGK1Q707,M&K,一马路与西三马路交叉口东南120米,河南省,郑州市,二七区,34.740656,113.665317,061100,MK,around,10.0,new_candidate,,,False,,,
MichaelKors,B0KKFS9X9A,MK专柜,郑州正弘汇,河南省,郑州市,中原区,34.808802,113.566814,061101,MK,around,10.0,new_candidate,,,False,,,
