business_area_id,key,name_raw,amap_id,adcode,province_code,city_code,district_code,province_name,city_name,district_name,center_lat,center_lng,mall_count,store_count,name
1,310114,南翔,310114,310114,310000,310100,310114,上海市,上海城区,嘉定区,31.332863295918322,121.28631222448989,10,88,南翔商圈
2,310120,环城东路,310120,310120,310000,310100,310120,上海市,上海城区,奉贤区,30.92141300000002,121.46768199999998,4,18,环城东路商圈
3,310113,罗店,310113,310113,310000,310100,310113,上海市,上海城区,宝山区,31.355735383233558,121.43689981437107,14,153,罗店商圈
4,310106,彭浦镇,310106,310113,310000,310100,310113,上海市,上海城区,宝山区,31.285483000000077,121.43355300000019,16,86,彭浦镇商圈
5,310151,城桥,310151,310151,310000,310100,310151,上海市,上海城区,崇明区,31.532838368421046,121.52392021052626,4,15,城桥商圈
6,310104,徐家汇,310104,310104,310000,310100,310104,上海市,上海城区,徐汇区,31.188732032258045,121.43567741935526,48,262,徐家汇商圈
7,310107,长寿路,310107,310107,310000,310100,310107,上海市,上海城区,普陀区,31.240267999999965,121.43616599999983,29,117,长寿路商圈
8,310110,江湾,310110,310110,310000,310100,310110,上海市,上海城区,杨浦区,31.291032113888985,121.50905704999974,54,306,江湾商圈
9,310117,泗泾,310117,310117,310000,310100,310117,上海市,上海城区,松江区,31.06841563095241,121.27576016666663,12,72,泗泾商圈
10,310115,康桥,310115,310115,310000,310100,310115,上海市,上海城区,浦东新区,31.1632671062271,121.59776614652,19,254,康桥商圈
11,310116,枫泾,310116,310116,310000,310100,310116,上海市,上海城区,金山区,30.849706999999995,121.17773443749996,7,9,枫泾商圈
12,310105,北新泾,310105,310105,310000,310100,310105,上海市,上海城区,长宁区,31.217858999999983,121.36765299999992,2,26,北新泾商圈
13,310112,颛桥,310112,310112,310000,310100,310112,上海市,上海城区,闵行区,31.12720453968252,121.37825200529107,14,175,颛桥商圈
14,310118,华新,310118,310118,310000,310100,310118,上海市,上海城区,青浦区,31.240801137931047,121.22056131034479,3,26,华新商圈
15,530922,迎新路,530922,530922,530000,530900,530922,云南省,临沧市,云县,24.438501,100.136309,3,6,迎新路商圈
16,530921,滇红南路,530921,530921,530000,530900,530921,云南省,临沧市,凤庆县,24.587535,99.923218,5,2,滇红南路商圈
17,530925,勐勐南路,530925,530925,530000,530900,530925,云南省,临沧市,双江拉祜族佤族布朗族傣族自治县,23.470904,99.823207,1,0,勐勐南路商圈
18,530702,福慧路,530702,530702,530000,530700,530702,云南省,丽江市,古城区,26.87824799999999,100.22123800000004,13,20,福慧路商圈
19,530724,万格路,530724,530724,530000,530700,530724,云南省,丽江市,宁蒗彝族自治县,27.280911,100.851434,2,1,万格路商圈
20,532901,建设路,532901,532901,530000,532900,532901,云南省,大理白族自治州,大理市,25.585252,100.22367699999998,4,4,建设路商圈
21,533102,姐岗路,533102,533102,530000,533100,533102,云南省,德宏傣族景颇族自治州,瑞丽市,24.012354000000002,97.861925,15,9,姐岗路商圈
22,533123,永盛路,533123,533123,530000,533100,533123,云南省,德宏傣族景颇族自治州,盈江县,24.70441299999999,97.936817,9,4,永盛路商圈
23,533103,德宏,533103,533103,530000,533100,533103,云南省,德宏傣族景颇族自治州,芒市,24.4335375,98.57905333333332,3,9,德宏商圈
24,532626,西正街,532626,532626,530000,532600,532626,云南省,文山壮族苗族自治州,丘北县,24.041462999999997,104.192771,3,3,西正街商圈
25,532601,开化,532601,532601,530000,532600,532601,云南省,文山壮族苗族自治州,文山市,23.370812068965513,104.24573620689654,13,16,开化商圈
26,532622,嘉禾路,532622,532622,530000,532600,532622,云南省,文山壮族苗族自治州,砚山县,23.612828000000004,104.34453499999998,3,6,嘉禾路商圈
27,532625,信合路,532625,532625,530000,532600,532625,云南省,文山壮族苗族自治州,马关县,23.014534,104.39769099999998,1,4,信合路商圈
28,530113,白云街,530113,530113,530000,530100,530113,云南省,昆明市,东川区,26.071617,103.186106,1,0,白云街商圈
29,530102,红云,530102,530102,530000,530100,530102,云南省,昆明市,五华区,25.105583000000014,102.72676099999991,8,43,红云商圈
30,530114,吴家营,530114,530114,530000,530100,530114,云南省,昆明市,呈贡区,24.892926874999997,102.8444041875,3,13,吴家营销圈
31,530181,连然,530181,530181,530000,530100,530181,云南省,昆明市,安宁市,24.921778000000007,102.48203300000004,9,16,连然商圈
32,530111,东站,530111,530111,530000,530100,530111,云南省,昆明市,官渡区,25.01739312328765,102.74111384931523,15,131,东站商圈
33,530124,永定,530124,530124,530000,530100,530124,云南省,昆明市,富民县,25.217705,102.499285,1,1,永定商圈
34,530129,仁德,530129,530129,530000,530100,530129,云南省,昆明市,寻甸回族彝族自治县,25.559299000000003,103.259724,4,5,仁德商圈
35,530126,鹿阜,530126,530126,530000,530100,530126,云南省,昆明市,石林彝族自治县,24.759646,103.27388399999997,3,8,鹿阜商圈
36,530128,屏山,530128,530128,530000,530100,530128,云南省,昆明市,禄劝彝族苗族自治县,25.551301,102.469022,2,3,屏山商圈
37,530802,茶城大道,530802,530802,530000,530800,530802,云南省,普洱市,思茅区,22.784876,100.977888,5,5,茶城大道商圈
38,530828,东朗路,530828,530828,530000,530800,530828,云南省,普洱市,澜沧拉祜族自治县,22.554804,99.931526,1,2,东朗路商圈
39,530825,恩水路,530825,530825,530000,530800,530825,云南省,普洱市,镇沅彝族哈尼族拉祜族自治县,24.005932,101.108781,2,0,恩水路商圈
40,530381,双龙,530381,530381,530000,530300,530381,云南省,曲靖市,宣威市,26.22961900000001,104.10496600000005,3,12,双龙商圈
41,530325,建设路,530325,530325,530000,530300,530325,云南省,曲靖市,富源县,25.670185,104.255414,2,2,建设路商圈
42,530302,文昌,530302,530302,530000,530300,530302,云南省,曲靖市,麒麟区,25.48963000000002,103.79542500000002,15,45,文昌商圈
43,532322,振兴路,532322,532322,530000,532300,532322,云南省,楚雄彝族自治州,双柏县,24.686382,101.638235,3,0,振兴路商圈
44,532326,环城东路,532326,532326,530000,532300,532326,云南省,楚雄彝族自治州,大姚县,25.725747000000002,101.325186,2,3,环城东路商圈
45,532325,西正街,532325,532325,530000,532300,532325,云南省,楚雄彝族自治州,姚安县,25.506411,101.237468,1,3,西正街商圈
46,530427,桂山,530427,530427,530000,530400,530427,云南省,玉溪市,新平彝族傣族自治县,24.068373000000005,101.991124,3,6,桂山商圈
47,530425,龙泉,530425,530425,530000,530400,530425,云南省,玉溪市,易门县,24.668410999999995,102.166997,2,4,龙泉商圈
48,530403,大街,530403,530403,530000,530400,530403,云南省,玉溪市,江川区,24.290388000000004,102.751308,4,4,大街商圈
49,530423,环城北路,530423,530423,530000,530400,530423,云南省,玉溪市,通海县,24.113256999999994,102.75708800000001,10,5,环城北路商圈
50,532501,金湖南路,532501,532501,530000,532500,532501,云南省,红河哈尼族彝族自治州,个旧市,23.36329836363637,103.15640481818181,6,5,金湖南路商圈
51,532524,朝阳北路,532524,532524,530000,532500,532524,云南省,红河哈尼族彝族自治州,建水县,23.6161648,102.8202163,8,2,朝阳北路商圈
52,532502,东风路,532502,532502,530000,532500,532502,云南省,红河哈尼族彝族自治州,开远市,23.711145999999992,103.24401600000004,7,8,东风路商圈
53,532527,环城西路,532527,532527,530000,532500,532527,云南省,红河哈尼族彝族自治州,泸西县,24.529890999999996,103.76261500000001,4,7,环城西路商圈
54,532525,焕文路,532525,532525,530000,532500,532525,云南省,红河哈尼族彝族自治州,石屏县,23.71535,102.485507,2,6,焕文路商圈
55,532822,景管路,532822,532822,530000,532800,532822,云南省,西双版纳傣族自治州,勐海县,21.957908,100.44946599999999,2,1,景管路商圈
56,532801,宣慰大道,532801,532801,530000,532800,532801,云南省,西双版纳傣族自治州,景洪市,22.00500145454547,100.78878993939394,16,17,宣慰大道商圈
57,533401,阳塘路,533401,533401,530000,533400,533401,云南省,迪庆藏族自治州,香格里拉市,27.827475,99.709861,2,3,阳塘路商圈
58,150929,新华街,150929,150929,150000,150900,150929,内蒙古自治区,乌兰察布市,四子王旗,41.522752,111.70313,5,3,新华街商圈
59,150926,解放路,150926,150926,150000,150900,150926,内蒙古自治区,乌兰察布市,察哈尔右翼前旗,40.785529,113.21201,1,1,解放路商圈
60,150302,新华西街,150302,150302,150000,150300,150302,内蒙古自治区,乌海市,海勃湾区,39.66657899999999,106.81985200000003,8,10,新华西街商圈
61,152201,乌兰西街,152201,152201,150000,152200,152201,内蒙古自治区,兴安盟,乌兰浩特市,46.074651799999984,122.07598689999998,10,10,乌兰西街商圈
62,152222,巴仁哲里木大街,152222,152222,150000,152200,152222,内蒙古自治区,兴安盟,科尔沁右翼中旗,45.05823399999999,121.478605,6,5,巴仁哲里木大街商圈
63,150202,和平路,150202,150202,150000,150200,150202,内蒙古自治区,包头市,东河区,40.58742057142859,110.02937919047616,5,16,和平路商圈
64,150203,鞍山道,150203,150203,150000,150200,150203,内蒙古自治区,包头市,昆都仑区,40.661869999999986,109.81790300000007,14,22,鞍山道商圈
65,150204,娜琳王府井,150204,150204,150000,150200,150204,内蒙古自治区,包头市,青山区,40.66898700000001,109.87546599999997,10,18,娜琳商圈
66,150783,正阳,150783,150783,150000,150700,150783,内蒙古自治区,呼伦贝尔市,扎兰屯市,48.00767100000001,122.74071099999999,6,6,正阳商圈
67,150785,河东,150785,150785,150000,150700,150785,内蒙古自治区,呼伦贝尔市,根河市,50.780845,121.530512,4,1,河东商圈
68,150782,兴安中街,150782,150782,150000,150700,150782,内蒙古自治区,呼伦贝尔市,牙克石市,49.286159,120.72616999999998,7,6,兴安中街商圈
69,150722,纳文西大街,150722,150722,150000,150700,150722,内蒙古自治区,呼伦贝尔市,莫力达瓦达斡尔族自治旗,48.47616699999999,124.500037,5,3,纳文西大街商圈
70,150103,中山西路,150103,150103,150000,150100,150103,内蒙古自治区,呼和浩特市,回民区,40.81136999999993,111.66518699999988,21,59,中山西路商圈
71,150102,东风路,150102,150102,150000,150100,150102,内蒙古自治区,呼和浩特市,新城区,40.83015871666662,111.69922696111136,30,150,东风路商圈
72,150823,天义,150823,150823,150000,150800,150823,内蒙古自治区,巴彦淖尔市,乌拉特前旗,40.72514324999999,108.650874625,7,9,天义商圈
73,150826,三禾,150826,150826,150000,150800,150826,内蒙古自治区,巴彦淖尔市,杭锦后旗,40.888073000000006,107.14597099999999,6,7,三禾商圈
74,150423,荟福路,150423,150423,150000,150400,150423,内蒙古自治区,赤峰市,巴林右旗,43.528470000000006,118.68252400000003,6,1,荟福路商圈
75,150430,新西街,150430,150430,150000,150400,150430,内蒙古自治区,赤峰市,敖汉旗,42.286888,119.90364200000002,5,4,新西街商圈
76,150404,向阳,150404,150404,150000,150400,150404,内蒙古自治区,赤峰市,松山区,42.28393768518519,118.93652577777787,21,33,向阳商圈
77,150426,新华街,150426,150426,150000,150400,150426,内蒙古自治区,赤峰市,翁牛特旗,42.935697,119.01192300000001,5,6,新华街商圈
78,150421,天山路,150421,150421,150000,150400,150421,内蒙古自治区,赤峰市,阿鲁科尔沁旗,43.878657999999994,120.09570699999998,7,3,天山路商圈
79,150525,奈曼大街,150525,150525,150000,150500,150525,内蒙古自治区,通辽市,奈曼旗,42.847429,120.66063200000004,12,3,奈曼大街商圈
80,150524,库伦,150524,150524,150000,150500,150524,内蒙古自治区,通辽市,库伦旗,42.735008,121.773202,1,0,库伦商圈
81,150526,长江路,150526,150526,150000,150500,150526,内蒙古自治区,通辽市,扎鲁特旗,44.552146,120.90595800000004,10,3,长江路商圈
82,150502,东顺路,150502,150502,150000,150500,150502,内蒙古自治区,通辽市,科尔沁区,43.620978052631585,122.27009105263168,19,38,东顺路商圈
83,150521,文化路,150521,150521,150000,150500,150521,内蒙古自治区,通辽市,科尔沁左翼中旗,44.126671,123.314961,4,1,文化路商圈
84,150581,振兴路,150581,150581,150000,150500,150581,内蒙古自治区,通辽市,霍林郭勒市,45.531271,119.65614000000002,5,3,振兴路商圈
85,150602,天骄北路,150602,150602,150000,150600,150602,内蒙古自治区,鄂尔多斯市,东胜区,39.82832400000004,109.98086599999993,18,54,天骄北路商圈
86,150622,兴隆,150622,150622,150000,150600,150622,内蒙古自治区,鄂尔多斯市,准格尔旗,39.811206749999975,111.14885174999992,16,16,兴隆商圈
87,150621,白塔,150621,150621,150000,150600,150621,内蒙古自治区,鄂尔多斯市,达拉特旗,40.394892000000006,110.005484,3,7,白塔商圈
88,150624,乌仁都西街,150624,150624,150000,150600,150624,内蒙古自治区,鄂尔多斯市,鄂托克旗,39.09457,107.98584500000001,6,2,乌仁都西街商圈
89,152531,龙泽南街,152531,152531,150000,152500,152531,内蒙古自治区,锡林郭勒盟,多伦县,42.20469500000001,116.48384999999999,2,6,龙泽南街商圈
90,152527,解放大街,152527,152527,150000,152500,152527,内蒙古自治区,锡林郭勒盟,太仆寺旗,41.895244,115.28582400000002,4,3,解放大街商圈
91,152524,赛汉大街,152524,152524,150000,152500,152524,内蒙古自治区,锡林郭勒盟,苏尼特右旗,42.746441,112.656513,2,4,赛汉大街商圈
92,152526,巴拉嘎尔街,152526,152526,150000,152500,152526,内蒙古自治区,锡林郭勒盟,西乌珠穆沁旗,44.584324,117.61373899999998,5,0,巴拉嘎尔街商圈
93,152502,锡林大街,152502,152502,150000,152500,152502,内蒙古自治区,锡林郭勒盟,锡林浩特市,43.95419,116.09131900000008,7,21,锡林大街商圈
94,152921,巴彦浩特新华,152921,152921,150000,152900,152921,内蒙古自治区,阿拉善盟,阿拉善左旗,38.834095,105.676926,2,1,巴彦浩特商圈
95,110101,东单,110101,110101,110000,110100,110101,北京市,北京城区,东城区,39.91207170948014,116.43013155963295,33,294,东单商圈
96,110106,马家堡村,110106,110101,110000,110100,110101,北京市,北京城区,东城区,39.85392488612099,116.3422210427047,25,256,马家堡商圈
97,110117,兴谷,110117,110117,110000,110100,110117,北京市,北京城区,平谷区,40.159695000000035,117.12528999999998,10,26,兴谷商圈
98,110111,良乡,110111,110111,110000,110100,110111,北京市,北京城区,房山区,39.73817564835166,116.14292860439564,18,73,良乡商圈
99,110114,立水桥,110114,110114,110000,110100,110114,北京市,北京城区,昌平区,40.08774968821299,116.33335936121647,25,238,立水桥商圈
100,110105,姚家园,110105,110105,110000,110100,110105,北京市,北京城区,朝阳区,39.94436447512435,116.48488445771127,20,382,姚家园商圈
101,110108,世纪城,110108,110108,110000,110100,110108,北京市,北京城区,海淀区,39.967886194029894,116.30697574626875,10,124,世纪城商圈
102,110107,石景山,110107,110107,110000,110100,110107,北京市,北京城区,石景山区,39.91246189361703,116.20003600000001,7,40,石景山商圈
103,110102,广安门,110102,110102,110000,110100,110102,北京市,北京城区,西城区,39.90144704761911,116.35223738095223,14,91,广安门商圈
104,110112,通州北关,110112,110112,110000,110100,110112,北京市,北京城区,通州区,39.8941257122302,116.65358289928064,15,124,通州北关商圈
105,110109,门头沟,110109,110109,110000,110100,110109,北京市,北京城区,门头沟区,39.93442210526316,116.10408668421044,8,30,门头沟商圈
106,110113,后沙峪,110113,110113,110000,110100,110113,北京市,北京城区,顺义区,40.11674054666667,116.61681490666658,17,58,后沙峪商圈
107,220282,胜利,220282,220282,220000,220200,220282,吉林省,吉林市,桦甸市,42.97383176923078,126.75067738461536,10,3,胜利商圈
108,220284,东宁,220284,220284,220000,220200,220284,吉林省,吉林市,磐石市,42.948014,126.06005900000001,6,1,东宁商圈
109,220283,北城,220283,220283,220000,220200,220283,吉林省,吉林市,舒兰市,44.38852080000001,126.91626379999998,7,8,北城商圈
110,220204,长春路,220204,220204,220000,220200,220204,吉林省,吉林市,船营区,43.82386300000001,126.51234999999998,3,5,长春路商圈
111,220281,民主,220281,220281,220000,220200,220281,吉林省,吉林市,蛟河市,43.723046,127.34188199999998,5,0,民主商圈
112,220203,铁东,220203,220203,220000,220200,220203,吉林省,吉林市,龙潭区,43.892231,126.618906,1,1,铁东商圈
113,220382,中兴路,220382,220382,220000,220300,220382,吉林省,四平市,双辽市,43.51312900000002,123.506787,10,8,中兴路商圈
114,220302,地直街,220302,220302,220000,220300,220302,吉林省,四平市,铁西区,43.177257000000004,124.35136400000003,2,11,地直街商圈
115,222406,文化,222406,222406,220000,222400,222406,吉林省,延边朝鲜族自治州,和龙市,42.544776,129.011696,2,1,文化商圈
116,222402,向上,222402,222402,220000,222400,222402,吉林省,延边朝鲜族自治州,图们市,42.964982,129.847036,4,0,向上商圈
117,222401,新兴,222401,222401,220000,222400,222401,吉林省,延边朝鲜族自治州,延吉市,42.9078397307692,129.50906519230773,21,31,新兴商圈
118,222404,靖和,222404,222404,220000,222400,222404,吉林省,延边朝鲜族自治州,珲春市,42.873762,130.36992800000002,9,3,靖和商圈
119,220723,宇宙大路,220723,220723,220000,220700,220723,吉林省,松原市,乾安县,45.00459379999999,124.02544479999999,5,5,宇宙大路商圈
120,220721,商贸小区(清真街),220721,220721,220000,220700,220721,吉林省,松原市,前郭尔罗斯蒙古族自治县,45.11358799999999,124.82551199999996,11,24,商贸小区商圈
121,220702,文化路,220702,220702,220000,220700,220702,吉林省,松原市,宁江区,45.17483461290323,124.82868522580647,11,20,文化路商圈
122,220882,长白北街,220882,220882,220000,220800,220882,吉林省,白城市,大安市,45.509032999999995,124.28344199999998,9,2,长白北街商圈
123,220802,步行街,220802,220802,220000,220800,220802,吉林省,白城市,洮北区,45.61787000000001,122.849878,14,11,步行街商圈
124,220881,广昌西路,220881,220881,220000,220800,220881,吉林省,白城市,洮南市,45.337255,122.780751,5,3,广昌西路商圈
125,220822,开通西路,220822,220822,220000,220800,220822,吉林省,白城市,通榆县,44.805325999999994,123.08239,6,3,开通西路商圈
126,220821,凌云东路,220821,220821,220000,220800,220821,吉林省,白城市,镇赉县,45.849454999999985,123.21212199999998,9,3,凌云东路商圈
127,220621,小南街,220621,220621,220000,220600,220621,吉林省,白山市,抚松县,42.330753,127.274307,2,2,小南街商圈
128,220602,建设,220602,220602,220000,220600,220602,吉林省,白山市,浑江区,41.93890860714286,126.42483146428573,12,16,建设商圈
129,220623,长白大街,220623,220623,220000,220600,220623,吉林省,白山市,长白朝鲜族自治县,41.420204,128.201176,3,1,长白大街商圈
130,220421,东风路,220421,220421,220000,220400,220421,吉林省,辽源市,东丰县,42.675631666666675,125.53599633333334,5,4,东风路商圈
131,220402,新华,220402,220402,220000,220400,220402,吉林省,辽源市,龙山区,42.90189899999998,125.14591500000004,16,7,新华商圈
132,220502,江南,220502,220502,220000,220500,220502,吉林省,通化市,东昌区,41.70664699999998,125.93740506666663,10,20,江南商圈
133,220103,长春新区,220103,220113,220000,220100,220113,吉林省,长春市,九台区,43.94240500000005,125.34980033333335,15,54,长春新区商圈
134,220113,曙光,220113,220113,220000,220100,220113,吉林省,长春市,九台区,44.151253,125.82943700000003,10,4,曙光商圈
135,220105,远达大街/远达,220105,220105,220000,220100,220105,吉林省,长春市,二道区,43.91882200000001,125.37592499999994,5,26,远达商圈
136,220184,河北,220184,220184,220000,220100,220184,吉林省,长春市,公主岭市,43.505554,124.811107,9,7,河北商圈
137,220102,清明,220102,220102,220000,220100,220102,吉林省,长春市,南关区,43.864392134715004,125.32979731088062,30,163,清明商圈
138,220112,云山,220112,220112,220000,220100,220112,吉林省,长春市,双阳区,43.521888166666685,125.68146094444442,12,6,云山商圈
139,220183,德惠,220183,220183,220000,220100,220183,吉林省,长春市,德惠市,44.533925449999984,125.70811380000002,8,12,德惠商圈
140,220104,高新开发区,220104,220104,220000,220100,220104,吉林省,长春市,朝阳区,43.821288999999986,125.25753799999998,2,20,高新开发区商圈
141,220182,城郊,220182,220182,220000,220100,220182,吉林省,长春市,榆树市,44.827955999999986,126.55275499999999,8,10,城郊商圈
142,511124,研城镇,511124,511124,510000,511100,511124,四川省,乐山市,井研县,29.653267000000003,104.067276,5,4,研城镇商圈
143,511126,建设中路,511126,511126,510000,511100,511126,四川省,乐山市,夹江县,29.738734,103.573564,1,0,建设中路商圈
144,511132,峨边县核心区域,511132,511132,510000,511100,511132,四川省,乐山市,峨边彝族自治县,29.229936,103.264123,2,1,峨边县核心区域商圈
145,511011,汉安大道,511011,511011,510000,511000,511011,四川省,内江市,东兴区,29.603845999999983,105.05657500000004,6,24,汉安大道商圈
146,511024,南大街,511024,511024,510000,511000,511024,四川省,内江市,威远县,29.525655,104.667451,1,3,南大街商圈
147,511025,滨江路,511025,511025,510000,511000,511025,四川省,内江市,资中县,29.776259,104.844858,3,3,滨江路商圈
148,513424,新华街中段,513424,513424,510000,513400,513424,四川省,凉山彝族自治州,德昌县,27.403415999999996,102.180245,1,5,新华街商圈
149,513435,团结南街,513435,513435,510000,513400,513435,四川省,凉山彝族自治州,甘洛县,28.962944,102.771567,2,0,团结南街商圈
150,513401,胜利南路,513401,513401,510000,513400,513401,四川省,凉山彝族自治州,西昌市,27.89486758974361,102.2501951794872,12,27,胜利南路商圈
151,511302,人民中路,511302,511302,510000,511300,511302,四川省,南充市,顺庆区,30.79340699999995,106.08943799999999,18,50,人民中路商圈
152,511902,后河,511902,511902,510000,511900,511902,四川省,巴中市,巴州区,31.851057162162164,106.77072621621629,14,23,后河商圈
153,510823,翠云大道,510823,510823,510000,510800,510823,四川省,广元市,剑阁县,32.283433,105.52014700000001,2,2,翠云大道商圈
154,511602,金安大道,511602,511602,510000,511600,511602,四川省,广安市,广安区,30.458982360000007,106.63824971999999,5,20,金安大道商圈
155,511622,建设南路,511622,511622,510000,511600,511622,四川省,广安市,武胜县,30.345822,106.29123200000002,2,10,建设南路商圈
156,511623,古邻大道,511623,511623,510000,511600,511623,四川省,广安市,邻水县,30.330966266666675,106.93587433333332,3,12,古邻大道商圈
157,510682,方亭,510682,510682,510000,510600,510682,四川省,德阳市,什邡市,31.12687,104.171474,7,8,方亭商圈
158,510603,扬嘉,510603,510603,510000,510600,510603,四川省,德阳市,旌阳区,31.180034,104.322956,1,0,扬嘉商圈
159,510116,东升,510116,510116,510000,510100,510116,四川省,成都市,双流区,30.55935930147062,104.00060688235295,11,125,东升商圈
160,510129,晋原,510129,510129,510000,510100,510129,四川省,成都市,大邑县,30.579607000000006,103.52815200000002,8,5,晋原商圈
161,510184,崇阳,510184,510184,510000,510100,510184,四川省,成都市,崇州市,30.635294000000012,103.674982,10,19,崇阳商圈
162,510108,驷马桥,510108,510108,510000,510100,510108,四川省,成都市,成华区,30.67684790822795,104.1110632626579,27,289,驷马桥商圈
163,510112,洪河,510112,510108,510000,510100,510108,四川省,成都市,成华区,30.578409714285723,104.23466728571434,11,45,洪河商圈
164,510132,五津街道,510132,510118,510000,510100,510118,四川省,成都市,新津区,30.417695,103.80976799999999,2,8,五津街道商圈
165,510114,新繁,510114,510114,510000,510100,510114,四川省,成都市,新都区,30.838353913043484,104.0467480869565,8,15,新繁商圈
166,510107,跳伞塔,510107,510107,510000,510100,510107,四川省,成都市,武侯区,30.623471333333278,104.07240766666641,20,124,跳伞塔商圈
167,510115,凤溪大道,510115,510115,510000,510100,510115,四川省,成都市,温江区,30.692713875000038,103.84909712499997,14,74,凤溪大道商圈
168,510131,鹤山,510131,510131,510000,510100,510131,四川省,成都市,蒲江县,30.202679999999994,103.51326713333331,6,9,鹤山商圈
169,510183,牟礼村,510183,510183,510000,510100,510183,四川省,成都市,邛崃市,30.407591000000004,103.47670950000003,5,11,牟礼村商圈
170,510117,红光,510117,510117,510000,510100,510117,四川省,成都市,郫都区,30.783531208333283,103.93490004166671,12,84,红光商圈
171,510181,江安路,510181,510181,510000,510100,510181,四川省,成都市,都江堰市,30.97686878571431,103.62957349999992,10,18,江安路商圈
172,510106,金泉,510106,510106,510000,510100,510106,四川省,成都市,金牛区,30.712217999999993,103.99715100000002,3,34,金泉商圈
173,510104,成龙路,510104,510104,510000,510100,510104,四川省,成都市,锦江区,30.59136899999999,104.144289,3,21,成龙路商圈
174,510402,新华,510402,510402,510000,510400,510402,四川省,攀枝花市,东区,26.571269909090905,101.71857209090909,24,20,新华商圈
175,510421,桥东街,510421,510421,510000,510400,510421,四川省,攀枝花市,米易县,26.885007,102.10948399999998,2,5,桥东街商圈
176,510403,河门口,510403,510403,510000,510400,510403,四川省,攀枝花市,西区,26.593287,101.594962,1,0,河门口商圈
177,510502,泸州天远片区,510502,510502,510000,510500,510502,四川省,泸州市,江阳区,28.887762835443045,105.43495649367091,29,50,泸州天远片区商圈
178,513301,沿河东路,513301,513301,510000,513300,513301,四川省,甘孜藏族自治州,康定市,30.049202000000005,101.96412699999999,6,1,沿河东路商圈
179,513337,贡嘎路一段,513337,513337,510000,513300,513337,四川省,甘孜藏族自治州,稻城县,29.038258,100.29797,2,0,贡嘎路一段商圈
180,511402,下西街,511402,511402,510000,511400,511402,四川省,眉山市,东坡区,30.046395542857155,103.83229020000006,7,28,下西街商圈
181,510703,步行街,510703,510703,510000,510700,510703,四川省,绵阳市,涪城区,31.460895161764682,104.75200976470595,16,52,步行街商圈
182,510302,马吃水,510302,510304,510000,510300,510304,四川省,自贡市,大安区,29.330674899999998,104.74836819999999,14,26,马吃水商圈
183,510321,望景路,510321,510321,510000,510300,510321,四川省,自贡市,荣县,29.451494,104.41198499999999,1,6,望景路商圈
184,512002,娇子大道,512002,512002,510000,512000,512002,四川省,资阳市,雁江区,30.125749999999993,104.61747399999996,4,12,娇子大道商圈
185,511781,金缔路,511781,511781,510000,511700,511781,四川省,达州市,万源市,32.06831499999999,108.03830300000001,1,7,金缔路商圈
186,511724,东大街,511724,511724,510000,511700,511724,四川省,达州市,大竹县,30.73360400000001,107.210777,8,6,东大街商圈
187,511702,朝阳西路,511702,511702,510000,511700,511702,四川省,达州市,通川区,31.20281,107.46208500000002,5,9,朝阳西路商圈
188,510923,交通上街,510923,510923,510000,510900,510923,四川省,遂宁市,大英县,30.582575,105.25018,5,6,交通上街商圈
189,510981,伯玉路,510981,510981,510000,510900,510981,四川省,遂宁市,射洪市,30.870377000000005,105.38546199999998,6,12,伯玉路商圈
190,510921,东街,510921,510921,510000,510900,510921,四川省,遂宁市,蓬溪县,30.774667999999995,105.71788300000001,5,1,东街商圈
191,513223,中心大道,513223,513223,510000,513200,513223,四川省,阿坝藏族羌族自治州,茂县,31.680803,103.851687,1,0,中心大道商圈
192,511802,东大街,511802,511802,510000,511800,511802,四川省,雅安市,雨城区,29.984788,103.00143699999998,2,8,东大街商圈
193,120113,双口,120113,120113,120000,120100,120113,天津市,天津城区,北辰区,39.241451777777776,117.1983457777778,4,14,双口商圈
194,120104,华苑,120104,120104,120000,120100,120104,天津市,天津城区,南开区,39.11461476363639,117.12605832727283,10,45,华苑商圈
195,120117,芦台镇,120117,120117,120000,120100,120117,天津市,天津城区,宁河区,39.330936999999984,117.82161999999998,9,11,芦台镇商圈
196,120115,城关,120115,120115,120000,120100,120115,天津市,天津城区,宝坻区,39.718571,117.307726,1,7,城关商圈
197,120114,运河西,120114,120114,120000,120100,120114,天津市,天津城区,武清区,39.40657468000002,117.01562668000003,10,15,运河西商圈
198,120102,太阳城,120102,120102,120000,120100,120102,天津市,天津城区,河东区,39.151616999999995,117.28016499999998,3,8,太阳城商圈
199,120111,梅江,120111,120103,120000,120100,120103,天津市,天津城区,河西区,39.088118516666654,117.13793266666677,11,49,梅江商圈
200,120112,葛沽,120112,120112,120000,120100,120112,天津市,天津城区,津南区,38.98646,117.49529699999997,1,6,葛沽商圈
201,120116,解放路街,120116,120116,120000,120100,120116,天津市,天津城区,滨海新区,39.01616313333333,117.67324673333333,3,12,解放路街商圈
202,120119,上仓,120119,120119,120000,120100,120119,天津市,天津城区,蓟州区,39.954795222222224,117.4376788888889,2,7,上仓商圈
203,120118,西翟庄,120118,120118,120000,120100,120118,天津市,天津城区,静海区,38.81838585714286,117.00643257142858,1,6,西翟庄商圈
204,640303,金水街,640303,640303,640000,640300,640303,宁夏回族自治区,吴忠市,红寺堡区,37.42469599999999,106.06606899999998,4,3,金水街商圈
205,640381,利民西街,640381,640381,640000,640300,640381,宁夏回族自治区,吴忠市,青铜峡市,38.01537957142857,106.08330414285714,5,2,利民西街商圈
206,640425,兴彭大街,640425,640425,640000,640400,640425,宁夏回族自治区,固原市,彭阳县,35.849926,106.634765,6,2,兴彭大街商圈
207,640424,荣盛路,640424,640424,640000,640400,640424,宁夏回族自治区,固原市,泾源县,35.492312,106.34126,2,0,荣盛路商圈
208,640422,广场,640422,640422,640000,640400,640422,宁夏回族自治区,固原市,西吉县,35.966951,105.73133499999997,3,5,广场商圈
209,640423,六盘山,640423,640423,640000,640400,640423,宁夏回族自治区,固原市,隆德县,35.61865699999999,106.121506,6,0,六盘山商圈
210,640221,鼓楼北街,640221,640221,640000,640200,640221,宁夏回族自治区,石嘴山市,平罗县,38.90824099999999,106.54601199999999,9,12,鼓楼北街商圈
211,640121,李俊镇,640121,640121,640000,640100,640121,宁夏回族自治区,银川市,永宁县,38.338254500000005,106.2573358,6,14,李俊镇商圈
212,640105,同心路,640105,640105,640000,640100,640105,宁夏回族自治区,银川市,西夏区,38.490035,106.123551,1,3,同心路商圈
213,341623,人民中路,341623,341623,340000,341600,341623,安徽省,亳州市,利辛县,33.144071,116.20710699999997,10,6,人民中路商圈
214,341621,胜利西路,341621,341621,340000,341600,341621,安徽省,亳州市,涡阳县,33.508220000000016,116.200404,11,10,胜利西路商圈
215,341622,嵇康北路,341622,341622,340000,341600,341622,安徽省,亳州市,蒙城县,33.25927000000001,116.56041999999995,10,14,嵇康北路商圈
216,340111,屯溪路,340111,340111,340000,340100,340111,安徽省,合肥市,包河区,31.839250732673214,117.29100298514889,26,176,屯溪路商圈
217,340103,四里河路,340103,340103,340000,340100,340103,安徽省,合肥市,庐阳区,31.88954600000001,117.24016299999998,6,31,四里河路商圈
218,340102,临泉东路,340102,340102,340000,340100,340102,安徽省,合肥市,瑶海区,31.874066437500062,117.358224625,13,83,临泉东路商圈
219,340122,店埠,340122,340122,340000,340100,340122,安徽省,合肥市,肥东县,31.882909000000016,117.46717200000009,2,29,店埠商圈
220,340104,桃花,340104,340104,340000,340100,340104,安徽省,合肥市,蜀山区,31.809051775510188,117.21127238775506,6,43,桃花商圈
221,340121,水湖镇,340121,340121,340000,340100,340121,安徽省,合肥市,长丰县,32.47469999999999,117.16463499999999,2,4,水湖镇商圈
222,340803,集贤南路,340803,340803,340000,340800,340803,安徽省,安庆市,大观区,30.534224000000002,117.043961,11,29,集贤南路商圈
223,340881,龙眠,340881,340881,340000,340800,340881,安徽省,安庆市,桐城市,31.048296,116.96495499999997,9,9,龙眠商圈
224,341881,西津,341881,341881,340000,341800,341881,安徽省,宣城市,宁国市,30.626676999999987,118.98137399999997,7,10,西津商圈
225,341302,淮海中路,341302,341302,340000,341300,341302,安徽省,宿州市,埇桥区,33.64027800000002,116.98058200000006,11,35,淮海中路商圈
226,341321,西关,341321,341321,340000,341300,341321,安徽省,宿州市,砀山县,34.424288999999995,116.33737799999996,4,9,西关商圈
227,341322,中山北路,341322,341322,340000,341300,341322,安徽省,宿州市,萧县,34.185403,116.94666699999998,5,11,中山北路商圈
228,340403,学院南路,340403,340403,340000,340400,340403,安徽省,淮南市,田家庵区,32.63789410869561,117.01192271739127,16,30,学院南路商圈
229,340202,芜湖,340202,340202,340000,340200,340202,安徽省,芜湖市,镜湖区,31.336396115384577,118.38744492307696,26,52,芜湖商圈
230,340304,张公山公园-张公山,340304,340304,340000,340300,340304,安徽省,蚌埠市,禹会区,32.924229999999994,117.33985699999995,8,15,张公山公园-张公山商圈
231,340705,石城大道中段,340705,340705,340000,340700,340705,安徽省,铜陵市,铜官区,30.94302233333335,117.82858399999996,7,11,石城大道中段商圈
232,341022,齐云山,341022,341022,340000,341000,341022,安徽省,黄山市,休宁县,29.789770999999995,118.186118,2,3,齐云山商圈
233,341002,屯光大道,341002,341002,340000,341000,341002,安徽省,黄山市,屯溪区,29.724549999999997,118.342537,2,4,屯光大道商圈
234,370502,北一路,370502,370502,370000,370500,370502,山东省,东营市,东营区,37.45406042105265,118.49836857894735,5,33,北一路商圈
235,371302,北城新区,371302,371302,370000,371300,371302,山东省,临沂市,兰山区,35.07981225490201,118.34535245098037,17,85,北城新区商圈
236,371311,龙潭公园,371311,371311,370000,371300,371311,山东省,临沂市,罗庄区,34.977771000000004,118.28494499999996,7,3,龙潭公园商圈
237,371083,海阳所村,371083,371083,370000,371000,371083,山东省,威海市,乳山市,36.811288,121.617926,1,0,海阳所村商圈
238,371082,崖头,371082,371082,370000,371000,371082,山东省,威海市,荣成市,37.02685873684211,122.42411431578948,8,11,崖头商圈
239,371424,邢侗,371424,371424,370000,371400,371424,山东省,德州市,临邑县,37.19627394736841,116.85982252631577,7,12,邢侗商圈
240,371402,东风东路,371402,371402,370000,371400,371402,山东省,德州市,德城区,37.43172723076924,116.35802430769232,1,12,东风东路商圈
241,371428,广运,371428,371428,370000,371400,371428,山东省,德州市,武城县,37.210896,116.07868600000005,6,7,广运商圈
242,371403,临齐,371403,371403,370000,371400,371403,山东省,德州市,陵城区,37.333137,116.580999,1,7,临齐商圈
243,371425,晏城,371425,371425,370000,371400,371425,山东省,德州市,齐河县,36.79294700000001,116.76168699999998,5,14,晏城商圈
244,371102,日照,371102,371102,370000,371100,371102,山东省,日照市,东港区,35.420741702702664,119.49195572972968,19,55,日照商圈
245,371103,观海路,371103,371103,370000,371100,371103,山东省,日照市,岚山区,35.110471,119.31710000000001,4,5,观海路商圈
246,370402,解放路,370402,370402,370000,370400,370402,山东省,枣庄市,市中区,34.862234062500015,117.57090056249997,8,24,解放路商圈
247,370481,益康大道,370481,370481,370000,370400,370481,山东省,枣庄市,滕州市,35.07944717021276,117.15434202127673,11,36,益康大道商圈
248,370923,东平,370923,370923,370000,370900,370923,山东省,泰安市,东平县,35.92427466666666,116.40741200000001,3,0,东平商圈
249,370982,新汶,370982,370982,370000,370900,370982,山东省,泰安市,新泰市,35.870569999999994,117.686467,3,3,新汶商圈
250,370902,岱庙,370902,370902,370000,370900,370902,山东省,泰安市,泰山区,36.188359,117.13960499999995,7,23,岱庙商圈
251,370102,泺源,370102,370102,370000,370100,370102,山东省,济南市,历下区,36.658614999999976,117.02372699999982,6,73,泺源商圈
252,370112,仲宫,370112,370112,370000,370100,370112,山东省,济南市,历城区,36.500499999999995,117.02010300000003,2,5,仲宫商圈
253,370126,许商,370126,370126,370000,370100,370126,山东省,济南市,商河县,37.310857,117.158862,3,9,许商商圈
254,370105,宝华街,370105,370105,370000,370100,370105,山东省,济南市,天桥区,36.67087938461542,116.98240208974374,20,58,宝华街商圈
255,370103,二环南路,370103,370103,370000,370100,370103,山东省,济南市,市中区,36.60427530769229,116.99079446153844,6,20,二环南路商圈
256,370115,济北,370115,370115,370000,370100,370115,山东省,济南市,济阳区,36.97425799999999,117.17406799999998,8,13,济北商圈
257,370114,双山,370114,370114,370000,370100,370114,山东省,济南市,章丘区,36.68853600000001,117.529129,15,18,双山商圈
258,370116,凤城西大街,370116,370116,370000,370100,370116,山东省,济南市,莱芜区,36.203725,117.659583,4,3,凤城西大街商圈
259,370113,文昌,370113,370113,370000,370100,370113,山东省,济南市,长清区,36.550803999999985,116.75114400000002,8,6,文昌商圈
260,370811,太白楼,370811,370811,370000,370800,370811,山东省,济宁市,任城区,35.41253564285717,116.59722525,12,72,太白楼商圈
261,370303,商场西街,370303,370303,370000,370300,370303,山东省,淄博市,张店区,36.804732999999956,118.03747800000014,9,54,商场西街商圈
262,370321,张北路,370321,370321,370000,370300,370321,山东省,淄博市,桓台县,36.956654,118.10502100000002,6,11,张北路商圈
263,370302,般阳路,370302,370302,370000,370300,370302,山东省,淄博市,淄川区,36.641806999999986,117.97049199999996,7,13,般阳路商圈
264,371625,胜利三路,371625,371625,370000,371600,371625,山东省,滨州市,博兴县,37.144797999999994,118.13690999999996,4,8,胜利三路商圈
265,371621,南门大街,371621,371621,370000,371600,371621,山东省,滨州市,惠民县,37.483455,117.510214,2,6,南门大街商圈
266,371623,城东大街,371623,371623,370000,371600,371623,山东省,滨州市,无棣县,37.741678,117.61329299999998,5,4,城东大街商圈
267,371603,富城路,371603,371603,370000,371600,371603,山东省,滨州市,沾化区,37.697981,118.129922,1,3,富城路商圈
268,371602,三河湖,371602,371602,370000,371600,371602,山东省,滨州市,滨城区,37.39921264705883,118.0154523529412,3,14,三河湖商圈
269,371681,黄山三路,371681,371681,370000,371600,371681,山东省,滨州市,邹平市,36.88464299999999,117.74674199999995,15,11,黄山三路商圈
270,370781,王府,370781,370781,370000,370700,370781,山东省,潍坊市,青州市,36.688533812500026,118.47892940625007,7,25,王府商圈
271,370785,高密市密水,370785,370785,370000,370700,370785,山东省,潍坊市,高密市,36.375375000000005,119.756169,6,11,高密市密水商圈
272,370685,梦芝,370685,370685,370000,370600,370685,山东省,烟台市,招远市,37.383612,120.400027,1,0,梦芝商圈
273,370687,凤城,370687,370687,370000,370600,370687,山东省,烟台市,海阳市,36.700412,121.232621,3,2,凤城商圈
274,370611,衡山路,370611,370611,370000,370600,370611,山东省,烟台市,福山区,37.54789249999997,121.25712216666668,12,24,衡山路商圈
275,370602,只楚,370602,370602,370000,370600,370602,山东省,烟台市,芝罘区,37.54140695833332,121.34688999999996,6,18,只楚商圈
276,370613,观海路,370613,370613,370000,370600,370613,山东省,烟台市,莱山区,37.47018299999998,121.45490400000008,14,26,观海路商圈
277,370681,东莱,370681,370681,370000,370600,370681,山东省,烟台市,龙口市,37.646207,120.52125299999992,12,18,东莱商圈
278,371581,新华路,371581,371581,370000,371500,371581,山东省,聊城市,临清市,36.840557999999994,115.70858,6,10,新华路商圈
279,371522,燕塔,371522,371522,370000,371500,371522,山东省,聊城市,莘县,36.237261999999994,115.66536199999999,4,6,燕塔商圈
280,371721,曹城,371721,371721,370000,371700,371721,山东省,菏泽市,曹县,34.820616999999984,115.54258499999999,4,9,曹城商圈
281,371702,和平路,371702,371702,370000,371700,371702,山东省,菏泽市,牡丹区,35.2249511111111,115.48602100000005,6,21,和平路商圈
282,371725,唐塔,371725,371725,370000,371700,371725,山东省,菏泽市,郓城县,35.602573,115.94304000000007,7,17,唐塔商圈
283,370215,即墨,370215,370215,370000,370200,370215,山东省,青岛市,即墨区,36.384898604166644,120.44733883333328,13,35,即墨商圈
284,370214,正阳路,370214,370214,370000,370200,370214,山东省,青岛市,城阳区,36.296383300000024,120.39961269999996,17,53,正阳路商圈
285,370212,香港东路,370212,370212,370000,370200,370212,山东省,青岛市,崂山区,36.088184166666636,120.4490229166667,8,40,香港东路商圈
286,370203,即墨路,370203,370203,370000,370200,370203,山东省,青岛市,市北区,36.081523539682536,120.34946552380951,12,51,即墨路商圈
287,370202,湛山,370202,370203,370000,370200,370203,山东省,青岛市,市北区,36.061836,120.36821700000012,16,53,湛山商圈
288,370283,李园,370283,370283,370000,370200,370283,山东省,青岛市,平度市,36.78390921428571,119.94454614285705,9,19,李园商圈
289,370213,李村,370213,370213,370000,370200,370213,山东省,青岛市,李沧区,36.16121700000001,120.42785599999993,1,36,李村商圈
290,370281,中云,370281,370281,370000,370200,370281,山东省,青岛市,胶州市,36.28058813636364,120.00038668181818,11,11,中云商圈
291,370285,水集,370285,370285,370000,370200,370285,山东省,青岛市,莱西市,36.86489737037038,120.52069751851857,12,15,水集商圈
292,370211,灵山路,370211,370211,370000,370200,370211,山东省,青岛市,黄岛区,35.909585285714286,120.0559976666667,2,19,灵山路商圈
293,141002,滨河路,141002,141002,140000,141000,141002,山西省,临汾市,尧都区,36.061914,111.48973099999999,6,5,滨河路商圈
294,141021,晋都北路,141021,141021,140000,141000,141021,山西省,临汾市,曲沃县,35.645076,111.474605,1,4,晋都北路商圈
295,141129,凤城南街,141129,141129,140000,141100,141129,山西省,吕梁市,中阳县,37.34141499999999,111.194272,4,2,凤城南街商圈
296,141121,西大街,141121,141121,140000,141100,141121,山西省,吕梁市,文水县,37.436839,112.02919599999997,4,11,西大街商圈
297,141125,贺昌大街,141125,141125,140000,141100,141125,山西省,吕梁市,柳林县,37.43256300000001,110.89454,5,7,贺昌大街商圈
298,140213,雁同东路,140213,140213,140000,140200,140213,山西省,大同市,平城区,40.0869780909091,113.3061616363636,12,43,雁同东路商圈
299,140109,长风桥西,140109,140109,140000,140100,140109,山西省,太原市,万柏林区,37.830381285714225,112.5183475132276,28,161,长风桥西商圈
300,140108,兴华街,140108,140109,140000,140100,140109,山西省,太原市,万柏林区,37.90925012389384,112.55139250442502,22,91,兴华街商圈
301,140105,北营,140105,140105,140000,140100,140105,山西省,太原市,小店区,37.76738889075628,112.59049094117653,6,113,北营商圈
302,140106,五龙口,140106,140107,140000,140100,140107,山西省,太原市,杏花岭区,37.864449000000015,112.58840599999994,8,67,五龙口商圈
303,140928,新建南路,140928,140928,140000,140900,140928,山西省,忻州市,五寨县,38.91089900000001,111.84305199999997,4,3,新建南路商圈
304,140923,东大街,140923,140923,140000,140900,140923,山西省,忻州市,代县,39.068277,112.96272799999998,4,5,东大街商圈
305,140931,府前大街,140931,140931,140000,140900,140931,山西省,忻州市,保德县,39.026478,111.09655699999999,3,4,府前大街商圈
306,140932,中大街,140932,140932,140000,140900,140932,山西省,忻州市,偏关县,39.439482,111.498421,1,1,中大街商圈
307,140981,前进西街,140981,140981,140000,140900,140981,山西省,忻州市,原平市,38.73196800000002,112.703447,12,14,前进西街商圈
308,140929,北大街,140929,140929,140000,140900,140929,山西省,忻州市,岢岚县,38.704597,111.57198100000001,3,2,北大街商圈
309,140902,长征西街,140902,140902,140000,140900,140902,山西省,忻州市,忻府区,38.42698512727274,112.72519883636372,21,34,长征西街商圈
310,140927,南关东街,140927,140927,140000,140900,140927,山西省,忻州市,神池县,39.086735,112.203203,1,3,南关东街商圈
311,140926,汾河大街,140926,140926,140000,140900,140926,山西省,忻州市,静乐县,38.354596,111.943853,2,1,汾河大街商圈
312,140781,新建西路,140781,140781,140000,140700,140781,山西省,晋中市,介休市,37.023928599999984,111.91696052000003,6,19,新建西路商圈
313,140728,顺城路,140728,140728,140000,140700,140728,山西省,晋中市,平遥县,37.197139,112.17166799999997,6,5,顺城路商圈
314,140702,定阳路,140702,140702,140000,140700,140702,山西省,晋中市,榆次区,37.694782801652885,112.74049733057825,15,106,定阳路商圈
315,140721,迎春北路,140721,140721,140000,140700,140721,山西省,晋中市,榆社县,37.073482,112.971807,2,2,迎春北路商圈
316,140727,新建南路,140727,140727,140000,140700,140727,山西省,晋中市,祁县,37.350883,112.33150100000002,4,9,新建南路商圈
317,140502,步行街,140502,140502,140000,140500,140502,山西省,晋城市,城区,35.49775799999998,112.84418800000002,18,53,步行街商圈
318,140623,迎宾北路,140623,140623,140000,140600,140623,山西省,朔州市,右玉县,39.992478,112.46477699999998,2,1,迎宾北路商圈
319,140621,青年西路,140621,140621,140000,140600,140621,山西省,朔州市,山阴县,39.522733,112.813436,5,0,青年西路商圈
320,140681,云州西街,140681,140681,140000,140600,140681,山西省,朔州市,怀仁市,39.82793800000001,113.09954200000001,5,6,云州西街商圈
321,140602,鄯阳东街,140602,140602,140000,140600,140602,山西省,朔州市,朔城区,39.31887106249999,112.42918681249996,19,29,鄯阳东街商圈
322,140882,振兴东路,140882,140882,140000,140800,140882,山西省,运城市,河津市,35.59041200000001,110.71450000000003,14,16,振兴东路商圈
323,140802,解放路,140802,140802,140000,140800,140802,山西省,运城市,盐湖区,35.039935624999984,111.01230474999996,8,32,解放路商圈
324,140403,东大街,140403,140403,140000,140400,140403,山西省,长治市,潞州区,36.178175237288144,113.12631577966114,16,43,东大街商圈
325,140302,下站,140302,140302,140000,140300,140302,山西省,阳泉市,城区,37.86060100000003,113.59025199999998,22,34,下站商圈
326,140321,平阳路,140321,140321,140000,140300,140321,山西省,阳泉市,平定县,37.79860800000002,113.63332399999994,8,16,平阳路商圈
327,140322,秀水西街,140322,140322,140000,140300,140322,山西省,阳泉市,盂县,38.08741199999998,113.40007399999999,11,11,秀水西街商圈
328,441900,松山湖,441900,441900,440000,441900,441900,广东省,东莞市,黄江镇,22.99869936224491,113.8084009489797,12,184,松山湖商圈
329,442000,京华,442000,442000,440000,442000,442000,广东省,中山市,横栏镇,22.54169764150943,113.37379607547179,5,48,京华商圈
330,445302,兴云中路,445302,445302,440000,445300,445302,广东省,云浮市,云城区,22.931129666666667,112.04536855555553,7,11,兴云中路商圈
331,445322,工业大道,445322,445322,440000,445300,445322,广东省,云浮市,郁南县,23.239527,111.534805,2,4,工业大道商圈
332,440607,西南,440607,440607,440000,440600,440607,广东省,佛山市,三水区,23.164623666666674,112.88512061111118,15,21,西南商圈
333,440605,桂城,440605,440605,440000,440600,440605,广东省,佛山市,南海区,23.055185127659527,113.13468263829778,15,173,桂城商圈
334,440604,华远东路,440604,440604,440000,440600,440604,广东省,佛山市,禅城区,23.01499187341773,113.11655287341767,11,68,华远东路商圈
335,440606,北滘,440606,440606,440000,440600,440606,广东省,佛山市,顺德区,22.85597269892474,113.20984805376342,13,80,北滘商圈
336,440608,荷城,440608,440608,440000,440600,440608,广东省,佛山市,高明区,22.890879124999998,112.86785556249998,8,8,荷城商圈
337,440117,江埔,440117,440117,440000,440100,440117,广东省,广州市,从化区,23.52726428571429,113.59616835714283,10,18,江埔商圈
338,440115,南沙新区,440115,440115,440000,440100,440115,广东省,广州市,南沙区,22.822851936507924,113.4727554285714,21,42,南沙新区商圈
339,440118,中新,440118,440118,440000,440100,440118,广东省,广州市,增城区,23.169300947368423,113.6527859736843,18,58,中新商圈
340,440106,冼村,440106,440106,440000,440100,440106,广东省,广州市,天河区,23.13442180645158,113.34239211559121,43,329,冼村商圈
341,440105,江南大道,440105,440105,440000,440100,440105,广东省,广州市,海珠区,23.08724666071427,113.28432182142853,26,86,江南大道商圈
342,440113,大石,440113,440113,440000,440100,440113,广东省,广州市,番禺区,22.959566752136748,113.36212055555562,12,105,大石商圈
343,440111,嘉禾,440111,440111,440000,440100,440111,广东省,广州市,白云区,23.251523476562525,113.28169333593766,6,122,嘉禾商圈
344,440114,北兴,440114,440114,440000,440100,440114,广东省,广州市,花都区,23.432453735632162,113.23059286206906,12,75,北兴商圈
345,440112,大沙,440112,440112,440000,440100,440112,广东省,广州市,黄埔区,23.105691090909087,113.45802399999998,3,19,大沙商圈
346,441322,石湾,441322,441322,440000,441300,441322,广东省,惠州市,博罗县,23.147362818181815,114.05920254545454,3,8,石湾商圈
347,441323,平山,441323,441323,440000,441300,441323,广东省,惠州市,惠东县,22.977014999999998,114.72338299999998,7,11,平山商圈
348,441302,惠环,441302,441302,440000,441300,441302,广东省,惠州市,惠城区,23.067672688524603,114.41255159016399,8,53,惠环商圈
349,441303,白云二路,441303,441303,440000,441300,441303,广东省,惠州市,惠阳区,22.782057549999994,114.46233475000004,9,11,白云二路商圈
350,441324,龙城,441324,441324,440000,441300,441324,广东省,惠州市,龙门县,23.727050000000002,114.261273,1,2,龙城商圈
351,445224,南门大街,445224,445224,440000,445200,445224,广东省,揭阳市,惠来县,23.028054,116.29527,3,3,南门大街商圈
352,445203,乔林,445203,445203,440000,445200,445203,广东省,揭阳市,揭东区,23.558101000000008,116.33356199999999,6,13,乔林商圈
353,445281,广达,445281,445281,440000,445200,445281,广东省,揭阳市,普宁市,23.304601999999996,116.15172399999999,5,18,广达商圈
354,441403,宪梓大道,441403,441403,440000,441400,441403,广东省,梅州市,梅县区,24.28055486206897,116.0959698620689,8,21,宪梓大道商圈
355,441402,彬芳大道南,441402,441402,440000,441400,441402,广东省,梅州市,梅江区,24.280577999999995,116.13074300000005,14,18,彬芳大道南商圈
356,440513,文光,440513,440513,440000,440500,440513,广东省,汕头市,潮阳区,23.25908323809523,116.59702514285713,12,9,文光商圈
357,440511,东墩,440511,440511,440000,440500,440511,广东省,汕头市,金平区,23.377043298507445,116.69829023880591,20,47,东墩商圈
358,440507,珠江路,440507,440507,440000,440500,440507,广东省,汕头市,龙湖区,23.376842000000007,116.74103299999997,4,16,珠江路商圈
359,441502,捷胜,441502,441502,440000,441500,441502,广东省,汕尾市,城区,22.77461176923077,115.37307407692309,3,10,捷胜商圈
360,441521,公平镇,441521,441521,440000,441500,441521,广东省,汕尾市,海丰县,22.945142000000004,115.26923499999998,6,4,公平镇商圈
361,441581,东海,441581,441581,440000,441500,441581,广东省,汕尾市,陆丰市,22.930505727272728,115.66006727272726,5,6,东海商圈
362,440783,长沙,440783,440783,440000,440700,440783,广东省,江门市,开平市,22.374343000000007,112.68720499999996,12,4,长沙商圈
363,440705,侨兴,440705,440705,440000,440700,440705,广东省,江门市,新会区,22.522764999999996,113.05208600000002,2,5,侨兴商圈
364,440704,中环,440704,440704,440000,440700,440704,广东省,江门市,江海区,22.567386,113.10261199999998,8,12,中环商圈
365,440703,荷塘,440703,440703,440000,440700,440703,广东省,江门市,蓬江区,22.649755,113.13551200000003,4,4,荷塘商圈
366,440784,新天地,440784,440784,440000,440700,440784,广东省,江门市,鹤山市,22.76351,112.96049400000001,6,3,新天地商圈
367,440311,公明,440311,440311,440000,440300,440311,广东省,深圳市,光明区,22.77616154716983,113.89861241509439,15,38,公明商圈
368,440305,后海,440305,440305,440000,440300,440305,广东省,深圳市,南山区,22.524018418181807,113.94794378181817,12,153,后海商圈
369,440310,坪山,440310,440310,440000,440300,440310,广东省,深圳市,坪山区,22.689812000000003,114.34818300000003,7,14,坪山商圈
370,440306,新安,440306,440306,440000,440300,440306,广东省,深圳市,宝安区,22.67899077433626,113.84706786725633,11,215,新安商圈
371,440308,沙头角,440308,440308,440000,440300,440308,广东省,深圳市,盐田区,22.555985000000007,114.23453,7,15,沙头角商圈
372,440304,车公庙,440304,440304,440000,440300,440304,广东省,深圳市,福田区,22.535851787878705,114.06978115151524,37,260,车公庙商圈
373,440303,翠竹,440303,440303,440000,440300,440303,广东省,深圳市,罗湖区,22.56990138135595,114.13792416949165,9,109,翠竹商圈
374,440309,万众城,440309,440309,440000,440300,440309,广东省,深圳市,龙华区,22.628625374268953,114.03896380116939,16,155,万众城商圈
375,440307,坪地,440307,440307,440000,440300,440307,广东省,深圳市,龙岗区,22.686638722772262,114.19669860396034,3,98,坪地商圈
376,441821,振兴中路,441821,441821,440000,441800,441821,广东省,清远市,佛冈县,23.86382,113.533233,7,1,振兴中路商圈
377,441802,曙光路,441802,441802,440000,441800,441802,广东省,清远市,清城区,23.702177294117647,113.03912984313716,17,34,曙光路商圈
378,441803,黄坑,441803,441803,440000,441800,441803,广东省,清远市,清新区,23.733322,113.01042400000003,4,5,黄坑商圈
379,441882,东门中路,441882,441882,440000,441800,441882,广东省,清远市,连州市,24.783789000000006,112.37934500000004,8,7,东门中路商圈
380,441823,城北,441823,441823,440000,441800,441823,广东省,清远市,阳山县,24.477031,112.643812,1,3,城北商圈
381,440883,解放路,440883,440883,440000,440800,440883,广东省,湛江市,吴川市,21.43252,110.777464,1,5,解放路商圈
382,440881,五一路,440881,440881,440000,440800,440881,广东省,湛江市,廉江市,21.607106999999992,110.287108,5,10,五一路商圈
383,440825,徐城,440825,440825,440000,440800,440825,广东省,湛江市,徐闻县,20.326596,110.174618,8,6,徐城商圈
384,440882,西湖大道,440882,440882,440000,440800,440882,广东省,湛江市,雷州市,20.918205,110.079587,1,0,西湖大道商圈
385,440803,广百广场,440803,440803,440000,440800,440803,广东省,湛江市,霞山区,21.195327000000013,110.40547299999992,18,21,广百广场商圈
386,440404,三灶,440404,440404,440000,440400,440404,广东省,珠海市,金湾区,22.046059000000003,113.35813899999997,5,5,三灶商圈
387,440402,海滨,440402,440402,440000,440400,440402,广东省,珠海市,香洲区,22.237465521367543,113.54276950427345,20,97,海滨商圈
388,441284,龙凤,441284,441284,440000,441200,441284,广东省,肇庆市,四会市,23.344936000000004,112.69696100000004,6,9,龙凤商圈
389,441226,德城,441226,441226,440000,441200,441226,广东省,肇庆市,德庆县,23.14197,111.781109,3,6,德城商圈
390,441202,城西,441202,441202,440000,441200,441202,广东省,肇庆市,端州区,23.055000000000007,112.46481733333337,22,29,城西商圈
391,440982,河西,440982,440982,440000,440900,440982,广东省,茂名市,化州市,21.656300999999992,110.63054800000003,6,9,河西商圈
392,440904,海滨,440904,440904,440000,440900,440904,广东省,茂名市,电白区,21.515373000000004,111.02227000000002,4,6,海滨商圈
393,440902,高凉中路,440902,440902,440000,440900,440902,广东省,茂名市,茂南区,21.65998694339623,110.93133879245279,18,35,高凉中路商圈
394,440981,东方大道,440981,440981,440000,440900,440981,广东省,茂名市,高州市,21.90401100000001,110.86122999999999,5,13,东方大道商圈
395,441702,东风一路,441702,441702,440000,441700,441702,广东省,阳江市,江城区,21.84395438095238,111.9602759047619,11,10,东风一路商圈
396,441704,工业大道,441704,441704,440000,441700,441704,广东省,阳江市,阳东区,21.873469999999998,112.02145316666666,1,5,工业大道商圈
397,441781,东湖,441781,441781,440000,441700,441781,广东省,阳江市,阳春市,22.161216,111.80000099999998,6,5,东湖商圈
398,441721,人民大道,441721,441721,440000,441700,441721,广东省,阳江市,阳西县,21.754160000000006,111.61552200000004,7,6,人民大道商圈
399,440232,鹰峰中路,440232,440232,440000,440200,440232,广东省,韶关市,乳源瑶族自治县,24.775253999999997,113.27779,5,3,鹰峰中路商圈
400,440222,红旗路,440222,440222,440000,440200,440222,广东省,韶关市,始兴县,24.948263,114.067525,2,4,红旗路商圈
401,440233,人民东路,440233,440233,440000,440200,440233,广东省,韶关市,新丰县,24.060671000000003,114.21076700000002,6,5,人民东路商圈
402,440203,新华南路,440203,440203,440000,440200,440203,广东省,韶关市,武江区,24.794079000000007,113.58389200000008,9,20,新华南路商圈
403,440229,建设一路,440229,440229,440000,440200,440229,广东省,韶关市,翁源县,24.356482,114.13218700000002,3,5,建设一路商圈
404,450502,湖南路商圈,450502,450502,450000,450500,450502,广西壮族自治区,北海市,海城区,21.472260719298248,109.12709650877203,22,35,湖南路商圈
405,450102,朝阳,450102,450102,450000,450100,450102,广西壮族自治区,南宁市,兴宁区,22.83645884297522,108.34854335537207,31,90,朝阳商圈
406,450105,沙井,450105,450105,450000,450100,450105,广西壮族自治区,南宁市,江南区,22.78082931249994,108.29663080000019,12,148,沙井商圈
407,450108,银海大道,450108,450108,450000,450100,450108,广西壮族自治区,南宁市,良庆区,22.7105023846154,108.33132615384605,10,29,银海大道商圈
408,450107,高新区,450107,450107,450000,450100,450107,广西壮族自治区,南宁市,西乡塘区,22.856925000000004,108.26861919047622,2,19,高新区商圈
409,450109,蒲庙,450109,450109,450000,450100,450109,广西壮族自治区,南宁市,邕宁区,22.750839000000003,108.494818,1,6,蒲庙商圈
410,450103,民族大道,450103,450103,450000,450100,450103,广西壮族自治区,南宁市,青秀区,22.811236999999974,108.37174200000005,8,53,民族大道商圈
411,451421,松江,451421,451421,450000,451400,451421,广西壮族自治区,崇左市,扶绥县,22.632427500000002,107.9117365,4,2,松江商圈
412,451402,江南,451402,451402,450000,451400,451402,广西壮族自治区,崇左市,江州区,22.402813000000002,107.356677,3,4,江南商圈
413,450202,东环,450202,450202,450000,450200,450202,广西壮族自治区,柳州市,城中区,24.33236011290324,109.43756858064503,14,48,东环商圈
414,450305,南城,450305,450305,450000,450300,450305,广西壮族自治区,桂林市,七星区,25.261453999999986,110.307002,13,21,南城商圈
415,450302,中山中路,450302,450303,450000,450300,450303,广西壮族自治区,桂林市,叠彩区,25.275224999999992,110.29417700000006,11,32,中山中路商圈
416,450304,翠竹路,450304,450302,450000,450300,450302,广西壮族自治区,桂林市,秀峰区,25.259844,110.273958,1,0,翠竹路商圈
417,450422,河西,450422,450422,450000,450400,450422,广西壮族自治区,梧州市,藤县,23.373995142857147,110.92097885714286,11,3,河西商圈
418,450406,苍梧大道,450406,450406,450000,450400,450406,广西壮族自治区,梧州市,龙圩区,23.417417,111.24938399999998,4,7,苍梧大道商圈
419,451221,民行中路,451221,451221,450000,451200,451221,广西壮族自治区,河池市,南丹县,24.983082,107.54726000000002,3,5,民行中路商圈
420,451226,桥东路,451226,451226,450000,451200,451226,广西壮族自治区,河池市,环江毛南族自治县,24.828776,108.25839299999998,2,7,桥东路商圈
421,451202,河池,451202,451202,450000,451200,451202,广西壮族自治区,河池市,金城江区,24.691965999999997,108.06122299999998,6,10,河池商圈
422,450902,江南,450902,450902,450000,450900,450902,广西壮族自治区,玉林市,玉州区,22.613009714285713,110.16698671428568,7,7,江南商圈
423,451028,百色乐业,451028,451028,450000,451000,451028,广西壮族自治区,百色市,乐业县,24.778883,106.560363,1,3,百色乐业商圈
424,451027,河东路,451027,451027,450000,451000,451027,广西壮族自治区,百色市,凌云县,24.344571,106.569594,1,1,河东路商圈
425,451082,平新街,451082,451082,450000,451000,451082,广西壮族自治区,百色市,平果市,23.317949,107.584875,8,7,平新街商圈
426,451024,德盛路,451024,451024,450000,451000,451024,广西壮族自治区,百色市,德保县,23.32174,106.620993,3,1,德盛路商圈
427,451022,东宁,451022,451022,450000,451000,451022,广西壮族自治区,百色市,田东县,23.600889999999996,107.12768700000001,3,6,东宁商圈
428,451031,民权路,451031,451031,450000,451000,451031,广西壮族自治区,百色市,隆林各族自治县,24.770891,105.343639,2,2,民权路商圈
429,451081,城中路,451081,451081,450000,451000,451081,广西壮族自治区,百色市,靖西市,23.136846799999997,106.41715520000001,6,9,城中路商圈
430,450821,朝阳路,450821,450821,450000,450800,450821,广西壮族自治区,贵港市,平南县,23.541726,110.39712299999998,4,9,朝阳路商圈
431,450802,建设路,450802,450802,450000,450800,450802,广西壮族自治区,贵港市,港北区,23.091711418604635,109.59764490697667,14,29,建设路商圈
432,451121,东宁南路,451121,451121,450000,451100,451121,广西壮族自治区,贺州市,昭平县,24.170647,110.811842,3,2,东宁南路商圈
433,451122,广场中路,451122,451122,450000,451100,451122,广西壮族自治区,贺州市,钟山县,24.52692,111.303367,3,3,广场中路商圈
434,450703,永福西大街,450703,450703,450000,450700,450703,广西壮族自治区,钦州市,钦北区,21.977825999999997,108.62604,3,4,永福西大街商圈
435,450702,新兴,450702,450702,450000,450700,450702,广西壮族自治区,钦州市,钦南区,21.913448600000002,108.62024419999997,6,4,新兴商圈
436,450621,朝阳,450621,450621,450000,450600,450621,广西壮族自治区,防城港市,上思县,22.150782000000003,107.98199,2,1,朝阳商圈
437,450681,兴东路,450681,450681,450000,450600,450681,广西壮族自治区,防城港市,东兴市,21.547797,107.972876,1,1,兴东路商圈
438,650102,延安路,650102,650102,650000,650100,650102,新疆维吾尔自治区,乌鲁木齐市,天山区,43.802788527523084,87.62397499082535,40,178,延安路商圈
439,650104,鲤鱼山路,650104,650104,650000,650100,650104,新疆维吾尔自治区,乌鲁木齐市,新市区,43.858766999999986,87.58840999999997,3,51,鲤鱼山路商圈
440,653001,克州,653001,653001,650000,653000,653001,新疆维吾尔自治区,克孜勒苏柯尔克孜自治州,阿图什市,39.71396599999999,76.17679599999998,4,3,克州商圈
441,652701,新华路,652701,652701,650000,652700,652701,新疆维吾尔自治区,博尔塔拉蒙古自治州,博乐市,44.888111999999985,82.066595,9,4,新华路商圈
442,650422,友好中路,650422,650422,650000,650400,650422,新疆维吾尔自治区,吐鲁番市,托克逊县,42.79246899999999,88.64758900000001,5,3,友好中路商圈
443,650402,高昌中路,650402,650402,650000,650400,650402,新疆维吾尔自治区,吐鲁番市,高昌区,42.947169749999986,89.17987549999998,10,6,高昌中路商圈
444,653201,和田,653201,653201,650000,653200,653201,新疆维吾尔自治区,和田地区,和田市,37.111757000000004,79.93087800000005,9,9,和田商圈
445,650502,建国北路,650502,650502,650000,650500,650502,新疆维吾尔自治区,哈密市,伊州区,42.829096,93.527242,3,6,建国北路商圈
446,653126,解放南路,653126,653126,650000,653100,653126,新疆维吾尔自治区,喀什地区,叶城县,37.87907,77.414892,1,1,解放南路商圈
447,653101,人民西路,653101,653101,650000,653100,653101,新疆维吾尔自治区,喀什地区,喀什市,39.46630200000002,75.98146799999996,16,18,人民西路商圈
448,653130,文化东路,653130,653130,650000,653100,653130,新疆维吾尔自治区,喀什地区,巴楚县,39.787378,78.557699,3,0,文化东路商圈
449,654202,北京东路,654202,654202,650000,654200,654202,新疆维吾尔自治区,塔城地区,乌苏市,44.43224800000001,84.68242299999999,7,5,北京东路商圈
450,654203,世纪大道,654203,654203,650000,654200,654203,新疆维吾尔自治区,塔城地区,沙湾市,44.327095,85.620457,1,0,世纪大道商圈
451,652801,延安路,652801,652801,650000,652800,652801,新疆维吾尔自治区,巴音郭楞蒙古自治州,库尔勒市,41.724197,86.177768,1,2,延安路商圈
452,652826,新华路,652826,652826,650000,652800,652826,新疆维吾尔自治区,巴音郭楞蒙古自治州,焉耆回族自治县,42.062725,86.570765,5,3,新华路商圈
453,652327,五彩湾新城,652327,652327,650000,652300,652327,新疆维吾尔自治区,昌吉回族自治州,吉木萨尔县,44.782804,88.896267,2,0,五彩湾新城商圈
454,652325,解放东街,652325,652325,650000,652300,652325,新疆维吾尔自治区,昌吉回族自治州,奇台县,44.021784,89.589969,4,1,解放东街商圈
455,652301,延安北路,652301,652301,650000,652300,652301,新疆维吾尔自治区,昌吉回族自治州,昌吉市,44.01638699999995,87.30818899999994,13,33,延安北路商圈
456,652324,文化路,652324,652324,650000,652300,652324,新疆维吾尔自治区,昌吉回族自治州,玛纳斯县,44.303899,86.216542,3,1,文化路商圈
457,652924,萨依巴格北路,652924,652924,650000,652900,652924,新疆维吾尔自治区,阿克苏地区,沙雅县,41.226157,82.783189,1,3,萨依巴格北路商圈
458,652901,西大街,652901,652901,650000,652900,652901,新疆维吾尔自治区,阿克苏地区,阿克苏市,41.168001055555536,80.26464555555553,17,19,西大街商圈
459,654322,光明南路,654322,654322,650000,654300,654322,新疆维吾尔自治区,阿勒泰地区,富蕴县,46.99126,89.523563,1,0,光明南路商圈
460,654301,解放路,654301,654301,650000,654300,654301,新疆维吾尔自治区,阿勒泰地区,阿勒泰市,47.845588000000006,88.138695,4,3,解放路商圈
461,320116,龙池,320116,320116,320000,320100,320116,江苏省,南京市,六合区,32.26970114285714,118.78130085714285,4,3,龙池商圈
462,320111,江北新区直管区,320111,320116,320000,320100,320116,江苏省,南京市,六合区,32.1004736918239,118.67861300000007,28,131,江北新区直管区商圈
463,320105,元通,320105,320105,320000,320100,320105,江苏省,南京市,建邺区,32.014139903225775,118.72944049032256,26,129,元通商圈
464,320114,西善桥,320114,320105,320000,320100,320105,江苏省,南京市,建邺区,31.962664212765954,118.74877782978717,13,34,西善桥商圈
465,320113,万寿村,320113,320113,320000,320100,320113,江苏省,南京市,栖霞区,32.10614222352943,118.89166862352943,17,68,万寿村商圈
466,320102,红山,320102,320113,320000,320100,320113,江苏省,南京市,栖霞区,32.09132999999998,118.80688800000004,9,30,红山商圈
467,320115,双龙大道,320115,320115,320000,320100,320115,江苏省,南京市,江宁区,31.932595547619048,118.82453429761892,9,75,双龙大道商圈
468,320104,新街口,320104,320102,320000,320100,320102,江苏省,南京市,玄武区,32.040691673267375,118.78993467326788,29,173,新街口商圈
469,320118,淳溪,320118,320118,320000,320100,320118,江苏省,南京市,高淳区,31.329168,118.88380400000003,3,7,淳溪商圈
470,320682,如城,320682,320682,320000,320600,320682,江苏省,南通市,如皋市,32.380603,120.56181300000001,4,11,如城商圈
471,320614,海门高新区,320614,320614,320000,320600,320614,江苏省,南通市,海门区,31.894068,121.17032599999999,4,7,海门高新区商圈
472,320402,局前街,320402,320402,320000,320400,320402,江苏省,常州市,天宁区,31.775570313432812,119.96882880597012,44,90,局前街商圈
473,320411,孟河,320411,320411,320000,320400,320411,江苏省,常州市,新北区,31.866700333333355,119.93686466666665,8,31,孟河商圈
474,320412,常武中路,320412,320412,320000,320400,320412,江苏省,常州市,武进区,31.714159469387745,119.96893304081635,12,37,常武中路商圈
475,320381,新安,320381,320381,320000,320300,320381,江苏省,徐州市,新沂市,34.367288,118.35020600000004,12,25,新安商圈
476,320311,建国西路,320311,320311,320000,320300,320311,江苏省,徐州市,泉山区,34.258432999999975,117.17009400000005,10,15,建国西路商圈
477,320382,东湖,320382,320382,320000,320300,320382,江苏省,徐州市,邳州市,34.33055000000001,117.97673199999998,2,6,东湖商圈
478,321002,杭集,321002,321002,320000,321000,321002,江苏省,扬州市,广陵区,32.376095,119.540412,2,1,杭集商圈
479,321003,京华城中城(国展路),321003,321003,320000,321000,321003,江苏省,扬州市,邗江区,32.38562100000001,119.37598200000001,2,6,京华城中城(国展路)商圈
480,320282,宜城,320282,320282,320000,320200,320282,江苏省,无锡市,宜兴市,31.367400000000025,119.82980399999998,14,40,宜城商圈
481,320206,钱桥,320206,320206,320000,320200,320206,江苏省,无锡市,惠山区,31.62938926829269,120.23079739024398,16,25,钱桥商圈
482,320213,江海,320213,320214,320000,320200,320214,江苏省,无锡市,新吴区,31.584366818181856,120.31562457575767,29,70,江海商圈
483,320214,坊前,320214,320214,320000,320200,320214,江苏省,无锡市,新吴区,31.558008500000007,120.36155646875011,10,54,坊前商圈
484,320281,澄江,320281,320281,320000,320200,320281,江苏省,无锡市,江阴市,31.904651999999974,120.28039900000009,4,24,澄江商圈
485,320211,华庄,320211,320211,320000,320200,320211,江苏省,无锡市,滨湖区,31.485781,120.339592,1,0,华庄商圈
486,320205,厚桥,320205,320205,320000,320200,320205,江苏省,无锡市,锡山区,31.64116623076923,120.47562638461537,3,10,厚桥商圈
487,321281,英武中路,321281,321281,320000,321200,321281,江苏省,泰州市,兴化市,32.93248499999999,119.83968600000001,4,7,英武中路商圈
488,321283,济川,321283,321283,320000,321200,321283,江苏省,泰州市,泰兴市,32.169531,120.034903,7,6,济川商圈
489,321282,靖城,321282,321282,320000,321200,321282,江苏省,泰州市,靖江市,32.019830000000006,120.26403299999997,9,8,靖城商圈
490,321203,永安,321203,321203,320000,321200,321203,江苏省,泰州市,高港区,32.29182688888889,119.89114266666667,5,4,永安商圈
491,320813,东风路,320813,320813,320000,320800,320813,江苏省,淮安市,洪泽区,33.288503,118.854349,2,4,东风路商圈
492,320804,承德北路,320804,320804,320000,320800,320804,江苏省,淮安市,淮阴区,33.61626294117643,119.03537435294113,18,50,承德北路商圈
493,320812,富士康,320812,320812,320000,320800,320812,江苏省,淮安市,清江浦区,33.599759,119.14804,2,4,富士康商圈
494,320902,南城河路,320902,320902,320000,320900,320902,江苏省,盐城市,亭湖区,33.380194,120.1415109999999,11,29,南城河路商圈
495,320506,越溪,320506,320506,320000,320500,320506,江苏省,苏州市,吴中区,31.268510112195067,120.6238100682928,27,178,越溪商圈
496,320509,松陵,320509,320509,320000,320500,320509,江苏省,苏州市,吴江区,31.09258501694915,120.6632217288135,12,47,松陵商圈
497,320585,太仓,320585,320585,320000,320500,320585,江苏省,苏州市,太仓市,31.45960799999999,121.11811799999997,14,22,太仓商圈
498,320505,枫桥,320505,320508,320000,320500,320508,江苏省,苏州市,姑苏区,31.31341399999998,120.55847199999994,14,38,枫桥商圈
499,320583,玉山,320583,320583,320000,320500,320583,江苏省,苏州市,昆山市,31.365836051948033,120.98690725974032,13,64,玉山商圈
500,320507,元和,320507,320507,320000,320500,320507,江苏省,苏州市,相城区,31.396387649350647,120.61521393506494,17,60,元和商圈
501,320724,新兴北路,320724,320724,320000,320700,320724,江苏省,连云港市,灌南县,34.098543,119.34665100000002,10,7,新兴北路商圈
502,320703,墟沟,320703,320703,320000,320700,320703,江苏省,连云港市,连云区,34.73620064705882,119.36074194117649,12,5,墟沟商圈
503,321102,大市口,321102,321102,320000,321100,321102,江苏省,镇江市,京口区,32.2071,119.454308,13,27,大市口商圈
504,321182,三茅,321182,321182,320000,321100,321182,江苏省,镇江市,扬中市,32.234551,119.82665799999998,14,4,三茅商圈
505,361127,东山大街,361127,361127,360000,361100,361127,江西省,上饶市,余干县,28.69127100000001,116.68756400000002,6,8,东山大街商圈
506,361102,中山路,361102,361102,360000,361100,361102,江西省,上饶市,信州区,28.443798462962945,117.97404666666674,23,31,中山路商圈
507,361103,永丰,361103,361103,360000,361100,361103,江西省,上饶市,广丰区,28.437709999999996,118.19288899999997,4,15,永丰商圈
508,361125,兴安,361125,361125,360000,361100,361125,江西省,上饶市,横峰县,28.415563999999996,117.60492400000001,5,4,兴安商圈
509,361124,狮江大道,361124,361124,360000,361100,361124,江西省,上饶市,铅山县,28.311076000000007,117.714469,4,3,狮江大道商圈
510,360403,大中路步行街,360403,360403,360000,360400,360403,江西省,九江市,浔阳区,29.724536,115.987439,4,16,大中路商圈
511,360481,湓城,360481,360481,360000,360400,360481,江西省,九江市,瑞昌市,29.677810999999995,115.66851799999998,3,5,湓城商圈
512,360121,莲塘镇,360121,360121,360000,360100,360121,江西省,南昌市,南昌县,28.535801432432443,115.93333054054054,7,30,莲塘商圈
513,360111,南昌高新区,360111,360121,360000,360100,360121,江西省,南昌市,南昌县,28.674894425287356,115.9539055057471,18,69,南昌高新区商圈
514,360113,会展路,360113,360113,360000,360100,360113,江西省,南昌市,红谷滩区,28.68794050793653,115.85186011111105,13,50,会展路商圈
515,360103,金盘路,360103,360103,360000,360100,360103,江西省,南昌市,西湖区,28.67186500000002,115.91341099999984,16,39,金盘路商圈
516,360124,民和,360124,360124,360000,360100,360124,江西省,南昌市,进贤县,28.357468666666673,116.22150500000002,5,7,民和商圈
517,360830,湘赣大道,360830,360830,360000,360800,360830,江西省,吉安市,永新县,26.947418,114.244231,4,5,湘赣大道商圈
518,360922,阳乐大道,360922,360922,360000,360900,360922,江西省,宜春市,万载县,28.098227000000005,114.452953,4,7,阳乐大道商圈
519,360923,敖山大道,360923,360923,360000,360900,360923,江西省,宜春市,上高县,28.234541,114.934069,3,7,敖山大道商圈
520,360981,尚庄,360981,360981,360000,360900,360981,江西省,宜春市,丰城市,28.24909,115.693238,1,0,尚庄商圈
521,360982,淦阳,360982,360982,360000,360900,360982,江西省,宜春市,樟树市,28.047950615384615,115.54703784615384,10,16,淦阳商圈
522,360902,学府路,360902,360902,360000,360900,360902,江西省,宜春市,袁州区,27.792163,114.36330000000001,2,3,学府路商圈
523,361003,孝岗镇,361003,361003,360000,361000,361003,江西省,抚州市,东乡区,28.233449000000004,116.60678099999997,9,8,孝岗商圈
524,361002,赣东大道沿线,361002,361002,360000,361000,361002,江西省,抚州市,临川区,27.96495205263157,116.3448307105263,13,25,赣东大道商圈
525,361021,盱江大道,361021,361021,360000,361000,361021,江西省,抚州市,南城县,27.553431999999994,116.63865499999999,4,4,盱江大道商圈
526,360521,府前路,360521,360521,360000,360500,360521,江西省,新余市,分宜县,27.80803,114.675345,2,4,府前路商圈
527,360203,珠山中路,360203,360203,360000,360200,360203,江西省,景德镇市,珠山区,29.293538391304335,117.21637178260869,10,36,珠山中路商圈
528,360322,平安北路,360322,360322,360000,360300,360322,江西省,萍乡市,上栗县,27.878805,113.79709100000001,3,3,平安北路商圈
529,360302,跃进南路,360302,360302,360000,360300,360302,江西省,萍乡市,安源区,27.623811,113.848841,5,1,跃进南路商圈
530,360722,阳明中路,360722,360722,360000,360700,360722,江西省,赣州市,信丰县,25.381295000000005,114.93345700000003,7,8,阳明中路商圈
531,360732,凤凰大道,360732,360732,360000,360700,360732,江西省,赣州市,兴国县,26.331384000000007,115.35938899999998,5,3,凤凰大道商圈
532,360703,东山,360703,360703,360000,360700,360703,江西省,赣州市,南康区,25.668228,114.77490900000005,8,15,东山商圈
533,360726,龙泉西路,360726,360726,360000,360700,360726,江西省,赣州市,安远县,25.133253,115.395399,2,3,龙泉西路商圈
534,360781,红都大道,360781,360781,360000,360700,360781,江西省,赣州市,瑞金市,25.876047,116.03645400000003,7,5,红都大道商圈
535,360735,东华北路,360735,360735,360000,360700,360735,江西省,赣州市,石城县,26.3265,116.342343,1,1,东华北路商圈
536,360603,果喜大道,360603,360603,360000,360600,360603,江西省,鹰潭市,余江区,28.208693,116.82274600000001,3,3,果喜大道商圈
537,360681,站前路,360681,360681,360000,360600,360681,江西省,鹰潭市,贵溪市,28.288757125000007,117.22032899999998,9,7,站前路商圈
538,130629,雄安新区,130629,130632,130000,130600,130632,河北省,保定市,安新县,38.98945200000002,115.98873000000002,22,26,雄安新区商圈
539,130681,东大街,130681,130681,130000,130600,130681,河北省,保定市,涿州市,39.483353432432445,115.98003918918921,12,25,东大街商圈
540,130607,玉川东路,130607,130607,130000,130600,130607,河北省,保定市,满城区,38.949207,115.34257399999997,5,14,玉川东路商圈
541,130602,百花东路,130602,130602,130000,130600,130602,河北省,保定市,竞秀区,38.86996499999999,115.469429,5,10,百花东路商圈
542,130606,西关,130606,130606,130000,130600,130606,河北省,保定市,莲池区,38.864606999999985,115.49230900000015,16,45,西关商圈
543,130684,迎宾路,130684,130684,130000,130600,130684,河北省,保定市,高碑店市,39.32780300000001,115.87971100000001,6,14,迎宾路商圈
544,130628,三利大街,130628,130628,130000,130600,130628,河北省,保定市,高阳县,38.68602299999999,115.77693500000004,9,7,三利大街商圈
545,130203,八方,130203,130203,130000,130200,130203,河北省,唐山市,路北区,39.636551117647066,118.16218229411763,17,34,八方商圈
546,131082,鼎盛东大街,131082,131082,130000,131000,131082,河北省,廊坊市,三河市,39.982993,117.08234900000001,1,6,鼎盛东大街商圈
547,131002,银河南路,131002,131002,130000,131000,131002,河北省,廊坊市,安次区,39.49602100000001,116.69776899999992,6,16,银河南路商圈
548,131003,新开路,131003,131003,130000,131000,131003,河北省,廊坊市,广阳区,39.52837,116.72094200000001,3,5,新开路商圈
549,131081,兴华中路,131081,131081,130000,131000,131081,河北省,廊坊市,霸州市,39.122887999999996,116.40212299999999,13,10,兴华中路商圈
550,131024,淑阳大街,131024,131024,130000,131000,131024,河北省,廊坊市,香河县,39.75970600000001,117.00772200000004,1,16,淑阳大街商圈
551,130705,南大街,130705,130705,130000,130700,130705,河北省,张家口市,宣化区,40.60727036363637,115.06349518181815,13,31,南大街商圈
552,130709,长青路,130709,130709,130000,130700,130709,河北省,张家口市,崇礼区,40.97131257142856,115.28071271428571,3,4,长青路商圈
553,130722,永春南大街,130722,130722,130000,130700,130722,河北省,张家口市,张北县,41.15261499999998,114.71722300000006,9,10,永春南大街商圈
554,130730,长城中路,130730,130730,130000,130700,130730,河北省,张家口市,怀来县,40.404072000000006,115.51884500000003,10,8,长城中路商圈
555,130702,胜利中路,130702,130702,130000,130700,130702,河北省,张家口市,桥东区,40.768988,114.902932,3,1,胜利中路商圈
556,130703,新华街,130703,130703,130000,130700,130703,河北省,张家口市,桥西区,40.82345025,114.87336800000003,6,2,新华街商圈
557,130724,桥西路,130724,130724,130000,130700,130724,河北省,张家口市,沽源县,41.668462,115.683765,7,2,桥西路商圈
558,130731,人民北街,130731,130731,130000,130700,130731,河北省,张家口市,涿鹿县,40.383807,115.21471100000001,4,9,人民北街商圈
559,130802,西大街,130802,130802,130000,130800,130802,河北省,承德市,双桥区,40.98534700000001,117.92639700000001,6,15,西大街商圈
560,130828,木兰中路,130828,130828,130000,130800,130828,河北省,承德市,围场满族蒙古族自治县,41.942811,117.76012399999995,9,10,木兰中路商圈
561,130827,民族街,130827,130827,130000,130800,130827,河北省,承德市,宽城满族自治县,40.60288500000001,118.48560599999998,10,7,民族街商圈
562,130821,板城大街,130821,130821,130000,130800,130821,河北省,承德市,承德县,40.771254,118.178118,3,1,板城大街商圈
563,130824,北大街,130824,130824,130000,130800,130824,河北省,承德市,滦平县,40.933784,117.334711,3,7,北大街商圈
564,130982,新华路,130982,130982,130000,130900,130982,河北省,沧州市,任丘市,38.705357000000035,116.10901800000009,14,32,新华路商圈
565,130984,城垣中路,130984,130984,130000,130900,130984,河北省,沧州市,河间市,38.44142,116.098602,5,14,城垣中路商圈
566,130981,泊头,130981,130981,130000,130900,130981,河北省,沧州市,泊头市,38.07390199999999,116.594292,6,10,泊头商圈
567,130929,平安大街,130929,130929,130000,130900,130929,河北省,沧州市,献县,38.187173,116.127761,1,0,平安大街商圈
568,130922,新华中路,130922,130922,130000,130900,130922,河北省,沧州市,青县,38.578363,116.822956,3,1,新华中路商圈
569,130983,南大港,130983,130983,130000,130900,130983,河北省,沧州市,黄骅市,38.472879,117.380332,3,0,南大港商圈
570,130104,中山,130104,130105,130000,130100,130105,河北省,石家庄市,新华区,38.038272849056575,114.49462876729578,39,120,中山商圈
571,130105,高柱,130105,130105,130000,130100,130105,河北省,石家庄市,新华区,38.08041412121215,114.47308515151522,13,20,高柱商圈
572,130102,建华,130102,130108,130000,130100,130108,河北省,石家庄市,裕华区,38.04385599999999,114.54773500000009,15,40,建华商圈
573,130108,长江大道,130108,130108,130000,130100,130108,河北省,石家庄市,裕华区,38.037144000000005,114.615822,2,11,长江大道商圈
574,130133,柏林,130133,130133,130000,130100,130133,河北省,石家庄市,赵县,37.75321199999999,114.78060199999999,5,17,柏林商圈
575,130304,北戴河区,130304,130304,130000,130300,130304,河北省,秦皇岛市,北戴河区,39.826710000000006,119.48817340000001,4,1,北戴河区商圈
576,130322,碣阳大街,130322,130322,130000,130300,130322,河北省,秦皇岛市,昌黎县,39.715934,119.178929,1,1,碣阳大街商圈
577,130302,太阳城,130302,130302,130000,130300,130302,河北省,秦皇岛市,海港区,39.93250883606555,119.59875727868844,20,41,太阳城商圈
578,131103,兴华北大街,131103,131103,130000,131100,131103,河北省,衡水市,冀州区,37.5476970625,115.58057962499997,1,15,兴华北大街商圈
579,131126,广交,131126,131126,130000,131100,131126,河北省,衡水市,故城县,37.34578444444444,115.96720648148154,10,17,广交商圈
580,131102,百货大楼,131102,131102,130000,131100,131102,河北省,衡水市,桃城区,37.7317544545454,115.67942328787875,11,55,百货大楼商圈
581,131122,新华北大街,131122,131122,130000,131100,131122,河北省,衡水市,武邑县,37.807202,115.89753900000002,1,7,新华北大街商圈
582,131182,贸易城纬二路,131182,131182,130000,131100,131182,河北省,衡水市,深州市,37.99782600000002,115.54362499999999,6,12,贸易城纬二路商圈
583,131128,富强西路,131128,131128,130000,131100,131128,河北省,衡水市,阜城县,37.868534000000004,116.15359,4,4,富强西路商圈
584,131124,平安西路,131124,131124,130000,131100,131124,河北省,衡水市,饶阳县,38.230672,115.71754800000001,1,2,平安西路商圈
585,130503,中兴,130503,130503,130000,130500,130503,河北省,邢台市,信都区,37.068176,114.47243550000012,32,76,中兴商圈
586,130582,沙河,130582,130582,130000,130500,130582,河北省,邢台市,沙河市,36.86532999999998,114.50537900000002,10,13,沙河商圈
587,130403,中华北,130403,130403,130000,130400,130403,河北省,邯郸市,丛台区,36.60647097000008,114.4959076200002,24,76,中华北商圈
588,130402,中华南/中华南大街,130402,130402,130000,130400,130402,河北省,邯郸市,邯山区,36.57239,114.489013,1,3,中华南/中华南大街商圈
589,411281,珠江路,411281,411281,410000,411200,411281,河南省,三门峡市,义马市,34.745507,111.870805,3,3,珠江路商圈
590,411221,解放大街,411221,411221,410000,411200,411221,河南省,三门峡市,渑池县,34.75716799999999,111.77009100000002,2,12,解放大街商圈
591,411202,和平路,411202,411202,410000,411200,411202,河南省,三门峡市,湖滨区,34.77873528260866,111.20000043478254,20,26,和平路商圈
592,411282,弘农路,411282,411282,410000,411200,411282,河南省,三门峡市,灵宝市,34.52131,110.87489799999999,3,0,弘农路商圈
593,411524,黄柏山路,411524,411524,410000,411500,411524,河南省,信阳市,商城县,31.800086000000004,115.394851,4,10,黄柏山路商圈
594,411525,蓼城大道,411525,411525,410000,411500,411525,河南省,信阳市,固始县,32.18701399999999,115.656059,6,4,蓼城大道商圈
595,411503,平西路,411503,411503,410000,411500,411503,河南省,信阳市,平桥区,32.107966692307706,114.12497289743587,11,28,平西路商圈
596,411502,体彩广场,411502,411502,410000,411500,411502,河南省,信阳市,浉河区,32.126216571428564,114.07370704761905,6,15,体彩广场商圈
597,411526,春申,411526,411526,410000,411500,411526,河南省,信阳市,潢川县,32.13972999999999,115.04288199999998,5,11,春申商圈
598,411521,行政大道,411521,411521,410000,411500,411521,河南省,信阳市,罗山县,32.201693,114.511001,1,0,行政大道商圈
599,411325,菊潭大街,411325,411325,410000,411300,411325,河南省,南阳市,内乡县,33.055147,111.84277100000004,12,8,菊潭大街商圈
600,411302,独山大道,411302,411303,410000,411300,411303,河南省,南阳市,卧龙区,33.00587622352944,112.56481043529399,18,67,独山大道商圈
601,411303,永安路,411303,411303,410000,411300,411303,河南省,南阳市,卧龙区,32.99275799999999,112.51635799999998,5,21,永安路商圈
602,411326,九重,411326,411326,410000,411300,411326,河南省,南阳市,淅川县,32.698754,111.795908,1,0,九重商圈
603,411602,五一路,411602,411602,410000,411600,411602,河南省,周口市,川汇区,33.605731000000034,114.64876699999995,9,37,五一路商圈
604,411621,文化东路,411621,411621,410000,411600,411621,河南省,周口市,扶沟县,34.050909,114.40436999999999,1,5,文化东路商圈
605,411624,长安中路,411624,411624,410000,411600,411624,河南省,周口市,沈丘县,33.394503,115.079048,2,0,长安中路商圈
606,411681,交通西路,411681,411681,410000,411600,411681,河南省,周口市,项城市,33.441575000000036,114.90411200000007,9,28,交通西路商圈
607,411628,真源大道,411628,411628,410000,411600,411628,河南省,周口市,鹿邑县,33.862264999999994,115.490239,3,15,真源大道商圈
608,411402,团结路商业街,411402,411402,410000,411400,411402,河南省,商丘市,梁园区,34.43559600000002,115.65081100000013,13,40,团结路商业街商圈
609,411481,永兴路,411481,411481,410000,411400,411481,河南省,商丘市,永城市,33.93174299999999,116.45670699999994,10,21,永兴路商圈
610,411422,中心大街,411422,411422,410000,411400,411422,河南省,商丘市,睢县,34.4254764,115.0771375333333,10,5,中心大街商圈
611,410527,朝阳路,410527,410527,410000,410500,410527,河南省,安阳市,内黄县,35.94707499999999,114.89790399999997,4,13,朝阳路商圈
612,410502,迎春东街,410502,410502,410000,410500,410502,河南省,安阳市,文峰区,36.08691999999999,114.38131800000006,4,23,迎春东街商圈
613,410523,政通路,410523,410523,410000,410500,410523,河南省,安阳市,汤阴县,35.92114099999999,114.365575,3,7,政通路商圈
614,410526,红旗路,410526,410526,410000,410500,410526,河南省,安阳市,滑县,35.576953,114.52036999999999,5,4,红旗路商圈
615,410403,优越路,410403,410403,410000,410400,410403,河南省,平顶山市,卫东区,33.741435999999965,113.31426900000022,23,58,优越路商圈
616,410423,琴台,410423,410423,410000,410400,410423,河南省,平顶山市,鲁山县,33.74361,112.905131,4,7,琴台商圈
617,410783,蒲东,410783,410783,410000,410700,410783,河南省,新乡市,长垣市,35.19141724999999,114.68295599999999,13,27,蒲东商圈
618,410307,槐新,410307,410307,410000,410300,410307,河南省,洛阳市,偃师区,34.71830899999999,112.78843699999999,5,10,槐新商圈
619,410302,北大街,410302,410302,410000,410300,410302,河南省,洛阳市,老城区,34.68991784615385,112.46134430769231,10,42,北大街商圈
620,411102,滨河路,411102,411102,410000,411100,411102,河南省,漯河市,源汇区,33.57574920588236,114.02527032352947,7,27,滨河路商圈
621,410902,任丘路,410902,410902,410000,410900,410902,河南省,濮阳市,华龙区,35.77231099999997,115.08124600000008,8,25,任丘路商圈
622,410928,红旗路,410928,410928,410000,410900,410928,河南省,濮阳市,濮阳县,35.712225999999994,115.02508500000002,1,9,红旗路商圈
623,410926,新区,410926,410926,410000,410900,410926,河南省,濮阳市,范县,35.85765500000001,115.50560399999998,3,7,新区商圈
624,410803,怡光路,410803,410803,410000,410800,410803,河南省,焦作市,中站区,35.240635,113.171089,1,2,怡光路商圈
625,410883,孟州市,410883,410883,410000,410800,410883,河南省,焦作市,孟州市,34.907968999999994,112.78960899999997,7,12,孟州市商圈
626,410811,焦作中心片区,410811,410811,410000,410800,410811,河南省,焦作市,山阳区,35.22466900000002,113.25904400000015,23,54,焦作中心片区商圈
627,410823,红旗路,410823,410823,410000,410800,410823,河南省,焦作市,武陟县,35.099227000000006,113.39963600000006,5,18,红旗路商圈
628,410882,怀府西路,410882,410882,410000,410800,410882,河南省,焦作市,沁阳市,35.09006999999998,112.91994100000002,4,11,怀府西路商圈
629,410802,卫校西街,410802,410802,410000,410800,410802,河南省,焦作市,解放区,35.228962,113.218093,1,3,卫校西街商圈
630,411081,滨河大道,411081,411081,410000,411000,411081,河南省,许昌市,禹州市,34.15417530769232,113.47867630769238,6,20,滨河大道商圈
631,411082,长社路,411082,411082,410000,411000,411082,河南省,许昌市,长葛市,34.22316899999999,113.77972,6,10,长社路商圈
632,411002,魏文路,411002,411002,410000,411000,411002,河南省,许昌市,魏都区,34.03414500000002,113.85661900000005,3,38,魏文路商圈
633,410106,济源路,410106,410106,410000,410100,410106,河南省,郑州市,上街区,34.808443000000004,113.30694099999998,12,14,济源路商圈
634,410102,科学大道,410102,410102,410000,410100,410102,河南省,郑州市,中原区,34.7691573089006,113.59315712041884,30,161,科学大道商圈
635,410103,航海中路/航海西路,410103,410102,410000,410100,410102,河南省,郑州市,中原区,34.718945,113.633153,2,1,航海中路/航海西路商圈
636,410122,广惠街,410122,410122,410000,410100,410122,河南省,郑州市,中牟县,34.71663999999999,113.97191299999999,4,3,广惠街商圈
637,410105,东风路,410105,410108,410000,410100,410108,河南省,郑州市,惠济区,34.78942385517239,113.69475367586213,13,132,东风路商圈
638,410183,青屏街,410183,410183,410000,410100,410183,河南省,郑州市,新密市,34.53833299999998,113.37924100000001,17,25,青屏街商圈
639,410185,嵩阳,410185,410185,410000,410100,410185,河南省,郑州市,登封市,34.455803999999986,113.03659599999996,8,12,嵩阳商圈
640,410104,未来路,410104,410104,410000,410100,410104,河南省,郑州市,管城回族区,34.747844702127615,113.69367513829803,7,87,未来路商圈
641,411729,古吕,411729,411729,410000,411700,411729,河南省,驻马店市,新蔡县,32.750671000000004,114.97539800000003,2,11,古吕商圈
642,411727,汝宁,411727,411727,410000,411700,411727,河南省,驻马店市,汝南县,33.001279000000004,114.357401,3,8,汝宁商圈
643,411721,文化路,411721,411721,410000,411700,411721,河南省,驻马店市,西平县,33.384566,114.030667,4,5,文化路商圈
644,411728,瞿阳,411728,411728,410000,411700,411728,河南省,驻马店市,遂平县,33.14502199999999,114.00601600000003,5,11,瞿阳商圈
645,411702,乐山大道,411702,411702,410000,411700,411702,河南省,驻马店市,驿城区,32.984486309090904,114.03084558181824,15,40,乐山大道商圈
646,410621,北大街,410621,410621,410000,410600,410621,河南省,鹤壁市,浚县,35.672111,114.547304,4,0,北大街商圈
647,410622,红旗路,410622,410622,410000,410600,410622,河南省,鹤壁市,淇县,35.608022,114.200744,6,8,红旗路商圈
648,331125,浮云,331125,331125,330000,331100,331125,浙江省,丽水市,云和县,28.111796,119.571692,1,2,浮云商圈
649,331102,水阁,331102,331102,330000,331100,331102,浙江省,丽水市,莲都区,28.410436,119.85264400000003,5,4,水阁商圈
650,331121,油竹,331121,331121,330000,331100,331121,浙江省,丽水市,青田县,28.103315999999996,120.31714900000001,2,1,油竹商圈
651,331082,古城,331082,331082,330000,331000,331082,浙江省,台州市,临海市,28.846615,121.13458799999994,8,14,古城商圈
652,331024,福应,331024,331024,330000,331000,331024,浙江省,台州市,仙居县,28.854566999999992,120.74529699999995,1,11,福应商圈
653,331023,赤城,331023,331023,330000,331000,331023,浙江省,台州市,天台县,29.140351000000006,121.03069499999998,6,7,赤城商圈
654,331002,解放南路,331002,331002,330000,331000,331002,浙江省,台州市,椒江区,28.668629000000006,121.43559800000001,3,11,解放南路商圈
655,331083,南兴西路,331083,331083,330000,331000,331083,浙江省,台州市,玉环市,28.1468525,121.23825473076928,9,17,南兴西路商圈
656,331004,富仕路,331004,331004,330000,331000,331004,浙江省,台州市,路桥区,28.579361,121.373843,8,2,富仕路商圈
657,331003,天长南路,331003,331003,330000,331000,331003,浙江省,台州市,黄岩区,28.642494846153852,121.26574257692315,9,17,天长南路商圈
658,330402,南溪西路,330402,330402,330000,330400,330402,浙江省,嘉兴市,南湖区,30.752170935483885,120.75911541935487,13,49,南溪西路商圈
659,330421,健康路,330421,330421,330000,330400,330421,浙江省,嘉兴市,嘉善县,30.843571222222206,120.92443663888886,18,18,健康路商圈
660,330482,平湖,330482,330482,330000,330400,330482,浙江省,嘉兴市,平湖市,30.693038499999993,121.01422430000002,13,17,平湖商圈
661,330424,西塘桥,330424,330424,330000,330400,330424,浙江省,嘉兴市,海盐县,30.549609666666672,120.9596106666667,3,12,西塘桥商圈
662,330411,塘汇,330411,330411,330000,330400,330411,浙江省,嘉兴市,秀洲区,30.789506,120.776992,1,0,塘汇商圈
663,330281,兰江,330281,330281,330000,330200,330281,浙江省,宁波市,余姚市,30.033161999999972,121.14345399999999,13,22,兰江商圈
664,330206,小港,330206,330206,330000,330200,330206,浙江省,宁波市,北仑区,29.91008228205128,121.82761635897437,9,30,小港商圈
665,330226,桃源,330226,330226,330000,330200,330226,浙江省,宁波市,宁海县,29.306013000000004,121.43484600000006,10,13,桃源商圈
666,330282,慈溪,330282,330282,330000,330200,330282,浙江省,宁波市,慈溪市,30.171618999999986,121.26069599999994,5,27,慈溪商圈
667,330205,洪塘,330205,330205,330000,330200,330205,浙江省,宁波市,江北区,29.958397000000005,121.48899753333335,4,11,洪塘商圈
668,330211,庄市社区,330211,330205,330000,330200,330205,浙江省,宁波市,江北区,29.94738183333334,121.62531187500004,18,30,庄市社区商圈
669,330203,江厦,330203,330203,330000,330200,330203,浙江省,宁波市,海曙区,29.86428683333338,121.53207465555548,27,63,江厦商圈
670,330225,丹西,330225,330225,330000,330200,330225,浙江省,宁波市,象山县,29.459183,121.87144800000002,8,3,丹西商圈
671,330212,姜山,330212,330212,330000,330200,330212,浙江省,宁波市,鄞州区,29.841186050632903,121.58998102531638,11,68,姜山商圈
672,330102,近江,330102,330102,330000,330100,330102,浙江省,杭州市,上城区,30.25570256157628,120.19056850738926,27,176,近江商圈
673,330113,乔司,330113,330102,330000,330100,330102,浙江省,杭州市,上城区,30.406406842105255,120.27317924561396,14,43,乔司商圈
674,330112,玲珑,330112,330112,330000,330100,330112,浙江省,杭州市,临安区,30.225224861111112,119.70445980555549,16,20,玲珑商圈
675,330110,运河街道,330110,330113,330000,330100,330113,浙江省,杭州市,临平区,30.350271333333325,120.08910068115937,12,57,运河街道商圈
676,330111,高桥,330111,330111,330000,330100,330111,浙江省,杭州市,富阳区,30.064543555555545,119.95347971111116,10,35,高桥商圈
677,330182,建德,330182,330182,330000,330100,330182,浙江省,杭州市,建德市,29.470725000000005,119.286701,3,2,建德商圈
678,330105,祥符街,330105,330105,330000,330100,330105,浙江省,杭州市,拱墅区,30.309746866666664,120.12811366666676,6,69,祥符街商圈
679,330106,文新,330106,330105,330000,330100,330105,浙江省,杭州市,拱墅区,30.28207505882352,120.09869941176467,11,40,文新商圈
680,330122,桐君,330122,330122,330000,330100,330122,浙江省,杭州市,桐庐县,29.818212999999993,119.64799007692311,12,14,桐君商圈
681,330127,威坪,330127,330127,330000,330100,330127,浙江省,杭州市,淳安县,29.724878,118.787949,1,0,威坪商圈
682,330108,西兴,330108,330108,330000,330100,330108,浙江省,杭州市,滨江区,30.189246647540987,120.20551645081976,30,92,西兴商圈
683,330109,宁围,330109,330109,330000,330100,330109,浙江省,杭州市,萧山区,30.16548256435643,120.30082400990095,15,86,宁围商圈
684,330114,白杨,330114,330114,330000,330100,330114,浙江省,杭州市,钱塘区,30.305466,120.363533,1,1,白杨商圈
685,330382,大荆镇,330382,330382,330000,330300,330382,浙江省,温州市,乐清市,28.072035289473696,120.90903260526315,6,32,大荆镇商圈
686,330326,麻步镇,330326,330326,330000,330300,330326,浙江省,温州市,平阳县,27.646532999999994,120.42729137499998,2,6,麻步镇商圈
687,330324,上塘,330324,330324,330000,330300,330324,浙江省,温州市,永嘉县,28.073379454545464,120.64430561363635,13,31,上塘商圈
688,330305,北岙,330305,330305,330000,330300,330305,浙江省,温州市,洞头区,27.835042,121.153758,2,1,北岙商圈
689,330381,安阳,330381,330381,330000,330300,330381,浙江省,温州市,瑞安市,27.79247234246573,120.6477336164384,18,55,安阳商圈
690,330304,金蟾大道,330304,330304,330000,330300,330304,浙江省,温州市,瓯海区,27.97883955172415,120.63920355172405,15,43,金蟾大道商圈
691,330327,灵溪,330327,330327,330000,330300,330327,浙江省,温州市,苍南县,27.510948576923077,120.42419930769232,9,17,灵溪商圈
692,330303,滨海,330303,330303,330000,330300,330303,浙江省,温州市,龙湾区,27.90150124324324,120.80216027027025,8,29,滨海商圈
693,330502,苕溪东路,330502,330502,330000,330500,330502,浙江省,湖州市,吴兴区,30.868305999999993,120.10690699999996,11,25,苕溪东路商圈
694,330604,百官,330604,330604,330000,330600,330604,浙江省,绍兴市,上虞区,30.025451965517227,120.8713243103448,7,22,百官商圈
695,330624,七星,330624,330624,330000,330600,330624,浙江省,绍兴市,新昌县,29.506863,120.875209,1,1,七星商圈
696,330603,湖中路,330603,330603,330000,330600,330603,浙江省,绍兴市,柯桥区,30.089118702702727,120.4947756216216,8,29,湖中路商圈
697,330681,诸暨,330681,330681,330000,330600,330681,浙江省,绍兴市,诸暨市,29.715452000000013,120.24721899999996,11,25,诸暨商圈
698,330602,迪荡新城,330602,330602,330000,330600,330602,浙江省,绍兴市,越城区,30.016853959183653,120.60010140816333,14,35,迪荡新城商圈
699,330902,定海云廊公路绿道,330902,330902,330000,330900,330902,浙江省,舟山市,定海区,30.040793999999998,122.11253400000001,10,9,定海云廊公路绿道商圈
700,330903,同济路,330903,330903,330000,330900,330903,浙江省,舟山市,普陀区,29.95742209523809,122.29363980952378,11,10,同济路商圈
701,330822,天马,330822,330822,330000,330800,330822,浙江省,衢州市,常山县,28.902116000000003,118.51600399999998,3,4,天马商圈
702,330802,巨化,330802,330802,330000,330800,330802,浙江省,衢州市,柯城区,28.897059,118.907524,1,1,巨化商圈
703,330881,虎山,330881,330881,330000,330800,330881,浙江省,衢州市,江山市,28.717575000000007,118.617254,5,7,虎山商圈
704,330825,龙洲,330825,330825,330000,330800,330825,浙江省,衢州市,龙游县,29.032367,119.173992,3,7,龙洲商圈
705,330783,十字街,330783,330783,330000,330700,330783,浙江省,金华市,东阳市,29.26817299999999,120.23462763636367,8,14,十字街商圈
706,330782,稠江街道,330782,330782,330000,330700,330782,浙江省,金华市,义乌市,29.3052385604396,120.07187776923084,18,73,稠江街道商圈
707,330781,云山,330781,330781,330000,330700,330781,浙江省,金华市,兰溪市,29.21195599999999,119.482401,11,3,云山商圈
708,330702,新华街,330702,330702,330000,330700,330702,浙江省,金华市,婺城区,29.106219000000007,119.65405399999996,14,31,新华街商圈
709,330723,壶山,330723,330723,330000,330700,330723,浙江省,金华市,武义县,28.896147999999993,119.81536099999995,7,8,壶山商圈
710,330703,孝顺,330703,330703,330000,330700,330703,浙江省,金华市,金东区,29.17937799999999,119.86891399999998,6,6,孝顺商圈
711,460203,河东,460203,460203,460000,460200,460203,海南省,三亚市,吉阳区,18.258468853658528,109.51438046341474,25,57,河东商圈
712,460204,海坡,460204,460204,460000,460200,460204,海南省,三亚市,天涯区,18.292812,109.437905,3,1,海坡商圈
713,469007,东方,469007,469007,460000,469007,469007,海南省,东方市,四更镇,19.101152,108.65618100000003,5,4,东方商圈
714,460106,龙昆南路,460106,460107,460000,460100,460107,海南省,海口市,琼山区,20.007691000000015,110.33878499999994,31,46,龙昆南路商圈
715,460107,国兴,460107,460107,460000,460100,460107,海南省,海口市,琼山区,20.015604,110.36295300000003,1,8,国兴商圈
716,460105,秀华路,460105,460105,460000,460100,460105,海南省,海口市,秀英区,20.006154000000006,110.28733699999997,12,46,秀华路商圈
717,420381,大坝路,420381,420381,420000,420300,420381,湖北省,十堰市,丹江口市,32.542750000000005,111.50789899999998,3,5,大坝路商圈
718,420322,郧西大道,420322,420322,420000,420300,420322,湖北省,十堰市,郧西县,32.989824,110.428063,4,2,郧西大道商圈
719,421202,第一街购物公园,421202,421202,420000,421200,421202,湖北省,咸宁市,咸安区,29.827050883720943,114.32845018604647,11,32,第一街购物公园商圈
720,421221,沙阳大道,421221,421221,420000,421200,421221,湖北省,咸宁市,嘉鱼县,29.974149625000003,113.914677625,5,3,沙阳大道商圈
721,421281,蒲圻,421281,421281,420000,421200,421281,湖北省,咸宁市,赤壁市,29.71454,113.88401500000003,3,15,蒲圻商圈
722,421224,九宫大道,421224,421224,420000,421200,421224,湖北省,咸宁市,通山县,29.605597,114.501253,2,4,九宫大道商圈
723,429006,东湖,429006,429006,420000,429006,429006,湖北省,天门市,胡市镇,30.652317,113.174636,1,4,东湖商圈
724,420923,曲阳路,420923,420923,420000,420900,420923,湖北省,孝感市,云梦县,31.021074,113.748789,5,2,曲阳路商圈
725,420902,全洲,420902,420902,420000,420900,420902,湖北省,孝感市,孝南区,30.936849,113.92284399999996,2,10,全洲商圈
726,420982,府城,420982,420982,420000,420900,420982,湖北省,孝感市,安陆市,31.257233,113.68737899999999,3,18,府城商圈
727,420981,东马坊,420981,420981,420000,420900,420981,湖北省,孝感市,应城市,30.930429545454547,113.60070199999997,4,7,东马坊商圈
728,420984,文化路,420984,420984,420000,420900,420984,湖北省,孝感市,汉川市,30.655315999999985,113.83752899999996,5,12,文化路商圈
729,420503,桔城路,420503,420503,420000,420500,420503,湖北省,宜昌市,伍家岗区,30.67831104761902,111.31745171428557,23,61,桔城路商圈
730,420506,夷兴大道,420506,420506,420000,420500,420506,湖北省,宜昌市,夷陵区,30.770829000000013,111.32616099999997,7,18,夷兴大道商圈
731,420582,子龙路,420582,420582,420000,420500,420582,湖北省,宜昌市,当阳市,30.826697999999997,111.79225700000003,4,5,子龙路商圈
732,420583,民主大道,420583,420583,420000,420500,420583,湖北省,宜昌市,枝江市,30.429539999999985,111.75747499999996,6,13,民主大道商圈
733,422802,北门,422802,422802,420000,422800,422802,湖北省,恩施土家族苗族自治州,利川市,30.297602999999995,108.935786,8,9,北门商圈
734,422826,解放路,422826,422826,420000,422800,422826,湖北省,恩施土家族苗族自治州,咸丰县,29.675497000000004,109.14646400000001,2,6,解放路商圈
735,422825,贡水路,422825,422825,420000,422800,422825,湖北省,恩施土家族苗族自治州,宣恩县,29.988973999999992,109.481996,4,4,贡水路商圈
736,422822,业州大道,422822,422822,420000,422800,422822,湖北省,恩施土家族苗族自治州,建始县,30.601093,109.720106,2,0,业州大道商圈
737,422801,土桥大道,422801,422801,420000,422800,422801,湖北省,恩施土家族苗族自治州,恩施市,30.28292850000001,109.49623375,16,32,土桥大道商圈
738,420112,长青,420112,420112,420000,420100,420112,湖北省,武汉市,东西湖区,30.622488857142848,114.13731742857138,6,43,长青商圈
739,420103,常青,420103,420112,420000,420100,420112,湖北省,武汉市,东西湖区,30.615133739130393,114.26744947826103,23,115,常青商圈
740,420116,长江新区,420116,420117,420000,420100,420117,湖北省,武汉市,新洲区,30.779797036363643,114.3342128,14,41,长江新区商圈
741,420117,阳逻,420117,420117,420000,420100,420117,湖北省,武汉市,新洲区,30.757030827586213,114.69008413793105,9,20,阳逻商圈
742,420111,徐东,420111,420106,420000,420100,420106,湖北省,武汉市,武昌区,30.531865950819746,114.37886691256828,18,165,徐东商圈
743,420106,武珞路,420106,420106,420000,420100,420106,湖北省,武汉市,武昌区,30.53332179545449,114.3247632102276,20,156,武珞路商圈
744,420113,纱帽,420113,420113,420000,420100,420113,湖北省,武汉市,汉南区,30.310040000000008,114.082134,4,5,纱帽商圈
745,420114,升官渡,420114,420105,420000,420100,420105,湖北省,武汉市,汉阳区,30.522550920454616,114.18212284090902,20,68,升官渡商圈
746,420105,鹦鹉村,420105,420105,420000,420100,420105,湖北省,武汉市,汉阳区,30.533526000000002,114.26293299999999,10,36,鹦鹉村商圈
747,420115,流芳,420115,420115,420000,420100,420115,湖北省,武汉市,江夏区,30.411168367647036,114.37388860294122,10,58,流芳商圈
748,420102,黄浦路,420102,420102,420000,420100,420102,湖北省,武汉市,江岸区,30.618589141242893,114.30817775706204,16,161,黄浦路商圈
749,420104,古田,420104,420104,420000,420100,420104,湖北省,武汉市,硚口区,30.600612999999996,114.202568,5,16,古田商圈
750,420107,冶金,420107,420107,420000,420100,420107,湖北省,武汉市,青山区,30.62705283333335,114.40186994444456,11,43,冶金商圈
751,421022,荆江大道,421022,421022,420000,421000,421022,湖北省,荆州市,公安县,30.05989,112.22381199999997,6,7,荆江大道商圈
752,421002,北京中路,421002,421002,420000,421000,421002,湖北省,荆州市,沙市区,30.30730300000003,112.25471300000001,16,33,北京中路商圈
753,421083,爱国路,421083,421083,420000,421000,421083,湖北省,荆州市,洪湖市,29.809357,113.463797,2,8,爱国路商圈
754,421088,容城大道,421088,421088,420000,421000,421088,湖北省,荆州市,监利市,29.816293999999992,112.90533500000001,6,4,容城大道商圈
755,421081,笔架山,421081,421081,420000,421000,421081,湖北省,荆州市,石首市,29.726902,112.409291,1,1,笔架山商圈
756,420802,金虾路,420802,420802,420000,420800,420802,湖北省,荆门市,东宝区,31.039794999999987,112.20250399999995,21,24,金虾路商圈
757,420882,城中路,420882,420882,420000,420800,420882,湖北省,荆门市,京山市,31.02035899999999,113.11450399999997,8,4,城中路商圈
758,420881,阳春大街,420881,420881,420000,420800,420881,湖北省,荆门市,钟祥市,31.16788895833334,112.58930979166665,15,9,阳春大街商圈
759,420684,鄢城,420684,420684,420000,420600,420684,湖北省,襄阳市,宜城市,31.70827600000001,112.262837,8,6,鄢城商圈
760,420683,北城,420683,420683,420000,420600,420683,湖北省,襄阳市,枣阳市,32.12778039999999,112.76297547999997,14,11,北城商圈
761,420606,七里河,420606,420606,420000,420600,420606,湖北省,襄阳市,樊城区,32.061982859154945,112.13763825352116,17,54,七里河商圈
762,420602,欧庙,420602,420602,420000,420600,420602,湖北省,襄阳市,襄城区,31.971178500000008,112.13586600000002,6,10,欧庙商圈
763,420704,滨湖南路,420704,420704,420000,420700,420704,湖北省,鄂州市,鄂城区,30.380449499999997,114.95168000000001,2,0,滨湖南路商圈
764,421303,小十字街,421303,421303,420000,421300,421303,湖北省,随州市,曾都区,31.711345470588252,113.3785467941176,9,25,小十字街商圈
765,421125,新华正街,421125,421125,420000,421100,421125,湖北省,黄冈市,浠水县,30.457944,115.26399999999997,6,6,新华正街商圈
766,421122,新街,421122,421122,420000,421100,421122,湖北省,黄冈市,红安县,31.285093000000007,114.61742099999996,11,3,新街商圈
767,421181,建设路,421181,421181,420000,421100,421181,湖北省,黄冈市,麻城市,31.182234999999995,115.029448,2,11,建设路商圈
768,421102,体育路,421102,421102,420000,421100,421102,湖北省,黄冈市,黄州区,30.456226000000008,114.87689700000007,11,29,体育路商圈
769,421127,古塔西路,421127,421127,420000,421100,421127,湖北省,黄冈市,黄梅县,30.070551000000005,115.94169400000003,6,6,古塔西路商圈
770,420204,下陆大道,420204,420204,420000,420200,420204,湖北省,黄石市,下陆区,30.172175999999997,114.954703,3,0,下陆大道商圈
771,420281,新冶大道,420281,420281,420000,420200,420281,湖北省,黄石市,大冶市,30.1017575,114.97398649999998,10,14,新冶大道商圈
772,420202,黄石大道,420202,420203,420000,420200,420203,湖北省,黄石市,西塞山区,30.214836999999996,115.08798900000006,16,21,黄石大道商圈
773,420222,兴国大道,420222,420222,420000,420200,420222,湖北省,黄石市,阳新县,29.842821000000004,115.209399,5,15,兴国大道商圈
774,431381,锑都中路,431381,431381,430000,431300,431381,湖南省,娄底市,冷水江市,27.689327999999993,111.43709600000001,5,8,锑都中路商圈
775,431302,娄底,431302,431302,430000,431300,431302,湖南省,娄底市,娄星区,27.73154399999999,112.00170100000008,11,58,娄底商圈
776,431322,天华南路,431322,431322,430000,431300,431322,湖南省,娄底市,新化县,27.726636124999988,111.305788,9,15,天华南路商圈
777,431382,蓝田,431382,431382,430000,431300,431382,湖南省,娄底市,涟源市,27.69254528571429,111.67294142857145,6,8,蓝田商圈
778,430682,南正街,430682,430682,430000,430600,430682,湖南省,岳阳市,临湘市,29.47212946153847,113.45481530769229,3,10,南正街商圈
779,430623,西正街,430623,430623,430000,430600,430623,湖南省,岳阳市,华容县,29.521085,112.56424600000001,2,4,西正街商圈
780,430602,步行街,430602,430602,430000,430600,430602,湖南省,岳阳市,岳阳楼区,29.36939742105262,113.13069850000021,22,54,步行街商圈
781,430681,建设中路,430681,430681,430000,430600,430681,湖南省,岳阳市,汨罗市,28.804133999999994,113.08203299999998,5,8,建设中路商圈
782,430703,桥南,430703,430703,430000,430700,430703,湖南省,常德市,鼎城区,29.007932999999994,111.68766600000002,9,8,桥南商圈
783,430821,零阳中路,430821,430821,430000,430800,430821,湖南省,张家界市,慈利县,29.420167999999997,111.12529500000002,5,4,零阳中路商圈
784,430802,步行街,430802,430802,430000,430800,430802,湖南省,张家界市,永定区,29.12864061538462,110.48089382051279,17,22,步行街商圈
785,431227,解放路,431227,431227,430000,431200,431227,湖南省,怀化市,新晃侗族自治县,27.360525,109.174234,2,2,解放路商圈
786,431230,长征中路,431230,431230,430000,431200,431230,湖南省,怀化市,通道侗族自治县,26.156866,109.782978,1,4,长征中路商圈
787,431202,怀化,431202,431202,430000,431200,431202,湖南省,怀化市,鹤城区,27.5482686923077,109.9792371923076,20,58,怀化商圈
788,431226,富州南路,431226,431226,430000,431200,431226,湖南省,怀化市,麻阳苗族自治县,27.856681000000002,109.806598,5,4,富州南路商圈
789,430211,珠江南路,430211,430211,430000,430200,430211,湖南省,株洲市,天元区,27.819322947368416,113.13849123684199,27,49,珠江南路商圈
790,430223,望云东路,430223,430223,430000,430200,430223,湖南省,株洲市,攸县,26.999371,113.34556500000001,5,9,望云东路商圈
791,430225,文化路,430225,430225,430000,430200,430225,湖南省,株洲市,炎陵县,26.485418,113.776324,3,3,文化路商圈
792,430281,黄泥坳,430281,430281,430000,430200,430281,湖南省,株洲市,醴陵市,27.67022200000001,113.49295099999996,9,10,黄泥坳商圈
793,431103,河东,431103,431103,430000,431100,431103,湖南省,永州市,冷水滩区,26.438259999999996,111.60779000000001,17,28,河东商圈
794,431126,九嶷南路,431126,431126,430000,431100,431126,湖南省,永州市,宁远县,25.572059,111.949045,3,0,九嶷南路商圈
795,431129,春晓,431129,431129,430000,431100,431129,湖南省,永州市,江华瑶族自治县,25.184428,111.57860500000001,3,6,春晓商圈
796,431124,西洲,431124,431124,430000,431100,431124,湖南省,永州市,道县,25.509476,111.591623,1,4,西洲商圈
797,430304,建设路口,430304,430304,430000,430300,430304,湖南省,湘潭市,岳塘区,27.833230999999998,112.92023900000002,17,27,建设路口商圈
798,430381,大正街,430381,430381,430000,430300,430381,湖南省,湘潭市,湘乡市,27.732701,112.53015345454547,7,4,大正街商圈
799,430321,凤凰中路,430321,430321,430000,430300,430321,湖南省,湘潭市,湘潭县,27.784812631578944,112.95116763157897,3,16,凤凰中路商圈
800,433101,人民南路,433101,433101,430000,433100,433101,湖南省,湘西土家族苗族自治州,吉首市,28.29110779310345,109.72516586206899,9,20,人民南路商圈
801,433122,建设路,433122,433122,430000,433100,433122,湖南省,湘西土家族苗族自治州,泸溪县,28.213691,110.217026,1,1,建设路商圈
802,433130,朝阳路,433130,433130,430000,433100,433130,湖南省,湘西土家族苗族自治州,龙山县,29.455401,109.44228199999999,4,8,朝阳路商圈
803,430922,桃花中路,430922,430922,430000,430900,430922,湖南省,益阳市,桃江县,28.522406999999998,112.13485000000001,3,3,桃花中路商圈
804,430981,琼湖,430981,430981,430000,430900,430981,湖南省,益阳市,沅江市,28.83732800000001,112.365223,4,9,琼湖商圈
805,430902,桥北,430902,430902,430000,430900,430902,湖南省,益阳市,资阳区,28.594806999999975,112.334159,9,24,桥北商圈
806,430903,益阳大道,430903,430903,430000,430900,430903,湖南省,益阳市,赫山区,28.567003035714286,112.3709748571429,7,21,益阳大道商圈
807,430481,蔡子池,430481,430481,430000,430400,430481,湖南省,衡阳市,耒阳市,26.40760599999999,112.85525400000004,7,17,蔡子池商圈
808,430502,东风路,430502,430502,430000,430500,430502,湖南省,邵阳市,双清区,27.238671000000014,111.47688800000009,9,50,东风路商圈
809,431002,南湖路,431002,431002,430000,431000,431002,湖南省,郴州市,北湖区,25.790673176470573,113.02383817647058,18,50,南湖路商圈
810,431081,东江中路,431081,431081,430000,431000,431081,湖南省,郴州市,资兴市,25.9732185,113.23469699999998,6,8,东江中路商圈
811,430103,黄兴路,430103,430103,430000,430100,430103,湖南省,长沙市,天心区,28.18602108235288,112.97573388235296,28,142,黄兴路商圈
812,430111,侯家塘,430111,430103,430000,430100,430103,湖南省,长沙市,天心区,28.15269063917527,113.01817983505151,15,82,侯家塘商圈
813,430102,五一广场,430102,430103,430000,430100,430103,湖南省,长沙市,天心区,28.195381079545463,113.0150056363635,22,66,五一广场商圈
814,430104,观沙岭,430104,430104,430000,430100,430104,湖南省,长沙市,岳麓区,28.22569760937497,112.91844540625003,8,56,观沙岭商圈
815,430181,集里,430181,430181,430000,430100,430181,湖南省,长沙市,浏阳市,28.155741,113.619616,1,0,集里商圈
816,622901,民主西路,622901,622901,620000,622900,622901,甘肃省,临夏回族自治州,临夏市,35.598711999999985,103.19923199999995,15,11,民主西路商圈
817,622925,南街,622925,622925,620000,622900,622925,甘肃省,临夏回族自治州,和政县,35.42812700000001,103.35188300000002,5,5,南街商圈
818,622924,西街,622924,622924,620000,622900,622924,甘肃省,临夏回族自治州,广河县,35.48146,103.570281,2,0,西街商圈
819,622923,川中路,622923,622923,620000,622900,622923,甘肃省,临夏回族自治州,永靖县,35.939086999999994,103.32178999999998,9,3,川中路商圈
820,620103,西湖,620103,620103,620000,620100,620103,甘肃省,兰州市,七里河区,36.06481299999998,103.79192800000007,11,27,西湖商圈
821,620102,雁滩,620102,620102,620000,620100,620102,甘肃省,兰州市,城关区,36.0594926751593,103.88022178343981,14,143,雁滩商圈
822,620105,安宁东路,620105,620105,620000,620100,620105,甘肃省,兰州市,安宁区,36.098852999999984,103.74476099999995,8,30,安宁东路商圈
823,620123,城关,620123,620123,620000,620100,620123,甘肃省,兰州市,榆中县,35.844765,104.11496,3,6,城关商圈
824,620111,花庄,620111,620111,620000,620100,620111,甘肃省,兰州市,红古区,36.346154000000006,102.85472800000001,6,3,花庄商圈
825,620104,玉门街,620104,620104,620000,620100,620104,甘肃省,兰州市,西固区,36.100889,103.63121099999996,9,3,玉门街商圈
826,620525,解放西路,620525,620525,620000,620500,620525,甘肃省,天水市,张家川回族自治县,34.992676,106.207266,2,1,解放西路商圈
827,620524,南滨河路,620524,620524,620000,620500,620524,甘肃省,天水市,武山县,34.723962,104.89821099999999,3,3,南滨河路商圈
828,620521,充国路,620521,620521,620000,620500,620521,甘肃省,天水市,清水县,34.755257,106.133646,4,3,充国路商圈
829,620523,像山中路,620523,620523,620000,620500,620523,甘肃省,天水市,甘谷县,34.737433,105.334819,6,6,像山中路商圈
830,620502,天水,620502,620502,620000,620500,620502,甘肃省,天水市,秦州区,34.57557999999997,105.727766,17,24,天水商圈
831,621124,背斗巷,621124,621124,620000,621100,621124,甘肃省,定西市,临洮县,35.38355576923077,103.86175823076927,3,10,背斗巷商圈
832,621122,广场,621122,621122,620000,621100,621122,甘肃省,定西市,陇西县,35.00075900000001,104.64998199999998,9,4,广场商圈
833,620826,北街,620826,620826,620000,620800,620826,甘肃省,平凉市,静宁县,35.51078523076922,105.73755284615385,8,5,北街商圈
834,621002,庆阳,621002,621002,620000,621000,621002,甘肃省,庆阳市,西峰区,35.738767352941146,107.6399018039217,15,36,庆阳商圈
835,620702,张掖,620702,620702,620000,620700,620702,甘肃省,张掖市,甘州区,38.93840799999999,100.46371499999994,20,33,张掖商圈
836,620724,人民西路,620724,620724,620000,620700,620724,甘肃省,张掖市,高台县,39.37524,99.81297000000002,5,2,人民西路商圈
837,620622,商业步行街,620622,620622,620000,620600,620622,甘肃省,武威市,古浪县,37.474004,102.896827,1,3,商业步行街商圈
838,623021,临潭县西大街,623021,623021,620000,623000,623021,甘肃省,甘南藏族自治州,临潭县,34.691219,103.35337400000002,4,2,临潭县西大街商圈
839,623022,噶吉街,623022,623022,620000,623000,623022,甘肃省,甘南藏族自治州,卓尼县,34.588195,103.508104,2,1,噶吉街商圈
840,623001,伊合昂,623001,623001,620000,623000,623001,甘肃省,甘南藏族自治州,合作市,34.989788,102.908746,3,2,伊合昂商圈
841,623025,团结东路,623025,623025,620000,623000,623025,甘肃省,甘南藏族自治州,玛曲县,33.997253,102.077487,3,0,团结东路商圈
842,620423,昌林路,620423,620423,620000,620400,620423,甘肃省,白银市,景泰县,37.19135899999999,104.06112800000002,4,6,昌林路商圈
843,620421,意大利风情街,620421,620421,620000,620400,620421,甘肃省,白银市,靖远县,36.565428,104.681102,6,3,意大利风情街商圈
844,620982,阳关中路,620982,620982,620000,620900,620982,甘肃省,酒泉市,敦煌市,40.14136299999999,94.6594,14,5,阳关中路商圈
845,620902,东大街,620902,620902,620000,620900,620902,甘肃省,酒泉市,肃州区,39.74437600000003,98.51376100000007,11,29,东大街商圈
846,620321,西街,620321,620321,620000,620300,620321,甘肃省,金昌市,永昌县,38.248806,101.967366,3,2,西街商圈
847,621227,南街,621227,621227,620000,621200,621227,甘肃省,陇南市,徽县,33.76654,106.087218,1,2,南街商圈
848,350404,东新四路,350404,350404,350000,350400,350404,福建省,三明市,三元区,26.262013000000007,117.63485131249996,19,13,东新四路商圈
849,350425,建山路,350425,350425,350000,350400,350425,福建省,三明市,大田县,25.685261,117.848561,4,4,建山路商圈
850,350424,南大街,350424,350424,350000,350400,350424,福建省,三明市,宁化县,26.25330400000001,116.660223,5,6,南大街商圈
851,350426,解放路,350426,350426,350000,350400,350426,福建省,三明市,尤溪县,26.174866999999995,118.19507,1,2,解放路商圈
852,350481,燕北,350481,350481,350000,350400,350481,福建省,三明市,永安市,25.976505,117.36546699999998,2,5,燕北商圈
853,350405,凤岗,350405,350405,350000,350400,350405,福建省,三明市,沙县区,26.396532000000004,117.79348999999999,4,5,凤岗商圈
854,350702,马站,350702,350702,350000,350700,350702,福建省,南平市,延平区,26.65017699999999,118.18473399999998,14,10,马站商圈
855,350783,瓯宁,350783,350783,350000,350700,350783,福建省,南平市,建瓯市,27.022509,118.302215,3,1,瓯宁商圈
856,350703,潭城,350703,350703,350000,350700,350703,福建省,南平市,建阳区,27.330253,118.118351,1,0,潭城商圈
857,350724,松源,350724,350724,350000,350700,350724,福建省,南平市,松溪县,27.525349999999996,118.784637,2,3,松源商圈
858,350722,五一三路,350722,350722,350000,350700,350722,福建省,南平市,浦城县,27.918787,118.531194,1,3,五一三路商圈
859,350781,通泰,350781,350781,350000,350700,350781,福建省,南平市,邵武市,27.335911000000003,117.486997,2,8,通泰商圈
860,350721,双溪,350721,350721,350000,350700,350721,福建省,南平市,顺昌县,26.793428000000002,117.807901,2,4,双溪商圈
861,350212,城西,350212,350212,350000,350200,350212,福建省,厦门市,同安区,24.723616603773586,118.13881467924519,14,39,城西商圈
862,350203,鹭江,350203,350203,350000,350200,350203,福建省,厦门市,思明区,24.471653720430083,118.0927973655913,15,78,鹭江商圈
863,350205,新垵,350205,350205,350000,350200,350205,福建省,厦门市,海沧区,24.525371000000003,118.00092199999996,3,10,新垵商圈
864,350206,禾山,350206,350206,350000,350200,350206,福建省,厦门市,湖里区,24.522276437500004,118.13190618750002,1,15,禾山商圈
865,350213,新店,350213,350213,350000,350200,350213,福建省,厦门市,翔安区,24.639502800000006,118.24837363333332,6,24,新店商圈
866,350211,后溪,350211,350211,350000,350200,350211,福建省,厦门市,集美区,24.58977400000001,118.04510266666666,8,19,后溪商圈
867,350922,建设路,350922,350922,350000,350900,350922,福建省,宁德市,古田县,26.576756777777774,118.74307288888889,5,4,建设路商圈
868,350925,南街,350925,350925,350000,350900,350925,福建省,宁德市,周宁县,27.101481,119.33754400000001,4,1,南街商圈
869,350923,文化西路,350923,350923,350000,350900,350923,福建省,宁德市,屏南县,26.911050999999997,118.98534,3,2,文化西路商圈
870,350981,城北,350981,350981,350000,350900,350981,福建省,宁德市,福安市,27.092211000000002,119.65144499999998,5,9,城北商圈
871,350982,太姥大道,350982,350982,350000,350900,350982,福建省,宁德市,福鼎市,27.307722222222214,120.2256118333333,9,9,太姥大道商圈
872,350902,天湖东路,350902,350902,350000,350900,350902,福建省,宁德市,蕉城区,26.65452869444446,119.54462516666666,14,22,天湖东路商圈
873,350921,目海路,350921,350921,350000,350900,350921,福建省,宁德市,霞浦县,26.881009000000002,120.00809499999997,6,11,目海路商圈
874,350502,温陵路,350502,350503,350000,350500,350503,福建省,泉州市,丰泽区,24.904609000000004,118.59797199999987,18,35,温陵路商圈
875,350503,安吉路,350503,350503,350000,350500,350503,福建省,泉州市,丰泽区,24.927318000000003,118.66381300000005,2,10,安吉路商圈
876,350583,柳城,350583,350583,350000,350500,350583,福建省,泉州市,南安市,24.942269166666666,118.3997905,4,8,柳城商圈
877,350581,湖滨,350581,350581,350000,350500,350581,福建省,泉州市,石狮市,24.732694500000015,118.63804399999997,9,27,湖滨商圈
878,350602,水仙大街,350602,350603,350000,350600,350603,福建省,漳州市,龙文区,24.502028,117.67434199999991,9,22,水仙大街商圈
879,350104,金山,350104,350104,350000,350100,350104,福建省,福州市,仓山区,26.037655535947692,119.30308903267995,36,117,金山商圈
880,350112,福州新区,350112,350104,350000,350100,350104,福建省,福州市,仓山区,25.90867328947369,119.56904672368441,29,47,福州新区商圈
881,350111,五四北,350111,350111,350000,350100,350111,福建省,福州市,晋安区,26.108858368421085,119.31857607017561,33,81,五四北商圈
882,350181,福清,350181,350181,350000,350100,350181,福建省,福州市,福清市,25.716780428571436,119.36120614285717,10,11,福清商圈
883,350121,甘蔗,350121,350121,350000,350100,350121,福建省,福州市,闽侯县,26.00287091304348,119.27281339130437,5,18,甘蔗商圈
884,350105,琅岐,350105,350105,350000,350100,350105,福建省,福州市,马尾区,26.009428666666665,119.4808911111111,3,6,琅岐商圈
885,350302,荔城南大道,350302,350302,350000,350300,350302,福建省,莆田市,城厢区,25.416097099999995,118.98654559999997,1,9,荔城南大道商圈
886,350802,中山东路,350802,350802,350000,350800,350802,福建省,龙岩市,新罗区,25.08617103571429,117.02753851785715,21,35,中山东路商圈
887,350824,东大街,350824,350824,350000,350800,350824,福建省,龙岩市,武平县,25.09009,116.104947,2,2,东大街商圈
888,350803,环城东路,350803,350803,350000,350800,350803,福建省,龙岩市,永定区,24.72152,116.732522,2,0,环城东路商圈
889,350881,菁城,350881,350881,350000,350800,350881,福建省,龙岩市,漳平市,25.289805142857144,117.4240622857143,4,3,菁城商圈
890,540202,珠峰中路,540202,540202,540000,540200,540202,西藏自治区,日喀则市,桑珠孜区,29.263752000000004,88.88376300000002,6,3,珠峰中路商圈
891,540602,辽宁中路,540602,540602,540000,540600,540602,西藏自治区,那曲市,色尼区,31.473888,92.05973,1,0,辽宁中路商圈
892,520281,凤鸣南路,520281,520281,520000,520200,520281,贵州省,六盘水市,盘州市,25.71139715789473,104.49900768421048,6,13,凤鸣南路商圈
893,520424,关索,520424,520424,520000,520400,520424,贵州省,安顺市,关岭布依族苗族自治县,25.93946,105.620334,2,4,关索商圈
894,520403,安平,520403,520403,520000,520400,520403,贵州省,安顺市,平坝区,26.406171000000004,106.25865399999999,4,7,安平商圈
895,520521,红旗,520521,520521,520000,520500,520521,贵州省,毕节市,大方县,27.142474999999994,105.60704899999998,2,10,红旗商圈
896,520525,雍熙,520525,520525,520000,520500,520525,贵州省,毕节市,纳雍县,26.770783999999995,105.38028799999998,2,5,雍熙商圈
897,520524,文腾,520524,520524,520000,520500,520524,贵州省,毕节市,织金县,26.666998000000003,105.76975700000001,4,3,文腾商圈
898,520523,鼓场,520523,520523,520000,520500,520523,贵州省,毕节市,金沙县,27.46130209090909,106.2280688181818,3,8,鼓场商圈
899,520112,新添寨,520112,520112,520000,520100,520112,贵州省,贵阳市,乌当区,26.634357000000016,106.77248400000005,6,21,新添寨商圈
900,520103,省府路,520103,520103,520000,520100,520103,贵州省,贵阳市,云岩区,26.58049299999997,106.71441299999984,21,82,省府路商圈
901,520102,市南路,520102,520102,520000,520100,520102,贵州省,贵阳市,南明区,26.560346924999983,106.72693931249998,13,67,市南路商圈
902,520121,城关,520121,520121,520000,520100,520121,贵州省,贵阳市,开阳县,27.037109111111118,106.98646811111108,3,6,城关商圈
903,520122,永靖,520122,520122,520000,520100,520122,贵州省,贵阳市,息烽县,27.091642000000004,106.736889,2,7,永靖商圈
904,520181,卫城,520181,520181,520000,520100,520181,贵州省,贵阳市,清镇市,26.76021,106.346962,1,1,卫城商圈
905,520113,大山洞,520113,520113,520000,520100,520113,贵州省,贵阳市,白云区,26.685948000000003,106.63138499999997,6,15,大山洞商圈
906,520111,徐家冲,520111,520111,520000,520100,520111,贵州省,贵阳市,花溪区,26.41836127586208,106.66996417241383,5,24,徐家冲商圈
907,520329,中华中路,520329,520329,520000,520300,520329,贵州省,遵义市,余庆县,27.220452000000005,107.893544,1,2,中华中路商圈
908,520627,解放北路,520627,520627,520000,520600,520627,贵州省,铜仁市,沿河土家族自治县,28.559997000000006,108.49455800000001,2,9,解放北路商圈
909,520622,商务中心步行街,520622,520622,520000,520600,520622,贵州省,铜仁市,玉屏侗族自治县,27.237661,108.91736099999999,3,0,商务中心商圈
910,520602,清水大道,520602,520602,520000,520600,520602,贵州省,铜仁市,碧江区,27.730319000000005,109.197897,2,9,清水大道商圈
911,522624,金穗路,522624,522624,520000,522600,522624,贵州省,黔东南苗族侗族自治州,三穗县,26.956443,108.680529,1,0,金穗路商圈
912,522601,营盘东路,522601,522601,520000,522600,522601,贵州省,黔东南苗族侗族自治州,凯里市,26.5827087179487,107.97870692307693,10,29,营盘东路商圈
913,522627,环城东路,522627,522627,520000,522600,522627,贵州省,黔东南苗族侗族自治州,天柱县,26.907546,109.209786,3,5,环城东路商圈
914,522632,古州北路,522632,522632,520000,522600,522632,贵州省,黔东南苗族侗族自治州,榕江县,25.934282,108.522006,3,1,古州北路商圈
915,522732,建设西路,522732,522732,520000,522700,522732,贵州省,黔南布依族苗族自治州,三都水族自治县,25.981889,107.870324,2,1,建设西路商圈
916,522727,中山路,522727,522727,520000,522700,522727,贵州省,黔南布依族苗族自治州,平塘县,25.831049000000004,107.324791,1,7,中山路商圈
917,522731,惠民西路,522731,522731,520000,522700,522731,贵州省,黔南布依族苗族自治州,惠水县,26.130732,106.66031499999998,5,3,惠民西路商圈
918,522726,南通北路,522726,522726,520000,522700,522726,贵州省,黔南布依族苗族自治州,独山县,25.824512499999997,107.54106349999998,4,4,南通北路商圈
919,522725,瓮水,522725,522725,520000,522700,522725,贵州省,黔南布依族苗族自治州,瓮安县,27.073470769230763,107.48265276923077,5,8,瓮水商圈
920,522701,新华路,522701,522701,520000,522700,522701,贵州省,黔南布依族苗族自治州,都匀市,26.258319000000014,107.51664,13,11,新华路商圈
921,522301,盘江东路,522301,522301,520000,522300,522301,贵州省,黔西南布依族苗族自治州,兴义市,25.085892000000033,104.89776399999997,14,29,盘江东路商圈
922,522302,城南,522302,522302,520000,522300,522302,贵州省,黔西南布依族苗族自治州,兴仁市,25.430394000000003,105.19054300000002,2,7,城南商圈
923,210681,东港,210681,210681,210000,210600,210681,辽宁省,丹东市,东港市,39.88327515384616,124.13382561538457,8,5,东港商圈
924,210202,人民路,210202,210202,210000,210200,210202,辽宁省,大连市,中山区,38.923767,121.65211899999996,4,25,人民路商圈
925,210283,新华,210283,210283,210000,210200,210283,辽宁省,大连市,庄河市,39.70592,122.95819,12,10,新华商圈
926,210212,水师营,210212,210212,210000,210200,210212,辽宁省,大连市,旅顺口区,38.854529,121.246491,1,2,水师营商圈
927,210214,皮口,210214,210214,210000,210200,210214,辽宁省,大连市,普兰店区,39.399568,122.3193415,1,3,皮口商圈
928,210204,辽师,210204,210204,210000,210200,210204,辽宁省,大连市,沙河口区,38.93309061111112,121.56626592592603,22,32,辽师商圈
929,210211,凌水,210211,210204,210000,210200,210204,辽宁省,大连市,沙河口区,38.96189596103899,121.54733074025965,12,65,凌水商圈
930,210213,大孤山,210213,210213,210000,210200,210213,辽宁省,大连市,金州区,39.10574269767444,121.75044669767448,8,35,大孤山商圈
931,210403,东洲大街,210403,210403,210000,210400,210403,辽宁省,抚顺市,东洲区,41.863935,124.04693400000001,1,2,东洲大街商圈
932,210402,南站,210402,210402,210000,210400,210402,辽宁省,抚顺市,新抚区,41.86207599999996,123.90293100000002,13,24,南站商圈
933,210411,河东,210411,210411,210000,210400,210411,辽宁省,抚顺市,顺城区,41.883091,123.94453599999999,3,5,河东商圈
934,211382,市府路西段,211382,211382,210000,211300,211382,辽宁省,朝阳市,凌源市,41.24375700000001,119.403297,5,4,市府路商圈
935,211381,城关,211381,211381,210000,211300,211381,辽宁省,朝阳市,北票市,41.81277999999999,120.77210800000006,10,6,城关商圈
936,211302,黄河路,211302,211302,210000,211300,211302,辽宁省,朝阳市,双塔区,41.594057000000014,120.46040600000003,6,22,黄河路商圈
