[
  {
    "id": "60015882",
    "brand": "DJI",
    "storeName": "北京大兴机场授权体验专区",
    "province": "北京市",
    "city": "北京市",
    "address": "北京大兴国际机场航站楼二层中央商业区西侧S-KS02-001",
    "latitude": 39.3,
    "longitude": 116.24,
    "storeType": "ARS",
    "serviceTags": [
      "可试飞",
      "支持以旧换新"
    ],
    "openingHours": "10:00-22:00",
    "phone": "18513086389"
  },
  {
    "id": "60010731",
    "brand": "DJI",
    "storeName": "沈阳中兴授权体验店",
    "province": "辽宁省",
    "city": "沈阳市",
    "address": "辽宁省沈阳市和平区太原北街86号中兴商业方城五楼",
    "latitude": 41.799012,
    "longitude": 123.407478,
    "storeType": "ARS",
    "serviceTags": [
      "可试飞",
      "支持以旧换新"
    ],
    "openingHours": "9:30-21:30",
    "phone": "13470095951"
  },
  {
    "id": "60015670",
    "brand": "DJI",
    "storeName": "福州东二环泰禾授权体验店",
    "province": "福建省",
    "city": "福州市",
    "address": "\"福建省福州市晋安区竹屿路6号东二环泰禾城市广场三期22#楼项目西区购物中心 一层楼编号为W-L101-2,W-L102-1\"",
    "latitude": 26.0956,
    "longitude": 119.3436,
    "storeType": "ARS",
    "serviceTags": [
      "可试飞",
      "支持以旧换新"
    ],
    "openingHours": "10:00-22:00",
    "phone": "0591-87810306；18982816805"
  },
  {
    "id": "A0500034",
    "brand": "DJI",
    "storeName": "梅州晟邦沿江半岛照材店",
    "province": "广东省",
    "city": "梅州市",
    "address": "梅州市梅县区新城办沿江北路沿江半岛别墅式商住楼B2栋一楼店铺",
    "latitude": 24.300145,
    "longitude": 116.109275,
    "storeType": "新型照材",
    "serviceTags": [
      "可试飞",
      "支持以旧换新"
    ],
    "openingHours": "早上8:30-12:00,下午14:30-21:30",
    "phone": "15807535977"
  },
  {
    "id": "A400322",
    "brand": "DJI",
    "storeName": "DJI 大疆|哈苏 长春卓展概念店",
    "province": "吉林省",
    "city": "长春市",
    "address": "吉林省长春市朝阳区重庆路1255号 长春卓展购物中心（2B-215）",
    "latitude": 43.890612,
    "longitude": 125.3197,
    "storeType": "ARS",
    "serviceTags": [
      "可试飞",
      "支持以旧换新"
    ],
    "openingHours": "10:00~22:00",
    "phone": "15543454551"
  },
  {
    "id": "60012712",
    "brand": "DJI",
    "storeName": "深圳海岸城授权体验店",
    "province": "广东省",
    "city": "深圳市",
    "address": "深圳市南山区粤海街道文心五路33号海岸城广场二层242号商铺",
    "latitude": 22.522959,
    "longitude": 113.942625,
    "storeType": "ARS",
    "serviceTags": [
      "可试飞",
      "支持以旧换新"
    ],
    "openingHours": "10:00-22:00",
    "phone": "0755-86966794,15338802089"
  },
  {
    "id": "60020882",
    "brand": "DJI",
    "storeName": "哈尔滨红博中央公园授权体验店",
    "province": "黑龙江省",
    "city": "哈尔滨市",
    "address": "哈尔滨市南岗区红旗大街339号红博中央公园 公园大道B1大道区B26-1",
    "latitude": 45.763381,
    "longitude": 126.704236,
    "storeType": "ARS",
    "serviceTags": [
      "可试飞",
      "支持以旧换新"
    ],
    "openingHours": "10:00-22:00",
    "phone": "13613622344"
  },
  {
    "id": "60016537",
    "brand": "DJI",
    "storeName": "海口龙湖天街授权体验店",
    "province": "海南省",
    "city": "海口市",
    "address": "海口市龙华区南海大道15号海口天街B-1F-11室",
    "latitude": 19.997067,
    "longitude": 110.328923,
    "storeType": "ARS",
    "serviceTags": [
      "可试飞",
      "支持以旧换新"
    ],
    "openingHours": "10:00-22:00",
    "phone": "19189896201"
  },
  {
    "id": "60005344",
    "brand": "DJI",
    "storeName": "乌鲁木齐吾悦广场授权体验店",
    "province": "新疆维吾尔自治区",
    "city": "乌鲁木齐市",
    "address": "乌鲁木齐市水磨沟区红光山路1666号 会展吾悦广场一楼1013号",
    "latitude": 43.880017,
    "longitude": 87.629325,
    "storeType": "ARS",
    "serviceTags": [
      "可试飞",
      "支持以旧换新"
    ],
    "openingHours": "11:00-22:00",
    "phone": "18690230517"
  },
  {
    "id": "A400337",
    "brand": "DJI",
    "storeName": "天津南开大悦城授权体验店",
    "province": "天津市",
    "city": "天津市",
    "address": "天津市南开区南门外大街2-6号天津大悦城南区2F层2F-B3A商铺",
    "latitude": 39.135522,
    "longitude": 117.180051,
    "storeType": "ARS",
    "serviceTags": [
      "可试飞",
      "支持以旧换新"
    ],
    "openingHours": "10:00~22:00",
    "phone": "15022335062，022-58089377"
  },
  {
    "id": "60000762",
    "brand": "DJI",
    "storeName": "上海环球港授权体验店",
    "province": "上海市",
    "city": "上海市",
    "address": "上海市普陀区中山北路3300号B1185商铺",
    "latitude": 31.232174,
    "longitude": 121.412625,
    "storeType": "ARS",
    "serviceTags": [
      "可试飞",
      "支持以旧换新"
    ],
    "openingHours": "10:00-22:00",
    "phone": "021-52919259"
  },
  {
    "id": "A0400262",
    "brand": "DJI",
    "storeName": "柳州万象城授权体验店",
    "province": "广西壮族自治区",
    "city": "柳州市",
    "address": "广西壮族自治区柳州市鱼峰区万象城L1层111商铺",
    "latitude": 24.322788,
    "longitude": 109.449014,
    "storeType": "ARS",
    "serviceTags": [
      "可试飞",
      "支持以旧换新"
    ],
    "openingHours": "周一至周五:10:00~22:00\n周六至周日:10:00~22:30",
    "phone": "0772-5050115"
  },
  {
    "id": "A0800283",
    "brand": "DJI",
    "storeName": "南阳大域无疆鸿德广场授权体验专区",
    "province": "河南省",
    "city": "南阳市",
    "address": "人民路中心广场西侧鸿德步行街DJI官方授权店",
    "latitude": 32.998249,
    "longitude": 112.540611,
    "storeType": "新型照材",
    "serviceTags": [
      "可试飞",
      "支持以旧换新"
    ],
    "openingHours": "8:30~18:00",
    "phone": "16639988801"
  },
  {
    "id": "60000772",
    "brand": "DJI",
    "storeName": "温州印象城授权体验店",
    "province": "浙江省",
    "city": "温州市",
    "address": "浙江省温州市鹿城区南汇街道府东路333号温州印象城商业中心D29-L1-25号",
    "latitude": 31.06048,
    "longitude": 121.22252,
    "storeType": "ARS",
    "serviceTags": [
      "可试飞",
      "支持以旧换新"
    ],
    "openingHours": "10:00-22:00",
    "phone": "0577-86081787"
  },
  {
    "id": "60002534",
    "brand": "DJI",
    "storeName": "深圳深业上城授权体验专区",
    "province": "广东省",
    "city": "深圳市",
    "address": "深圳市福田区皇岗路5001号深业上城(南区)一期商业L1层中庭体验专区",
    "latitude": 22.558768,
    "longitude": 114.065228,
    "storeType": "ARS",
    "serviceTags": [
      "可试飞",
      "支持以旧换新"
    ],
    "openingHours": "10:00-22:00",
    "phone": "0755-23488157,18925204730"
  },
  {
    "id": "A0400297",
    "brand": "DJI",
    "storeName": "广州凯德乐峰广场授权体验店",
    "province": "广东省",
    "city": "广州市",
    "address": "广东省广州市海珠区工业大道北106-108号乐峰广场B1-S31/S32",
    "latitude": 23.054782,
    "longitude": 113.762701,
    "storeType": "ARS",
    "serviceTags": [
      "可试飞",
      "支持以旧换新"
    ],
    "openingHours": "10:00~22:00",
    "phone": "13316111813；020-34479460"
  },
  {
    "id": "A1000369",
    "brand": "DJI",
    "storeName": "成都迪比特A世界照材店",
    "province": "四川省",
    "city": "成都市",
    "address": "一环路南2段17号",
    "latitude": 30.63994,
    "longitude": 104.07379,
    "storeType": "新型照材",
    "serviceTags": [
      "可试飞",
      "支持以旧换新"
    ],
    "openingHours": "9:30~18:00",
    "phone": "13980818679"
  },
  {
    "id": "A1000753",
    "brand": "DJI",
    "storeName": "淄博实在人利群授权体验专区",
    "province": "山东省",
    "city": "淄博市",
    "address": "山东省淄博市张店区金晶大道与商场东路交叉口利群购物广场一楼",
    "latitude": 36.800046,
    "longitude": 118.054602,
    "storeType": "新型照材",
    "serviceTags": [
      "可试飞",
      "支持以旧换新"
    ],
    "openingHours": "9:00-20:00",
    "phone": "15695412502"
  },
  {
    "id": "A0400244",
    "brand": "DJI",
    "storeName": "宁波万象汇授权体验店",
    "province": "浙江省",
    "city": "宁波市",
    "address": "浙江省宁波市鄞州区钱湖北路267号宁波万象汇商场一层L124铺位",
    "latitude": 29.833625,
    "longitude": 121.568034,
    "storeType": "ARS",
    "serviceTags": [
      "可试飞",
      "支持以旧换新"
    ],
    "openingHours": "10:00-22:00",
    "phone": "0574-88089907"
  },
  {
    "id": "60026166",
    "brand": "DJI",
    "storeName": "武汉武昌万象城授权体验店",
    "province": "湖北省",
    "city": "武汉市",
    "address": "湖北省武汉市武昌区和平大道619号武昌万象城一楼L1018铺位",
    "latitude": 30.590735,
    "longitude": 114.332437,
    "storeType": "ARS",
    "serviceTags": [
      "可试飞",
      "支持以旧换新"
    ],
    "openingHours": "10:00-22:00",
    "phone": "027-86611167,17786469361"
  },
  {
    "id": "60016611",
    "brand": "DJI",
    "storeName": "天津西青大悦汇授权体验店",
    "province": "天津市",
    "city": "天津市",
    "address": "天津市西青区西青大悦汇A馆1F-19",
    "latitude": 39.140439,
    "longitude": 117.090734,
    "storeType": "ARS",
    "serviceTags": [
      "可试飞",
      "支持以旧换新"
    ],
    "openingHours": "10:00-22:00",
    "phone": "13132019943"
  },
  {
    "id": "60000498",
    "brand": "DJI",
    "storeName": "苏州久光百货专营店",
    "province": "江苏省",
    "city": "苏州市",
    "address": "江苏省苏州市吴中区旺墩路268号久光百货一楼1A-M07C+D",
    "latitude": 31.322684,
    "longitude": 120.715926,
    "storeType": "新型照材",
    "serviceTags": [
      "可试飞",
      "支持以旧换新"
    ],
    "openingHours": "10:00-21:40",
    "phone": "18913798042"
  },
  {
    "id": "AD101414",
    "brand": "DJI",
    "storeName": "福州懿昇长鸿数码授权体验专区",
    "province": "福建省",
    "city": "福州市",
    "address": "福州市鼓楼区津泰路18号",
    "latitude": 26.08129,
    "longitude": 119.301044,
    "storeType": "新型照材",
    "serviceTags": [
      "可试飞",
      "支持以旧换新"
    ],
    "openingHours": "周一至周日09:00-21:00",
    "phone": "0591-88595329"
  },
  {
    "id": "A0100104",
    "brand": "DJI",
    "storeName": "东莞民盈国贸授权体验店",
    "province": "广东省",
    "city": "东莞市",
    "address": "广东省东莞市东城街道鸿福路200号民盈国贸城一楼1038A-B铺",
    "latitude": 23.012531,
    "longitude": 113.759478,
    "storeType": "ARS",
    "serviceTags": [
      "可试飞",
      "支持以旧换新"
    ],
    "openingHours": "周日~周四10:00~22:00,周五周六10:00~22:30",
    "phone": "18824337951"
  },
  {
    "id": "A0400061",
    "brand": "DJI",
    "storeName": "西安大智无疆百瑞未来城照材店",
    "province": "陕西省",
    "city": "西安市",
    "address": "雁塔路中段58号百瑞未来城一楼A-1-13",
    "latitude": 34.232886,
    "longitude": 108.963372,
    "storeType": "新型照材",
    "serviceTags": [
      "可试飞",
      "支持以旧换新"
    ],
    "openingHours": "9:00~19:00",
    "phone": "15389189838"
  },
  {
    "id": "60020021",
    "brand": "DJI",
    "storeName": "银川新百中心授权体验店",
    "province": "宁夏回族自治区",
    "city": "银川市",
    "address": "宁夏省银川市兴庆区新华东街97号新华百货新百中心第一层001CF1013号商铺",
    "latitude": 38.46,
    "longitude": 106.28,
    "storeType": "ARS",
    "serviceTags": [
      "可试飞",
      "支持以旧换新"
    ],
    "openingHours": "10:00-22:00",
    "phone": "17752318448"
  },
  {
    "id": "A0400314",
    "brand": "DJI",
    "storeName": "中山大信新都汇授权体验店",
    "province": "广东省",
    "city": "中山市",
    "address": "广东省中山市石岐区莲员东路2号大信新都汇B座首层1FA16号大疆体验店",
    "latitude": 22.532876,
    "longitude": 113.382649,
    "storeType": "ARS",
    "serviceTags": [
      "可试飞",
      "支持以旧换新"
    ],
    "openingHours": "周日~周四10:00~22:00 ,周五周六10:00~22:30",
    "phone": "19966323367"
  },
  {
    "id": "60032040",
    "brand": "DJI",
    "storeName": "郑州郑东万象城授权体验店",
    "province": "河南省",
    "city": "郑州市",
    "address": "河南省郑州市金水区金水东路与东风南路交叉口郑东万象城北区2楼L229大疆",
    "latitude": 34.46,
    "longitude": 113.453,
    "storeType": "ARS",
    "serviceTags": [
      "可试飞",
      "支持以旧换新"
    ],
    "openingHours": "10:00-22:00",
    "phone": "18637155616"
  },
  {
    "id": "A1000390",
    "brand": "DJI",
    "storeName": "深圳万象天地授权高级体验店",
    "province": "广东省",
    "city": "深圳市",
    "address": "深圳市南山区粤海街道大冲社区深南大道9668号万象天地5楼 SL520 DJI大疆店",
    "latitude": 22.542026,
    "longitude": 113.95578,
    "storeType": "ARS",
    "serviceTags": [
      "可试飞",
      "支持以旧换新"
    ],
    "openingHours": "周日~周四:10:00~22:00   \n周五~周六:10:00~22:30",
    "phone": "0755-26830882,19928704377"
  },
  {
    "id": "60023500",
    "brand": "DJI",
    "storeName": "广州美林天地授权体验店",
    "province": "广东省",
    "city": "广州市",
    "address": "广东省广州市天河区黄埔大道东663号美林M·LIVE天地1F019号",
    "latitude": 23.111332,
    "longitude": 113.422533,
    "storeType": "ARS",
    "serviceTags": [
      "可试飞",
      "支持以旧换新"
    ],
    "openingHours": "10:00-22:00",
    "phone": "19076044930,020-31600914"
  },
  {
    "id": "A1000701",
    "brand": "DJI",
    "storeName": "武汉金明华广埠屯照材售点",
    "province": "湖北省",
    "city": "武汉市",
    "address": "湖北省武汉市洪山区珞喻路312号附3",
    "latitude": 30.528197,
    "longitude": 114.371019,
    "storeType": "新型照材",
    "serviceTags": [
      "可试飞",
      "支持以旧换新"
    ],
    "openingHours": "9:30-20:00",
    "phone": "13720219561"
  },
  {
    "id": "60024420",
    "brand": "DJI",
    "storeName": "漯河倚天昌建外滩照材店",
    "province": "河南省",
    "city": "漯河市",
    "address": "河南省漯河市源汇区滨河路与交通路交叉口昌建外滩3#楼103",
    "latitude": 33.578399,
    "longitude": 114.038447,
    "storeType": "新型照材",
    "serviceTags": [
      "可试飞",
      "支持以旧换新"
    ],
    "openingHours": "9:00-18:30",
    "phone": "19903954313"
  },
  {
    "id": "60015636",
    "brand": "DJI",
    "storeName": "郑州机场授权体验专区",
    "province": "河南省",
    "city": "郑州市",
    "address": "河南省郑州市新郑国际机场T2航站楼三层候机厅236登机口",
    "latitude": 34.517952,
    "longitude": 113.867607,
    "storeType": "ARS",
    "serviceTags": [
      "可试飞",
      "支持以旧换新"
    ],
    "openingHours": "8：30-21:30",
    "phone": "13140066677"
  },
  {
    "id": "A1000569",
    "brand": "DJI",
    "storeName": "沈阳嘉信创达东软电脑城照材店",
    "province": "辽宁省",
    "city": "沈阳市",
    "address": "辽宁省沈阳市和平区三好街东软电脑城1A098",
    "latitude": 41.767197,
    "longitude": 123.42744,
    "storeType": "新型照材",
    "serviceTags": [
      "可试飞",
      "支持以旧换新"
    ],
    "openingHours": "9:00~17:00",
    "phone": "13704030267"
  },
  {
    "id": "A0400370",
    "brand": "DJI",
    "storeName": "武汉宜家荟聚授权体验店",
    "province": "湖北省",
    "city": "武汉市",
    "address": "湖北省武汉市硚口区园博大道1号武汉荟聚中心02B04铺位",
    "latitude": 30.616706,
    "longitude": 114.166393,
    "storeType": "ARS",
    "serviceTags": [
      "可试飞",
      "支持以旧换新"
    ],
    "openingHours": "周一至周日10:00~22:00",
    "phone": "027-83237580"
  },
  {
    "id": "60016603",
    "brand": "DJI",
    "storeName": "泉州中骏授权体验店",
    "province": "福建省",
    "city": "泉州市",
    "address": "福建省泉州市丰泽区安吉南路869号中骏世界城M135单元商铺",
    "latitude": 24.921936,
    "longitude": 118.653347,
    "storeType": "ARS",
    "serviceTags": [
      "可试飞",
      "支持以旧换新"
    ],
    "openingHours": "10:00-22:00",
    "phone": "18900387675,0595-22017580"
  },
  {
    "id": "A0300012",
    "brand": "DJI",
    "storeName": "DJI 大疆|哈苏 武汉武商MALL概念店",
    "province": "湖北省",
    "city": "武汉市",
    "address": "湖北省武汉市江汉区解放大道690号武商MALL商场C座3楼C3-5铺位",
    "latitude": 30.58003,
    "longitude": 114.27034,
    "storeType": "ARS",
    "serviceTags": [
      "可试飞",
      "支持以旧换新"
    ],
    "openingHours": "周一至周日10:00~22:00",
    "phone": "15927441545"
  },
  {
    "id": "AD101397",
    "brand": "DJI",
    "storeName": "杭州索通贸易省家电照材店",
    "province": "浙江省",
    "city": "杭州市",
    "address": "杭州上城区秋涛北路128号一楼B26-B28",
    "latitude": 30.268577,
    "longitude": 120.201927,
    "storeType": "新型照材",
    "serviceTags": [
      "可试飞",
      "支持以旧换新"
    ],
    "openingHours": "10:00-22:00",
    "phone": "13666626330"
  },
  {
    "id": "60028950",
    "brand": "DJI",
    "storeName": "DJI 大疆|哈苏 深圳机场概念店",
    "province": "广东省",
    "city": "深圳市",
    "address": "深圳市宝安区宝安国际机场T3航站楼3F国内出发层 3C-04-04、3C-04-05、3C-04-06",
    "latitude": 22.627994,
    "longitude": 113.806732,
    "storeType": "ARS",
    "serviceTags": [
      "可试飞",
      "支持以旧换新"
    ],
    "openingHours": "07:00-22:00",
    "phone": "18948798619"
  },
  {
    "id": "A0400302",
    "brand": "DJI",
    "storeName": "上海浦东嘉里授权体验店",
    "province": "上海市",
    "city": "上海市",
    "address": "上海市浦东新区花木路1378号浦东嘉里城2层L219B",
    "latitude": 31.215321,
    "longitude": 121.563246,
    "storeType": "ARS",
    "serviceTags": [
      "可试飞",
      "支持以旧换新"
    ],
    "openingHours": "10:00~22:00",
    "phone": "021-58586906"
  },
  {
    "id": "A1000509",
    "brand": "DJI",
    "storeName": "无锡香榭花园照材售点",
    "province": "江苏省",
    "city": "无锡市",
    "address": "江苏省无锡市梁溪区县前西街238号",
    "latitude": 31.587483,
    "longitude": 120.294453,
    "storeType": "新型照材",
    "serviceTags": [
      "可试飞",
      "支持以旧换新"
    ],
    "openingHours": "9:00~17:30",
    "phone": "0510-82300336;13921285677"
  },
  {
    "id": "60036231",
    "brand": "DJI",
    "storeName": "莆田城厢万达授权体验店",
    "province": "福建省",
    "city": "莆田市",
    "address": "福建省莆田市城厢区霞林街道荔华东大道8号莆田万达广场1022B、1023号铺位",
    "latitude": 25.419062,
    "longitude": 118.994261,
    "storeType": "ARS",
    "serviceTags": [
      "可试飞",
      "支持以旧换新"
    ],
    "openingHours": "10:00-22:00",
    "phone": "0594-2997616,18950720359"
  },
  {
    "id": "A1000696",
    "brand": "DJI",
    "storeName": "德州影友万达金街授权体验专区",
    "province": "山东省",
    "city": "德州市",
    "address": "山东省德州市新河路与东地南大街交叉口西30米万达南广场22-16DJI大疆",
    "latitude": 37.444297,
    "longitude": 116.310099,
    "storeType": "新型照材",
    "serviceTags": [
      "可试飞",
      "支持以旧换新"
    ],
    "openingHours": "8:30~18:00",
    "phone": "18605340919"
  },
  {
    "id": "A0400313",
    "brand": "DJI",
    "storeName": "长沙宜家荟聚授权体验店",
    "province": "湖南省",
    "city": "长沙市",
    "address": "长沙市岳麓区洋湖路253号荟聚1F02T",
    "latitude": 28.12323,
    "longitude": 112.945451,
    "storeType": "ARS",
    "serviceTags": [
      "可试飞",
      "支持以旧换新"
    ],
    "openingHours": "周一至周日10:00~22:00",
    "phone": "0731-85860578"
  },
  {
    "id": "A1000396",
    "brand": "DJI",
    "storeName": "喀什华鑫盛腾人民西路照材售点",
    "province": "新疆维吾尔自治区",
    "city": "喀什地区",
    "address": "喀什市金座数码广场101号",
    "latitude": 39.466854,
    "longitude": 75.974536,
    "storeType": "新型照材",
    "serviceTags": [
      "可试飞",
      "支持以旧换新"
    ],
    "openingHours": "10:00~20:00",
    "phone": "13369899308,18806007053"
  },
  {
    "id": "A400335",
    "brand": "DJI",
    "storeName": "福州东百中心授权体验店",
    "province": "福建省",
    "city": "福州市",
    "address": "福建省福州市鼓楼区八一七北路128号东百中心C2馆C2-102",
    "latitude": 26.086423,
    "longitude": 119.295105,
    "storeType": "ARS",
    "serviceTags": [
      "可试飞",
      "支持以旧换新"
    ],
    "openingHours": "10:00~22:00",
    "phone": "13306922779,0591-83721923"
  },
  {
    "id": "A400336",
    "brand": "DJI",
    "storeName": "保定北国先天下授权体验店",
    "province": "河北省",
    "city": "保定市",
    "address": "河北省保定市竞秀区朝阳北大街799号先天下1F东中庭扶梯旁L166",
    "latitude": 38.890178,
    "longitude": 115.468745,
    "storeType": "ARS",
    "serviceTags": [
      "可试飞",
      "支持以旧换新"
    ],
    "openingHours": "10:00~2100",
    "phone": "19312584666"
  },
  {
    "id": "A0400091",
    "brand": "DJI",
    "storeName": "台州悦新电子数码城照材售点",
    "province": "浙江省",
    "city": "台州市",
    "address": "浙江省台州市路桥区台州电子数码城一层1E08,1E09室",
    "latitude": 28.595995,
    "longitude": 121.37646,
    "storeType": "新型照材",
    "serviceTags": [
      "可试飞",
      "支持以旧换新"
    ],
    "openingHours": "9:00-17:00",
    "phone": "13306570175"
  },
  {
    "id": "A0500030",
    "brand": "DJI",
    "storeName": "石家庄小林数码美城大厦照材店",
    "province": "河北省",
    "city": "石家庄市",
    "address": "河北省石家庄市桥西区裕华路休门街交口美城大厦底商小林数码",
    "latitude": 38.048088,
    "longitude": 114.479007,
    "storeType": "新型照材",
    "serviceTags": [
      "可试飞",
      "支持以旧换新"
    ],
    "openingHours": "周一至周日08:30-18:00",
    "phone": "0311-86082345，13931893911"
  },
  {
    "id": "A1000758",
    "brand": "DJI",
    "storeName": "北京锐度神舟大厦照材店",
    "province": "北京市",
    "city": "北京市",
    "address": "北京市海淀区神舟大厦东侧底商",
    "latitude": 39.952849,
    "longitude": 116.330423,
    "storeType": "新型照材",
    "serviceTags": [
      "可试飞",
      "支持以旧换新"
    ],
    "openingHours": "9.30-17：30",
    "phone": "13801304776"
  },
  {
    "id": "A0300015",
    "brand": "DJI",
    "storeName": "北京王府井APM授权高级体验店",
    "province": "北京市",
    "city": "北京市",
    "address": "北京市东城区王府井大街138号apm购物中心B区L205",
    "latitude": 39.914466,
    "longitude": 116.411713,
    "storeType": "ARS",
    "serviceTags": [
      "可试飞",
      "支持以旧换新"
    ],
    "openingHours": "10:00~22:00",
    "phone": "18611680060"
  },
  {
    "id": "A1000061",
    "brand": "DJI",
    "storeName": "南京环龙熙南里照材店",
    "province": "江苏省",
    "city": "南京市",
    "address": "江苏省南京市秦淮区熙南里大板巷75号",
    "latitude": 32.049342,
    "longitude": 118.793591,
    "storeType": "新型照材",
    "serviceTags": [
      "可试飞",
      "支持以旧换新"
    ],
    "openingHours": "09:00~22:00",
    "phone": "18651615155"
  },
  {
    "id": "A0400333",
    "brand": "DJI",
    "storeName": "DJI 大疆|哈苏 哈尔滨卓展概念店",
    "province": "黑龙江省",
    "city": "哈尔滨市",
    "address": "黑龙江省哈尔滨市道里区上海街99号卓展购物中心B座1-006",
    "latitude": 45.757727,
    "longitude": 126.605634,
    "storeType": "ARS",
    "serviceTags": [
      "可试飞",
      "支持以旧换新"
    ],
    "openingHours": "10:00~21:00",
    "phone": "18246126256"
  },
  {
    "id": "60015401",
    "brand": "DJI",
    "storeName": "沧州吾悦广场授权体验店",
    "province": "河北省",
    "city": "沧州市",
    "address": "河北省沧州市运河区永安南大道与海河路交口吾悦广场1F -1026号",
    "latitude": 38.27912,
    "longitude": 116.834854,
    "storeType": "ARS",
    "serviceTags": [
      "可试飞",
      "支持以旧换新"
    ],
    "openingHours": "\"周一至周四10:00-21:30 周五至周日10:00-22:00\"",
    "phone": "19041772363"
  },
  {
    "id": "A400318",
    "brand": "DJI",
    "storeName": "贵阳逸天城授权体验店",
    "province": "贵州省",
    "city": "贵阳市",
    "address": "贵阳市南明区市南路42号，保利国贸逸天城1F129号（直梯旁）",
    "latitude": 26.562751,
    "longitude": 106.72335,
    "storeType": "ARS",
    "serviceTags": [
      "可试飞",
      "支持以旧换新"
    ],
    "openingHours": "10:00~22:00",
    "phone": "0851-85516139"
  },
  {
    "id": "A0400329",
    "brand": "DJI",
    "storeName": "拉萨柳梧万达授权体验店",
    "province": "西藏自治区",
    "city": "拉萨市",
    "address": "西藏自治区拉萨市柳梧新区柳梧万达广场一楼1022商铺（近二号门）",
    "latitude": 29.563808,
    "longitude": 91.03095,
    "storeType": "ARS",
    "serviceTags": [
      "可试飞",
      "支持以旧换新"
    ],
    "openingHours": "周日-周四11:00-22:00,周五-周六11:00-22:30",
    "phone": "13298910080"
  },
  {
    "id": "A1000715",
    "brand": "DJI",
    "storeName": "兰州联盛畅想东岗西路照材售点",
    "province": "甘肃省",
    "city": "兰州市",
    "address": "兰州市城关区渭源路34号",
    "latitude": 36.055121,
    "longitude": 103.869673,
    "storeType": "新型照材",
    "serviceTags": [
      "可试飞",
      "支持以旧换新"
    ],
    "openingHours": "9:00~18:00",
    "phone": "15693253771"
  },
  {
    "id": "A0400010",
    "brand": "DJI",
    "storeName": "福州福莱大利嘉城专营店",
    "province": "福建省",
    "city": "福州市",
    "address": "福州市台江区五一中路169号大利嘉A1-2",
    "latitude": 26.068324,
    "longitude": 119.313596,
    "storeType": "新型照材",
    "serviceTags": [
      "可试飞",
      "支持以旧换新"
    ],
    "openingHours": "9:00~19:00",
    "phone": "0591-83355614"
  },
  {
    "id": "60037313",
    "brand": "DJI",
    "storeName": "宁波环球银泰城授权体验店",
    "province": "浙江省",
    "city": "宁波市",
    "address": "浙江省宁波市鄞州区天童南路 1088 号环球银泰城 1F 108号商铺",
    "latitude": 29.8,
    "longitude": 121.55,
    "storeType": "ARS",
    "serviceTags": [
      "可试飞",
      "支持以旧换新"
    ],
    "openingHours": "周一至周四10：00-21：30，周五至周日10：00-22：00",
    "phone": "18158261271"
  },
  {
    "id": "60000796",
    "brand": "DJI",
    "storeName": "天津恒隆广场授权体验店",
    "province": "天津市",
    "city": "天津市",
    "address": "天津市和平区兴安路166号恒隆广场1012B",
    "latitude": 39.127278,
    "longitude": 117.192052,
    "storeType": "ARS",
    "serviceTags": [
      "可试飞",
      "支持以旧换新"
    ],
    "openingHours": "10:00-22:00",
    "phone": "18102128015"
  },
  {
    "id": "60033829",
    "brand": "DJI",
    "storeName": "蚌埠银泰授权体验店",
    "province": "安徽省",
    "city": "蚌埠市",
    "address": "安徽省蚌埠市蚌山区东海大道4000号1FA1021",
    "latitude": 32.91629,
    "longitude": 117.368119,
    "storeType": "ARS",
    "serviceTags": [
      "可试飞",
      "支持以旧换新"
    ],
    "openingHours": "周一至周日 10：00-22：00",
    "phone": "0552-2060708,17755280788"
  },
  {
    "id": "A0400308",
    "brand": "DJI",
    "storeName": "泰州万象城授权体验店",
    "province": "江苏省",
    "city": "泰州市",
    "address": "江苏省泰州市海陵区永定东路399号泰州华润万象城二期L1层B119b号",
    "latitude": 32.441973,
    "longitude": 119.923799,
    "storeType": "ARS",
    "serviceTags": [
      "可试飞",
      "支持以旧换新"
    ],
    "openingHours": "周日~周四10:00~21:30,周五~周六10:00~22:00",
    "phone": "0523-85688858"
  },
  {
    "id": "A400323",
    "brand": "DJI",
    "storeName": "上海五角场万达授权体验店",
    "province": "上海市",
    "city": "上海市",
    "address": "杨浦区五角场街道万达c区1203大疆",
    "latitude": 31.302669,
    "longitude": 121.516116,
    "storeType": "ARS",
    "serviceTags": [
      "可试飞",
      "支持以旧换新"
    ],
    "openingHours": "10:00~22:00",
    "phone": "021-35073360"
  },
  {
    "id": "60001010",
    "brand": "DJI",
    "storeName": "DJI大疆 深圳旗舰店",
    "province": "广东省",
    "city": "深圳市",
    "address": "深圳市南山区沙河街道东方社区滨海大道2008号旅游信息中心1层",
    "latitude": 22.525966,
    "longitude": 113.98897,
    "storeType": "ARS",
    "serviceTags": [
      "可试飞",
      "支持以旧换新"
    ],
    "openingHours": "\"周日至周四10:00-22:00 周五至周六10:00-22:30\"",
    "phone": "17722495770"
  },
  {
    "id": "60037311",
    "brand": "DJI",
    "storeName": "中山海雅缤纷天地授权体验店",
    "province": "广东省",
    "city": "中山市",
    "address": "广东省中山市南头镇南头大道东3号海雅缤纷广场一楼L107号铺",
    "latitude": 22.72,
    "longitude": 113.31,
    "storeType": "ARS",
    "serviceTags": [
      "可试飞",
      "支持以旧换新"
    ],
    "openingHours": "10:00-22:00",
    "phone": "18576228913"
  },
  {
    "id": "60018993",
    "brand": "DJI",
    "storeName": "珠海环宇城授权体验店",
    "province": "广东省",
    "city": "珠海市",
    "address": "广东省珠海市香洲区前河北路96号(近前山总站)环宇城L1-157C",
    "latitude": 22.240903,
    "longitude": 113.530814,
    "storeType": "ARS",
    "serviceTags": [
      "可试飞",
      "支持以旧换新"
    ],
    "openingHours": "10:00-22:00",
    "phone": "18902532306"
  },
  {
    "id": "A0400369",
    "brand": "DJI",
    "storeName": "长沙步步高星城天地授权体验店",
    "province": "湖南省",
    "city": "长沙市",
    "address": "步步高星城天地G层G048",
    "latitude": 28.201932,
    "longitude": 112.869386,
    "storeType": "ARS",
    "serviceTags": [
      "可试飞",
      "支持以旧换新"
    ],
    "openingHours": "周一至周日10:00~22:00",
    "phone": "0731-85950018"
  },
  {
    "id": "A0800269",
    "brand": "DJI",
    "storeName": "百色创科数码碧桂园照材售点",
    "province": "广西壮族自治区",
    "city": "百色市",
    "address": "百色市东洲大道碧桂园翡翠郡7栋110号",
    "latitude": 23.871104,
    "longitude": 106.632119,
    "storeType": "新型照材",
    "serviceTags": [
      "可试飞",
      "支持以旧换新"
    ],
    "openingHours": "周一到周日 9:00-19:00",
    "phone": "0776-2854693,13977698077"
  },
  {
    "id": "A0400339",
    "brand": "DJI",
    "storeName": "深圳龙华壹方天地授权体验店",
    "province": "广东省",
    "city": "深圳市",
    "address": "深圳市龙华区龙华街道壹方天地C区LG层LG-040号商铺",
    "latitude": 22.648011,
    "longitude": 114.028273,
    "storeType": "ARS",
    "serviceTags": [
      "可试飞",
      "支持以旧换新"
    ],
    "openingHours": "周日~周四:10:00~22:00   \n周五~周六:10:00~22:30",
    "phone": "0755-21014142,19926404310"
  },
  {
    "id": "60000989",
    "brand": "DJI",
    "storeName": "温州滨江万象城授权体验店",
    "province": "浙江省",
    "city": "温州市",
    "address": "浙江省温州市鹿城区瓯江路3999号滨江万象城B1层B137A铺位",
    "latitude": 28.016628,
    "longitude": 120.710403,
    "storeType": "ARS",
    "serviceTags": [
      "可试飞",
      "支持以旧换新"
    ],
    "openingHours": "10:00-22:00",
    "phone": "0577-86097065"
  },
  {
    "id": "60037310",
    "brand": "DJI",
    "storeName": "佛山映月湖环宇城授权体验店",
    "province": "广东省",
    "city": "佛山市",
    "address": "广东省佛山市南海区桂澜中路18号中海环宇城F1-L125DJI大疆",
    "latitude": 23.03924,
    "longitude": 113.05796,
    "storeType": "ARS",
    "serviceTags": [
      "可试飞",
      "支持以旧换新"
    ],
    "openingHours": "10:00-22:00",
    "phone": "18202082082"
  },
  {
    "id": "A0400312",
    "brand": "DJI",
    "storeName": "深圳星河COCO Park授权体验店",
    "province": "广东省",
    "city": "深圳市",
    "address": "深圳市福田区福华三路268号福田星河COCOPark北区负一楼B1S-080号商铺",
    "latitude": 22.5332,
    "longitude": 114.054448,
    "storeType": "ARS",
    "serviceTags": [
      "可试飞",
      "支持以旧换新"
    ],
    "openingHours": "周一至周日:10:00~22:00",
    "phone": "0755-83792530/13316548901"
  },
  {
    "id": "A1000582",
    "brand": "DJI",
    "storeName": "DJI 大疆|哈苏 成都IFS概念店",
    "province": "四川省",
    "city": "成都市",
    "address": "四川省成都市锦江区红星路三段1号IFS国际金融中心LG128a",
    "latitude": 30.655328,
    "longitude": 104.08165,
    "storeType": "ARS",
    "serviceTags": [
      "可试飞",
      "支持以旧换新"
    ],
    "openingHours": "周一至周日10:00~22:00",
    "phone": "18508322155"
  },
  {
    "id": "A0400185",
    "brand": "DJI",
    "storeName": "青岛万象城授权高级体验店",
    "province": "山东省",
    "city": "青岛市",
    "address": "山东省青岛市市南区山东路10号万象城5楼506号",
    "latitude": 36.067483,
    "longitude": 120.377828,
    "storeType": "ARS",
    "serviceTags": [
      "可试飞",
      "支持以旧换新"
    ],
    "openingHours": "周日~周四10:00~22:00,周五周六10:00~22:30",
    "phone": "19953225981"
  },
  {
    "id": "60035616",
    "brand": "DJI",
    "storeName": "DJI 大疆|哈苏 天津万象城概念店",
    "province": "天津市",
    "city": "天津市",
    "address": "乐园道9号天津万象城L1-120",
    "latitude": 39.1,
    "longitude": 117.22,
    "storeType": "ARS",
    "serviceTags": [
      "可试飞",
      "支持以旧换新"
    ],
    "openingHours": "10：00-22：00",
    "phone": "022-27729799"
  },
  {
    "id": "60034013",
    "brand": "DJI",
    "storeName": "顺德万象汇授权体验专区",
    "province": "广东省",
    "city": "佛山市",
    "address": "广东省佛山市顺德区大良街道驹荣路3号",
    "latitude": 22.833105,
    "longitude": 113.278801,
    "storeType": "ARS",
    "serviceTags": [
      "可试飞",
      "支持以旧换新"
    ],
    "openingHours": "10:00-22:00",
    "phone": "13590629649"
  },
  {
    "id": "A1000368",
    "brand": "DJI",
    "storeName": "西安长乐东新科贸照材店",
    "province": "陕西省",
    "city": "西安市",
    "address": "雁塔北路东新科贸B座1层101室",
    "latitude": 34.237835,
    "longitude": 108.963525,
    "storeType": "新型照材",
    "serviceTags": [
      "可试飞",
      "支持以旧换新"
    ],
    "openingHours": "9:00~19:00",
    "phone": "18691891121"
  },
  {
    "id": "60035975",
    "brand": "DJI",
    "storeName": "宜兴八佰伴授权体验店",
    "province": "江苏省",
    "city": "无锡市",
    "address": "江苏省无锡市宜兴市解放东路288号L1013",
    "latitude": 31.358368,
    "longitude": 119.843468,
    "storeType": "ARS",
    "serviceTags": [
      "可试飞",
      "支持以旧换新"
    ],
    "openingHours": "10:00-22:00",
    "phone": "18961593790"
  },
  {
    "id": "A0400368",
    "brand": "DJI",
    "storeName": "南宁宜家荟聚授权体验店",
    "province": "广西壮族自治区",
    "city": "南宁市",
    "address": "广西壮族自治区南宁市良庆区平乐大道12号宜家荟聚一楼A03",
    "latitude": 22.722619,
    "longitude": 108.383536,
    "storeType": "ARS",
    "serviceTags": [
      "可试飞",
      "支持以旧换新"
    ],
    "openingHours": "周一至周日:10:00~22:00",
    "phone": "0771-4293020"
  },
  {
    "id": "60026467",
    "brand": "DJI",
    "storeName": "重庆鹅岭二厂授权体验专区",
    "province": "重庆市",
    "city": "重庆市",
    "address": "重庆市渝中区鹅岭正街1号鹅岭二厂文创公园09G-01",
    "latitude": 29.557309,
    "longitude": 106.54672,
    "storeType": "新型照材",
    "serviceTags": [
      "可试飞",
      "支持以旧换新"
    ],
    "openingHours": "周一至周日 10：00-20：30",
    "phone": "15696618650"
  },
  {
    "id": "A1000617",
    "brand": "DJI",
    "storeName": "张家口银座商城照材店",
    "province": "河北省",
    "city": "张家口市",
    "address": "河北省张家口市桥东区胜利北路56号银座商城一层东区大疆无人机体验专区",
    "latitude": 40.804379,
    "longitude": 114.90069,
    "storeType": "新型照材",
    "serviceTags": [
      "可试飞",
      "支持以旧换新"
    ],
    "openingHours": "9:30-21:00",
    "phone": "15803238500"
  },
  {
    "id": "60036229",
    "brand": "DJI",
    "storeName": "南宁五象万象汇授权体验专区",
    "province": "广西壮族自治区",
    "city": "南宁市",
    "address": "广西南宁市良庆区平乐大道37号五象万象汇1楼1号门入口处",
    "latitude": 22.724879,
    "longitude": 108.384986,
    "storeType": "ARS",
    "serviceTags": [
      "可试飞",
      "支持以旧换新"
    ],
    "openingHours": "周天至周四10:00-22:00, 周五至周六10:00-22:30",
    "phone": "19195637049"
  },
  {
    "id": "60008278",
    "brand": "DJI",
    "storeName": "德州澳德乐授权体验专区",
    "province": "山东省",
    "city": "德州市",
    "address": "山东省德州市德城区东风东路1899号澳德乐时代广场一楼天井大疆门店",
    "latitude": 37.429163,
    "longitude": 116.366938,
    "storeType": "ARS",
    "serviceTags": [
      "可试飞",
      "支持以旧换新"
    ],
    "openingHours": "9:30-21:30",
    "phone": "杨硕"
  },
  {
    "id": "A400330",
    "brand": "DJI",
    "storeName": "东莞松山湖万象汇授权体验店",
    "province": "广东省",
    "city": "东莞市",
    "address": "广东省东莞市松山湖万象汇一楼L114大疆DJI",
    "latitude": 22.594139,
    "longitude": 114.13093,
    "storeType": "ARS",
    "serviceTags": [
      "可试飞",
      "支持以旧换新"
    ],
    "openingHours": "周日~周四10:00~22:00 ,周五周六10:00~22:30",
    "phone": "18122882202"
  },
  {
    "id": "60016582",
    "brand": "DJI",
    "storeName": "DJI大疆|哈苏 南宁万象城概念店",
    "province": "广西壮族自治区",
    "city": "南宁市",
    "address": "华润万象城2楼L296号铺",
    "latitude": 22.817004,
    "longitude": 108.398618,
    "storeType": "ARS",
    "serviceTags": [
      "可试飞",
      "支持以旧换新"
    ],
    "openingHours": "10：00-22：00",
    "phone": "0771-5589578"
  },
  {
    "id": "60033809",
    "brand": "DJI",
    "storeName": "西安大明宫万达授权体验店",
    "province": "陕西省",
    "city": "西安市",
    "address": "西安市未央区太华北路369号西安大明宫万达广场1F层1035号",
    "latitude": 34.32,
    "longitude": 108.97,
    "storeType": "ARS",
    "serviceTags": [
      "可试飞",
      "支持以旧换新"
    ],
    "openingHours": "10:00-22:00",
    "phone": "15353675501"
  },
  {
    "id": "60036469",
    "brand": "DJI",
    "storeName": "深圳龙岗万达广场授权体验店",
    "province": "广东省",
    "city": "深圳市",
    "address": "深圳市龙岗区华南二道1号万达广场(华南城店)1F1031A",
    "latitude": 22.67477,
    "longitude": 114.13113,
    "storeType": "ARS",
    "serviceTags": [
      "可试飞",
      "支持以旧换新"
    ],
    "openingHours": "周天至周四10:00-22:00, 周五至周六10:00-22:30",
    "phone": "0755-28283830,18138849130"
  },
  {
    "id": "A400313",
    "brand": "DJI",
    "storeName": "武汉江宸天街授权体验店",
    "province": "湖北省",
    "city": "武汉市",
    "address": "湖北省武汉市江汉区青年路518号江辰龙湖天街一层A-1F-23铺位",
    "latitude": 30.612026,
    "longitude": 114.258382,
    "storeType": "ARS",
    "serviceTags": [
      "可试飞",
      "支持以旧换新"
    ],
    "openingHours": "周一至周日10:00~22:00",
    "phone": "027-83936680/15623609936"
  },
  {
    "id": "60026318",
    "brand": "DJI",
    "storeName": "贵阳亨特授权体验店",
    "province": "贵州省",
    "city": "贵阳市",
    "address": "贵州省贵阳市南明区文昌南路33号亨特国际2号门入口",
    "latitude": 26.581937,
    "longitude": 106.725803,
    "storeType": "ARS",
    "serviceTags": [
      "可试飞",
      "支持以旧换新"
    ],
    "openingHours": "10:00-22:00",
    "phone": "(0851) 84857939"
  },
  {
    "id": "60035569",
    "brand": "DJI",
    "storeName": "南昌红谷滩万达授权体验店",
    "province": "江西省",
    "city": "南昌市",
    "address": "江西省南昌市红谷滩区南昌红谷滩万达广场A区1商业楼01-1077内",
    "latitude": 28.697661,
    "longitude": 115.855389,
    "storeType": "ARS",
    "serviceTags": [
      "可试飞",
      "支持以旧换新"
    ],
    "openingHours": "周一至周日10:00-22:00",
    "phone": "17336202349"
  },
  {
    "id": "60037215",
    "brand": "DJI",
    "storeName": "佛山三水万达授权体验店",
    "province": "广东省",
    "city": "佛山市",
    "address": "广东省佛山市三水区南丰大道13号佛山三水万达广场1楼1056号大疆店铺",
    "latitude": 23.2016,
    "longitude": 112.8823,
    "storeType": "ARS",
    "serviceTags": [
      "可试飞",
      "支持以旧换新"
    ],
    "openingHours": "10:00-22:00",
    "phone": "18898204067"
  },
  {
    "id": "60025490",
    "brand": "DJI",
    "storeName": "大庆让胡路万达授权体验专区",
    "province": "黑龙江省",
    "city": "大庆市",
    "address": "大庆市让胡路区大港路206号万达广场一层",
    "latitude": 46.630466,
    "longitude": 124.874472,
    "storeType": "ARS",
    "serviceTags": [
      "可试飞",
      "支持以旧换新"
    ],
    "openingHours": "9:30-21:30",
    "phone": "18603693996"
  },
  {
    "id": "60023854",
    "brand": "DJI",
    "storeName": "南京城北万象汇授权体验店",
    "province": "江苏省",
    "city": "南京市",
    "address": "江苏省南京市栖霞区栖霞大道106-108号南京城北万象汇B馆1楼-218B号（DJI大疆）",
    "latitude": 31.12296,
    "longitude": 118.83033,
    "storeType": "ARS",
    "serviceTags": [
      "可试飞",
      "支持以旧换新"
    ],
    "openingHours": "周一至周日10:00-22:00",
    "phone": "025-85323216,15651960712"
  },
  {
    "id": "60037534",
    "brand": "DJI",
    "storeName": "平顶山万达授权体验专区",
    "province": "河南省",
    "city": "平顶山市",
    "address": "河南省平顶山市卫东区建设路899号万达广场1F-DJI大疆",
    "latitude": 33.733938,
    "longitude": 113.329667,
    "storeType": "ARS",
    "serviceTags": [
      "可试飞",
      "支持以旧换新"
    ],
    "openingHours": "10:00-22:00",
    "phone": "16603918787"
  },
  {
    "id": "60026207",
    "brand": "DJI",
    "storeName": "西安创意谷授权体验店",
    "province": "陕西省",
    "city": "西安市",
    "address": "陕西省西安市曲江新区雁翔路3369号曲江创意谷LG-43",
    "latitude": 34.21,
    "longitude": 109.01,
    "storeType": "ARS",
    "serviceTags": [
      "可试飞",
      "支持以旧换新"
    ],
    "openingHours": "10:00-22:00",
    "phone": "17765034971"
  },
  {
    "id": "60026356",
    "brand": "DJI",
    "storeName": "汉中吾悦广场授权体验店",
    "province": "陕西省",
    "city": "汉中市",
    "address": "陕西省汉中市汉中市汉台区吾悦广场一楼1F-1042商铺",
    "latitude": 33.07,
    "longitude": 107.0,
    "storeType": "ARS",
    "serviceTags": [
      "可试飞",
      "支持以旧换新"
    ],
    "openingHours": "10:00-22:00",
    "phone": "17734653488"
  },
  {
    "id": "AD100183",
    "brand": "DJI",
    "storeName": "安阳歌群华富广场专区SIS",
    "province": "河南省",
    "city": "安阳市",
    "address": "河南省安阳市文峰区中华路与德隆街交叉口向东10米路北1楼102号",
    "latitude": 36.088,
    "longitude": 114.3968,
    "storeType": "新型照材",
    "serviceTags": [
      "可试飞",
      "支持以旧换新"
    ],
    "openingHours": "周一到周五9:00-20:00,周六到周日 9:00-21:00",
    "phone": "18937260333"
  },
  {
    "id": "60037220",
    "brand": "DJI",
    "storeName": "DJI 大疆|哈苏 昆明恒隆广场概念店",
    "province": "云南省",
    "city": "昆明市",
    "address": "拓东街道办事处东风东路21号昆明恒隆广场商场2楼L219、L221A",
    "latitude": 25.037589,
    "longitude": 102.722337,
    "storeType": "ARS",
    "serviceTags": [
      "可试飞",
      "支持以旧换新"
    ],
    "openingHours": "周天至周四10:00-22:00, 周五至周六10:00-22:30",
    "phone": "0871-64591839"
  },
  {
    "id": "000003",
    "brand": "DJI",
    "storeName": "DJI 大疆|哈苏 北京国贸旗舰店",
    "province": "北京市",
    "city": "北京市",
    "address": "北京市朝阳区建国门外大街1号(二期)一层CL1002B、CL1003、二层CL2003、GL2004铺位",
    "latitude": 39.908349,
    "longitude": 116.44864,
    "storeType": "ARS",
    "serviceTags": [
      "可试飞",
      "支持以旧换新"
    ],
    "openingHours": "10:00~22:00",
    "phone": "010-65915081"
  },
  {
    "id": "A1000408",
    "brand": "DJI",
    "storeName": "郑州正弘城授权体验店",
    "province": "河南省",
    "city": "郑州市",
    "address": "河南省郑州市金水区花园路正弘城负一楼LB05",
    "latitude": 34.796792,
    "longitude": 113.680585,
    "storeType": "ARS",
    "serviceTags": [
      "可试飞",
      "支持以旧换新"
    ],
    "openingHours": "10:00~22:00",
    "phone": "18530052315"
  },
  {
    "id": "A1000682",
    "brand": "DJI",
    "storeName": "长沙致创车站中路照材店",
    "province": "湖南省",
    "city": "长沙市",
    "address": "湖南省长沙市芙蓉区车站中路国储电脑城一楼24号",
    "latitude": 28.192224,
    "longitude": 113.010613,
    "storeType": "新型照材",
    "serviceTags": [
      "可试飞",
      "支持以旧换新"
    ],
    "openingHours": "09:00~18:00",
    "phone": "13714001770"
  },
  {
    "id": "A0400089",
    "brand": "DJI",
    "storeName": "大同魏之都云中路照材店",
    "province": "山西省",
    "city": "大同市",
    "address": "山西省大同市平城区云中路849号大疆创新专营店",
    "latitude": 40.083567,
    "longitude": 113.289031,
    "storeType": "新型照材",
    "serviceTags": [
      "可试飞",
      "支持以旧换新"
    ],
    "openingHours": "9:00~19:00",
    "phone": "13934455223"
  },
  {
    "id": "A0400376",
    "brand": "DJI",
    "storeName": "杭州大悦城授权体验店",
    "province": "浙江省",
    "city": "杭州市",
    "address": "浙江省杭州市拱墅区隐秀路1号大悦城1楼L1-25&26铺位",
    "latitude": 30.296287,
    "longitude": 120.122557,
    "storeType": "ARS",
    "serviceTags": [
      "可试飞",
      "支持以旧换新"
    ],
    "openingHours": "10:00~22:00",
    "phone": "(0571) 8873 3820"
  },
  {
    "id": "A1000481",
    "brand": "DJI",
    "storeName": "东营贝斯特授权体验专区",
    "province": "山东省",
    "city": "东营市",
    "address": "东营市东营区济南路48号贝斯特摄影器材",
    "latitude": 37.46121,
    "longitude": 118.509456,
    "storeType": "新型照材",
    "serviceTags": [
      "可试飞",
      "支持以旧换新"
    ],
    "openingHours": "夏季8:15-18:00，冬季8:15-17:30",
    "phone": "13356640618/13210337893"
  },
  {
    "id": "60026155",
    "brand": "DJI",
    "storeName": "南京雨花万象天地授权体验店",
    "province": "江苏省",
    "city": "南京市",
    "address": "江苏省南京市雨花台区雨花万象天地K座L138店铺（DJI大疆）",
    "latitude": 31.960375,
    "longitude": 118.732803,
    "storeType": "ARS",
    "serviceTags": [
      "可试飞",
      "支持以旧换新"
    ],
    "openingHours": "周一至周日10:00-22:00",
    "phone": "025-52201829,18915929213"
  },
  {
    "id": "60028270",
    "brand": "DJI",
    "storeName": "广州天河领展授权体验店",
    "province": "广东省",
    "city": "广州市",
    "address": "广州市天河区马场路36号领展广场一楼120-1a",
    "latitude": 23.129783,
    "longitude": 113.350619,
    "storeType": "ARS",
    "serviceTags": [
      "可试飞",
      "支持以旧换新"
    ],
    "openingHours": "周一至周日 10:00-22:00",
    "phone": "15360546530,(020)83629214"
  },
  {
    "id": "60016091",
    "brand": "DJI",
    "storeName": "保定万博广场授权体验店",
    "province": "河北省",
    "city": "保定市",
    "address": "河北省保定市竞秀区朝阳北大街99号万博广场1楼1052号",
    "latitude": 38.881957,
    "longitude": 115.476174,
    "storeType": "ARS",
    "serviceTags": [
      "可试飞",
      "支持以旧换新"
    ],
    "openingHours": "10：00-22：00",
    "phone": "16632250123"
  },
  {
    "id": "A0400348",
    "brand": "DJI",
    "storeName": "海口友谊南海城授权体验店",
    "province": "海南省",
    "city": "海口市",
    "address": "海南省海口市龙华区南海大道友谊南海城030号商铺大疆体验店",
    "latitude": 19.996374,
    "longitude": 110.30418,
    "storeType": "ARS",
    "serviceTags": [
      "可试飞",
      "支持以旧换新"
    ],
    "openingHours": "周日~周四10:00~22:00 ,周五周六10:00~22:30",
    "phone": "18189776075"
  },
  {
    "id": "60000996",
    "brand": "DJI",
    "storeName": "上海真如环宇城授权体验店",
    "province": "上海市",
    "city": "上海市",
    "address": "上海市普陀区铜川路真华南路口中海环宇城一层L1027铺位",
    "latitude": 31.249374,
    "longitude": 121.410843,
    "storeType": "ARS",
    "serviceTags": [
      "可试飞",
      "支持以旧换新"
    ],
    "openingHours": "10:00-22:00",
    "phone": "021-62120227"
  },
  {
    "id": "60000774",
    "brand": "DJI",
    "storeName": "洛阳大卫天地授权体验店",
    "province": "河南省",
    "city": "洛阳市",
    "address": "洛阳市西工区中州路与解放路交叉口427号大卫天地1F-40",
    "latitude": 34.662974,
    "longitude": 112.430181,
    "storeType": "ARS",
    "serviceTags": [
      "可试飞",
      "支持以旧换新"
    ],
    "openingHours": "10:00-22:00",
    "phone": "18838831293"
  },
  {
    "id": "60035969",
    "brand": "DJI",
    "storeName": "淮安万象城授权体验店",
    "province": "江苏省",
    "city": "淮安市",
    "address": "江苏省淮安市清江浦区淮海东路辅路淮安万象城F1  L128 店铺",
    "latitude": 33.6,
    "longitude": 119.04,
    "storeType": "ARS",
    "serviceTags": [
      "可试飞",
      "支持以旧换新"
    ],
    "openingHours": "周一-周日10：00-22：00",
    "phone": "17368110297,0517-89003889"
  },
  {
    "id": "A400317",
    "brand": "DJI",
    "storeName": "珠海华发商都授权体验店",
    "province": "广东省",
    "city": "珠海市",
    "address": "广东省珠海市香洲区珠海大道8号珠海南湾华发商都B馆 一层B1011号铺",
    "latitude": 22.224602,
    "longitude": 113.509995,
    "storeType": "ARS",
    "serviceTags": [
      "可试飞"
    ],
    "openingHours": "周日~周四10:00~22:00 ,周五周六10:00~22:30",
    "phone": "18998172974"
  },
  {
    "id": "60025488",
    "brand": "DJI",
    "storeName": "鄂尔多斯众航羽速准格尔北路专营店",
    "province": "内蒙古自治区",
    "city": "鄂尔多斯市",
    "address": "内蒙古鄂尔多斯市东胜区准格尔北路19号附6号",
    "latitude": 39.816464,
    "longitude": 110.007851,
    "storeType": "新型照材",
    "serviceTags": [
      "可试飞",
      "支持以旧换新"
    ],
    "openingHours": "周一到周日 9:00-19:00",
    "phone": "13604778222"
  },
  {
    "id": "60036448",
    "brand": "DJI",
    "storeName": "西安DT51授权体验店",
    "province": "陕西省",
    "city": "西安市",
    "address": "西安市雁塔区高新区唐延路69号西安DT51商场D1011",
    "latitude": 34.2,
    "longitude": 108.89,
    "storeType": "ARS",
    "serviceTags": [
      "可试飞",
      "支持以旧换新"
    ],
    "openingHours": "10:00-22:00",
    "phone": "18091870631"
  },
  {
    "id": "60026154",
    "brand": "DJI",
    "storeName": "南京弘阳广场授权体验店",
    "province": "江苏省",
    "city": "南京市",
    "address": "江苏省南京市浦口区大桥北路48号弘阳广场B馆一楼33B号（DJI大疆）",
    "latitude": 32.142758,
    "longitude": 118.73219,
    "storeType": "ARS",
    "serviceTags": [
      "可试飞",
      "支持以旧换新"
    ],
    "openingHours": "周一至周日10:00-22:00",
    "phone": "025-58880069,18094241601"
  },
  {
    "id": "60028521",
    "brand": "DJI",
    "storeName": "银川凤凰幻城授权体验专区",
    "province": "宁夏回族自治区",
    "city": "银川市",
    "address": "宁夏银川市金凤区北京中路街道银川文化城B区4号楼一层东",
    "latitude": 38.486528,
    "longitude": 106.203389,
    "storeType": "新型照材",
    "serviceTags": [
      "可试飞",
      "支持以旧换新"
    ],
    "openingHours": "周一至周五：10:00-19:00 周六至周日：10:00-20:00",
    "phone": "18395293185"
  },
  {
    "id": "A0200002",
    "brand": "DJI",
    "storeName": "西宁金宏源胜利路照材店",
    "province": "青海省",
    "city": "西宁市",
    "address": "西宁市城西区胜利路电脑电子市场西厅1-33",
    "latitude": 36.62828,
    "longitude": 101.76588,
    "storeType": "新型照材",
    "serviceTags": [
      "可试飞",
      "支持以旧换新"
    ],
    "openingHours": "9:00~18:00",
    "phone": "13997042080"
  },
  {
    "id": "60037135",
    "brand": "DJI",
    "storeName": "深圳宝安大悦城授权体验店",
    "province": "广东省",
    "city": "深圳市",
    "address": "深圳市宝安区文汇一街与建安一路一巷交叉口东北100米大悦城购物中心L161A",
    "latitude": 22.56916,
    "longitude": 113.90239,
    "storeType": "ARS",
    "serviceTags": [
      "可试飞",
      "支持以旧换新"
    ],
    "openingHours": "周天至周四10:00-22:00, 周五至周六10:00-22:30",
    "phone": "0755-23322620,18138833206"
  },
  {
    "id": "A400326",
    "brand": "DJI",
    "storeName": "沈阳京东MALL授权体验店",
    "province": "辽宁省",
    "city": "沈阳市",
    "address": "辽宁省沈阳市大东区滂江街26-2京东MALL一层大疆",
    "latitude": 41.80011,
    "longitude": 123.48636,
    "storeType": "ARS",
    "serviceTags": [
      "可试飞",
      "支持以旧换新"
    ],
    "openingHours": "10:00~21:00",
    "phone": "18804033809"
  },
  {
    "id": "A400346",
    "brand": "DJI",
    "storeName": "上海世博源授权体验店",
    "province": "上海市",
    "city": "上海市",
    "address": "上海市浦东新区世博大道1368号世博源3区B层3B36铺位",
    "latitude": 31.183631,
    "longitude": 121.49242,
    "storeType": "ARS",
    "serviceTags": [
      "可试飞",
      "支持以旧换新"
    ],
    "openingHours": "周日-周四10：00-21：30 周五-周六10：00-22：00",
    "phone": "021-58200893"
  },
  {
    "id": "60029648",
    "brand": "DJI",
    "storeName": "南京京东MALL授权体验店",
    "province": "江苏省",
    "city": "南京市",
    "address": "江苏省南京市秦淮区大明路288号南京京东MALL",
    "latitude": 31.5921,
    "longitude": 118.4743,
    "storeType": "ARS",
    "serviceTags": [
      "可试飞",
      "支持以旧换新"
    ],
    "openingHours": "10：00-22：00",
    "phone": "18352795640"
  },
  {
    "id": "60000807",
    "brand": "DJI",
    "storeName": "义乌影尚稠城街道照材店",
    "province": "浙江省",
    "city": "金华市",
    "address": "义乌市稠城街道宾王市场E区E1-119号（三挺路上）",
    "latitude": 29.316309,
    "longitude": 120.083064,
    "storeType": "新型照材",
    "serviceTags": [
      "可试飞",
      "支持以旧换新"
    ],
    "openingHours": "09：00-21：00",
    "phone": "13957934455"
  },
  {
    "id": "60000674",
    "brand": "DJI",
    "storeName": "泉州浦西万达授权体验店",
    "province": "福建省",
    "city": "泉州市",
    "address": "福建省泉州市丰泽区宝洲街679号万达广场室内步行街1013A号DJI大疆",
    "latitude": 24.885119,
    "longitude": 118.5935,
    "storeType": "ARS",
    "serviceTags": [
      "可试飞",
      "支持以旧换新"
    ],
    "openingHours": "10：00-22:00",
    "phone": "0595-22018180,17350799729"
  },
  {
    "id": "A0400337",
    "brand": "DJI",
    "storeName": "北京金源购物广场授权体验店",
    "province": "北京市",
    "city": "北京市",
    "address": "北京市海淀区曙光街道金源新燕莎MALL1211-1222",
    "latitude": 39.959008,
    "longitude": 116.295323,
    "storeType": "ARS",
    "serviceTags": [
      "可试飞",
      "支持以旧换新"
    ],
    "openingHours": "10:00~22:00",
    "phone": "13146940900"
  },
  {
    "id": "60010730",
    "brand": "DJI",
    "storeName": "周口万顺达授权体验店",
    "province": "河南省",
    "city": "周口市",
    "address": "河南省周口市川汇区七一路五一路交叉口万顺达一楼南门入口",
    "latitude": 33.623786,
    "longitude": 114.655002,
    "storeType": "ARS",
    "serviceTags": [
      "可试飞",
      "支持以旧换新"
    ],
    "openingHours": "9：00-21：30",
    "phone": "15138335910"
  },
  {
    "id": "60035973",
    "brand": "DJI",
    "storeName": "杭州西溪龙湖天街授权体验店",
    "province": "浙江省",
    "city": "杭州市",
    "address": "杭州市西湖区余杭塘路1001号龙湖西溪天街L1层 A-1F-08 号铺",
    "latitude": 30.3,
    "longitude": 120.07,
    "storeType": "ARS",
    "serviceTags": [
      "可试飞",
      "支持以旧换新"
    ],
    "openingHours": "10：00-22：00",
    "phone": "13626629944"
  },
  {
    "id": "60000731",
    "brand": "DJI",
    "storeName": "DJI 大疆|哈苏 石家庄北国先天下概念店",
    "province": "河北省",
    "city": "石家庄市",
    "address": "河北省石家庄长安区中山东路326号先天下一层L150",
    "latitude": 38.04195,
    "longitude": 114.525867,
    "storeType": "ARS",
    "serviceTags": [
      "可试飞",
      "支持以旧换新"
    ],
    "openingHours": "\"周一至周五： 10:00-21:30 周六至周日 10:00-22:00 \"",
    "phone": "17334417888"
  },
  {
    "id": "A0500151",
    "brand": "DJI",
    "storeName": "合肥赛博数码广场专营店",
    "province": "安徽省",
    "city": "合肥市",
    "address": "安徽省合肥市黄山路与金寨路交口赛博数码黄金广场一楼1155",
    "latitude": 31.847288,
    "longitude": 117.272672,
    "storeType": "新型照材",
    "serviceTags": [
      "可试飞",
      "支持以旧换新"
    ],
    "openingHours": "9:00-18:00",
    "phone": "0551-63670236,13855107641"
  },
  {
    "id": "60026066",
    "brand": "DJI",
    "storeName": "长沙万象城授权体验店",
    "province": "湖南省",
    "city": "长沙市",
    "address": "湖南省长沙市岳麓区桐梓坡路11号长沙万象城商场一层L165铺位",
    "latitude": 28.22,
    "longitude": 112.95,
    "storeType": "ARS",
    "serviceTags": [
      "可试飞",
      "支持以旧换新"
    ],
    "openingHours": "周一至日：10:00-22:00",
    "phone": "13755041246"
  },
  {
    "id": "A0400391",
    "brand": "DJI",
    "storeName": "合肥庐阳万象汇授权体验店",
    "province": "安徽省",
    "city": "合肥市",
    "address": "合肥市庐阳区临泉路7388号华润万象汇L129号",
    "latitude": 31.887763,
    "longitude": 117.25752,
    "storeType": "ARS",
    "serviceTags": [
      "可试飞",
      "支持以旧换新"
    ],
    "openingHours": "周一至周日10:00~22:00",
    "phone": "15375373005，0551-62683895"
  },
  {
    "id": "60015410",
    "brand": "DJI",
    "storeName": "DJI 大疆|哈苏 上海恒隆广场概念店",
    "province": "上海市",
    "city": "上海市",
    "address": "上海市静安区南京西路1266号上海恒隆广场商场403A号铺",
    "latitude": 31.234171,
    "longitude": 121.459846,
    "storeType": "ARS",
    "serviceTags": [
      "可试飞",
      "支持以旧换新"
    ],
    "openingHours": "10:00-22:00",
    "phone": "13166417812"
  },
  {
    "id": "60007418",
    "brand": "DJI",
    "storeName": "南阳万悦城授权体验店",
    "province": "河南省",
    "city": "南阳市",
    "address": "河南省南阳市宛城区南都路与范蠡路万悦城一楼L133大疆",
    "latitude": 33.012906,
    "longitude": 112.58051,
    "storeType": "ARS",
    "serviceTags": [
      "可试飞",
      "支持以旧换新"
    ],
    "openingHours": "10:00-22:00",
    "phone": "18742083973"
  },
  {
    "id": "60005428",
    "brand": "DJI",
    "storeName": "上海星光TPY中心专营店",
    "province": "上海市",
    "city": "上海市",
    "address": "上海市徐汇区肇嘉浜路1117号TPY中心2楼L2-12",
    "latitude": 31.199495,
    "longitude": 121.445438,
    "storeType": "新型照材",
    "serviceTags": [
      "可试飞",
      "支持以旧换新"
    ],
    "openingHours": "周一至周日10:00-22:00",
    "phone": "13661632354"
  },
  {
    "id": "60015402",
    "brand": "DJI",
    "storeName": "大理泰业授权体验专区",
    "province": "云南省",
    "city": "大理白族自治州",
    "address": "云南省大理市建设路21号昆百大泰业城1楼中庭服务台旁A136号铺",
    "latitude": 25.591842,
    "longitude": 100.23271,
    "storeType": "ARS",
    "serviceTags": [
      "可试飞",
      "支持以旧换新"
    ],
    "openingHours": "\"周天至周四10:00-22:00 周五至周六10:00-22:30\"",
    "phone": "19116190572"
  },
  {
    "id": "A0400392",
    "brand": "DJI",
    "storeName": "大连高新万达授权体验店",
    "province": "辽宁省",
    "city": "大连市",
    "address": "辽宁省大连市甘井子区黄埔路500号高新万达1楼1009号店铺",
    "latitude": 38.863197,
    "longitude": 121.532951,
    "storeType": "ARS",
    "serviceTags": [
      "可试飞",
      "支持以旧换新"
    ],
    "openingHours": "9:30~21:30",
    "phone": "17784827375"
  },
  {
    "id": "60020006",
    "brand": "DJI",
    "storeName": "许昌胖东来天使城授权体验店",
    "province": "河南省",
    "city": "许昌市",
    "address": "河南省许昌市魏都区建安大道天使城4楼大疆",
    "latitude": 34.041716,
    "longitude": 113.853296,
    "storeType": "ARS",
    "serviceTags": [
      "可试飞",
      "支持以旧换新"
    ],
    "openingHours": "9:30-21:00",
    "phone": "15137452468"
  },
  {
    "id": "60000778",
    "brand": "DJI",
    "storeName": "上海宝山万达授权体验店",
    "province": "上海市",
    "city": "上海市",
    "address": "上海市宝山区一二八纪念路968号宝山万达广场 1F-1029A铺位",
    "latitude": 31.32365,
    "longitude": 121.44626,
    "storeType": "ARS",
    "serviceTags": [
      "可试飞",
      "支持以旧换新"
    ],
    "openingHours": "10:00-22:00",
    "phone": "13262597697,021-56057662"
  },
  {
    "id": "A0400319",
    "brand": "DJI",
    "storeName": "兰州中心授权体验店",
    "province": "甘肃省",
    "city": "兰州市",
    "address": "甘肃省兰州市七里河区西津西路16号兰州中心1层-015～016A",
    "latitude": 36.07506,
    "longitude": 103.781369,
    "storeType": "ARS",
    "serviceTags": [
      "可试飞",
      "支持以旧换新"
    ],
    "openingHours": "10:00~22:00",
    "phone": "13389215310"
  },
  {
    "id": "A1000559",
    "brand": "DJI",
    "storeName": "莆田追宇三信电子城照材售点",
    "province": "福建省",
    "city": "莆田市",
    "address": "福建省莆田市城厢区龙桥街道三信电子城二楼D263",
    "latitude": 25.438462,
    "longitude": 119.007708,
    "storeType": "新型照材",
    "serviceTags": [
      "可试飞",
      "支持以旧换新"
    ],
    "openingHours": "周一至周日 09:00-21:30",
    "phone": "15880322990,18559336332"
  },
  {
    "id": "A0400305",
    "brand": "DJI",
    "storeName": "天津K11授权体验店",
    "province": "天津市",
    "city": "天津市",
    "address": "天津K11 Select购物艺术中心L112铺位",
    "latitude": 39.036183,
    "longitude": 117.702328,
    "storeType": "ARS",
    "serviceTags": [
      "可试飞",
      "支持以旧换新"
    ],
    "openingHours": "周一至周四：10:00~21:00:\n周五至周日：10:00~21:30:",
    "phone": "(022)65170185"
  },
  {
    "id": "A1000716",
    "brand": "DJI",
    "storeName": "兰州新视窗天水南路照材店",
    "province": "甘肃省",
    "city": "兰州市",
    "address": "天水南路216号",
    "latitude": 36.043259,
    "longitude": 103.85428,
    "storeType": "新型照材",
    "serviceTags": [
      "可试飞",
      "支持以旧换新"
    ],
    "openingHours": "周一至周日9:00-20:30",
    "phone": "18198017730"
  },
  {
    "id": "60030155",
    "brand": "DJI",
    "storeName": "西宁海湖万达授权体验店",
    "province": "青海省",
    "city": "西宁市",
    "address": "青海省西宁市城西区广场路1号海湖万达广场层1031号",
    "latitude": 36.642644,
    "longitude": 101.715863,
    "storeType": "ARS",
    "serviceTags": [
      "可试飞",
      "支持以旧换新"
    ],
    "openingHours": "10:00-22:00",
    "phone": "19997487750"
  },
  {
    "id": "A1000365",
    "brand": "DJI",
    "storeName": "深圳泽艺达华强北照材店",
    "province": "广东省",
    "city": "深圳市",
    "address": "深圳市福田区华强广场华强电子世界2店2楼HQ022",
    "latitude": 22.54,
    "longitude": 114.09,
    "storeType": "新型照材",
    "serviceTags": [
      "可试飞",
      "支持以旧换新"
    ],
    "openingHours": "9:30~18:30",
    "phone": "0755-82798566；13510151359"
  },
  {
    "id": "A0800066",
    "brand": "DJI",
    "storeName": "广州明洙大沙头三马路照材店",
    "province": "广东省",
    "city": "广州市",
    "address": "广州市越秀区大沙头三马路1号-4",
    "latitude": 23.121231,
    "longitude": 113.294122,
    "storeType": "新型照材",
    "serviceTags": [
      "可试飞",
      "支持以旧换新"
    ],
    "openingHours": "09:30~18:30",
    "phone": "13302388518"
  },
  {
    "id": "A0700038",
    "brand": "DJI",
    "storeName": "成都比蓝华凌摄影城照材店",
    "province": "四川省",
    "city": "成都市",
    "address": "成都市金牛区文家巷12号",
    "latitude": 30.683764,
    "longitude": 104.044864,
    "storeType": "新型照材",
    "serviceTags": [
      "可试飞",
      "支持以旧换新"
    ],
    "openingHours": "09:00~18:00",
    "phone": "028-66616008"
  },
  {
    "id": "60036241",
    "brand": "DJI",
    "storeName": "天津鹏欣水游城授权体验店",
    "province": "天津市",
    "city": "天津市",
    "address": "天津市红桥区西北角大丰路18号鹏欣-水游城-A区f1AS09-1",
    "latitude": 39.15,
    "longitude": 117.18,
    "storeType": "ARS",
    "serviceTags": [
      "可试飞",
      "支持以旧换新"
    ],
    "openingHours": "10:00-22:00",
    "phone": "15822562217"
  },
  {
    "id": "60037218",
    "brand": "DJI",
    "storeName": "赣州经开万达授权体验店",
    "province": "江西省",
    "city": "赣州市",
    "address": "江西省赣州市赣州经济技术开发区金岭大道18号万达广场室内步行街1F层100号商铺",
    "latitude": 25.846393,
    "longitude": 114.907261,
    "storeType": "ARS",
    "serviceTags": [
      "可试飞",
      "支持以旧换新"
    ],
    "openingHours": "周一至周四 10:00-22:00,周五至周日 10:00-22:30",
    "phone": "18870122007"
  },
  {
    "id": "60026466",
    "brand": "DJI",
    "storeName": "重庆长嘉汇观景平台授权体验专区",
    "province": "重庆市",
    "city": "重庆市",
    "address": "重庆市南岸区长嘉汇购物公园观景平台L4-15B",
    "latitude": 29.583704,
    "longitude": 106.593234,
    "storeType": "新型照材",
    "serviceTags": [
      "可试飞",
      "支持以旧换新"
    ],
    "openingHours": "周一至周日",
    "phone": "18166562152"
  },
  {
    "id": "A400345",
    "brand": "DJI",
    "storeName": "江门大融城授权体验店",
    "province": "广东省",
    "city": "江门市",
    "address": "广东省江门市蓬江区白石大道166号汇悦城1F003号",
    "latitude": 22.611639,
    "longitude": 113.083418,
    "storeType": "ARS",
    "serviceTags": [
      "可试飞",
      "支持以旧换新"
    ],
    "openingHours": "周日~周四10:00~22:00 ,周五周六10:00~22:30",
    "phone": "17727026003"
  },
  {
    "id": "60005343",
    "brand": "DJI",
    "storeName": "乌鲁木齐经开万达授权体验店",
    "province": "新疆维吾尔自治区",
    "city": "乌鲁木齐市",
    "address": "乌鲁木齐市经开区玄武湖路999号经开万达1楼1B21号",
    "latitude": 43.847781,
    "longitude": 87.52412,
    "storeType": "ARS",
    "serviceTags": [
      "可试飞",
      "支持以旧换新"
    ],
    "openingHours": "11:00-22:00",
    "phone": "18167931297"
  },
  {
    "id": "60000779",
    "brand": "DJI",
    "storeName": "杭州in77授权体验店",
    "province": "浙江省",
    "city": "杭州市",
    "address": "浙江省杭州市上城区解放路238号湖滨银泰in77C区地下一层B1055铺位",
    "latitude": 30.247854,
    "longitude": 120.158063,
    "storeType": "ARS",
    "serviceTags": [
      "可试飞",
      "支持以旧换新"
    ],
    "openingHours": "10:00-22:00",
    "phone": "0571-87026290"
  },
  {
    "id": "A0600029",
    "brand": "DJI",
    "storeName": "成都特旺时代数码广场照材店",
    "province": "四川省",
    "city": "成都市",
    "address": "成都市武侯区人民南路四段一号时代数码广场1楼E15A",
    "latitude": 30.63325,
    "longitude": 104.066815,
    "storeType": "新型照材",
    "serviceTags": [
      "可试飞",
      "支持以旧换新"
    ],
    "openingHours": "9:00~18:00",
    "phone": "13980983260"
  },
  {
    "id": "A1000323",
    "brand": "DJI",
    "storeName": "上海启诚星光照材城照材店",
    "province": "上海市",
    "city": "上海市",
    "address": "上海市黄浦区鲁班路300号2楼231-233号",
    "latitude": 31.2004,
    "longitude": 121.476233,
    "storeType": "新型照材",
    "serviceTags": [
      "可试飞",
      "支持以旧换新"
    ],
    "openingHours": "9:00~19:00",
    "phone": "021 53019521"
  },
  {
    "id": "60032543",
    "brand": "DJI",
    "storeName": "杭州萧山国际机场授权体验店",
    "province": "浙江省",
    "city": "杭州市",
    "address": "杭州萧山国际机场T4航站楼国内6米层混流区H6-009点位",
    "latitude": 30.23,
    "longitude": 120.43,
    "storeType": "ARS",
    "serviceTags": [
      "可试飞",
      "支持以旧换新"
    ],
    "openingHours": "周一至周日8：00-21：00",
    "phone": "18968099178"
  },
  {
    "id": "A400339",
    "brand": "DJI",
    "storeName": "深圳光明大仟里授权体验店",
    "province": "广东省",
    "city": "深圳市",
    "address": "深圳市光明新区马田街道合水口社区松白路4699号光明大仟里购物中心A区一楼L122号",
    "latitude": 22.775717,
    "longitude": 113.893196,
    "storeType": "ARS",
    "serviceTags": [
      "可试飞",
      "支持以旧换新"
    ],
    "openingHours": "周日~周四:10:00~22:00   周五~周六:10:00~22:30",
    "phone": "0755-21061013,13312902019"
  },
  {
    "id": "60023525",
    "brand": "DJI",
    "storeName": "厦门宝龙授权体验店",
    "province": "福建省",
    "city": "厦门市",
    "address": "厦门市思明区金山路1号宝龙一城二区2-1号楼 LG层M1-LG-010商铺",
    "latitude": 24.49,
    "longitude": 118.17,
    "storeType": "ARS",
    "serviceTags": [
      "可试飞",
      "支持以旧换新"
    ],
    "openingHours": "10:00-22:00",
    "phone": "18020771639"
  },
  {
    "id": "A1000714",
    "brand": "DJI",
    "storeName": "太原星联诚业平阳路照材店",
    "province": "山西省",
    "city": "太原市",
    "address": "山西省太原市小店区平阳路黄河京都南150米路西尼康店",
    "latitude": 37.84023,
    "longitude": 112.55863,
    "storeType": "新型照材",
    "serviceTags": [
      "可试飞",
      "支持以旧换新"
    ],
    "openingHours": "9:00~18:30",
    "phone": "0351-7555950;13834133640"
  },
  {
    "id": "A0500058",
    "brand": "DJI",
    "storeName": "张家港吾悦广场专营店",
    "province": "江苏省",
    "city": "苏州市",
    "address": "张家港市(吾悦广场)DM1-25",
    "latitude": 31.838222,
    "longitude": 120.544507,
    "storeType": "新型照材",
    "serviceTags": [
      "可试飞",
      "支持以旧换新"
    ],
    "openingHours": "9:00-20:00",
    "phone": "18015529801"
  },
  {
    "id": "60014550",
    "brand": "DJI",
    "storeName": "鞍山万象汇授权体验店",
    "province": "辽宁省",
    "city": "鞍山市",
    "address": "辽宁省鞍山市铁东区建国大道700号 鞍山万象汇L1层、L0109N",
    "latitude": 41.110432,
    "longitude": 122.986057,
    "storeType": "ARS",
    "serviceTags": [
      "可试飞",
      "支持以旧换新"
    ],
    "openingHours": "9:30-21:30",
    "phone": "15641286258"
  },
  {
    "id": "A1000702",
    "brand": "DJI",
    "storeName": "福州中微大利嘉城照材店",
    "province": "福建省",
    "city": "福州市",
    "address": "福州市台江区五一中路169号大利嘉城D1-03",
    "latitude": 26.06817,
    "longitude": 119.313575,
    "storeType": "新型照材",
    "serviceTags": [
      "可试飞",
      "支持以旧换新"
    ],
    "openingHours": "09:00~19:00",
    "phone": "13174663760"
  },
  {
    "id": "60001009",
    "brand": "DJI",
    "storeName": "DJI 大疆|哈苏 上海IFC国金中心概念店",
    "province": "上海市",
    "city": "上海市",
    "address": "上海市浦东新区陆家嘴世纪大道8号ifc国金中心商场LG1层LG1-15-2铺位",
    "latitude": 31.237052,
    "longitude": 121.500971,
    "storeType": "ARS",
    "serviceTags": [
      "可试飞",
      "支持以旧换新"
    ],
    "openingHours": "10：00-22：00",
    "phone": "021-50338095"
  },
  {
    "id": "A400394",
    "brand": "DJI",
    "storeName": "长沙国金授权体验店",
    "province": "湖南省",
    "city": "长沙市",
    "address": "湖南省长沙市芙蓉区188号长沙IFS国金中心LG1层102铺位",
    "latitude": 28.192109,
    "longitude": 112.97693,
    "storeType": "ARS",
    "serviceTags": [
      "可试飞",
      "支持以旧换新"
    ],
    "openingHours": "周一至周日10:00~22:00",
    "phone": "0731-82290911"
  },
  {
    "id": "A0400082",
    "brand": "DJI",
    "storeName": "西安奥通天际百脑汇照材店",
    "province": "陕西省",
    "city": "西安市",
    "address": "陕西省西安市碑林区文艺路街道\n雁塔中路68号百老脑汇一楼1C13A",
    "latitude": 34.24133,
    "longitude": 108.96956,
    "storeType": "新型照材",
    "serviceTags": [
      "可试飞",
      "支持以旧换新"
    ],
    "openingHours": "早上9:00~晚上6:30",
    "phone": "15991665135"
  },
  {
    "id": "A10000006",
    "brand": "DJI",
    "storeName": "昆明恒隆广场授权体验店",
    "province": "云南省",
    "city": "昆明市",
    "address": "云南省昆明市盘龙区东风东路21号恒隆广场5楼L512商铺",
    "latitude": 25.036925,
    "longitude": 102.722721,
    "storeType": "ARS",
    "serviceTags": [
      "可试飞",
      "支持以旧换新"
    ],
    "openingHours": "周日~周四10:00~22:00,周五~周六10:00~22:30",
    "phone": "0871-65129339"
  },
  {
    "id": "60036824",
    "brand": "DJI",
    "storeName": "长沙松雅湖吾悦广场授权体验店",
    "province": "湖南省",
    "city": "长沙市",
    "address": "湖南省长沙县望仙东路489号吾悦广场5栋149室1063号",
    "latitude": 28.257949,
    "longitude": 113.108084,
    "storeType": "ARS",
    "serviceTags": [
      "可试飞",
      "支持以旧换新"
    ],
    "openingHours": "周天-周四10:00-22:00,周五-周六10:00-22:30",
    "phone": "0731-85215330,18163769107"
  },
  {
    "id": "60026186",
    "brand": "DJI",
    "storeName": "邢台北国商城授权体验店",
    "province": "河北省",
    "city": "邢台市",
    "address": "河北省邢台市信都区中兴西大街188号北国商城一层东门口L154-L155DJI大疆",
    "latitude": 37.06697,
    "longitude": 114.484902,
    "storeType": "ARS",
    "serviceTags": [
      "可试飞",
      "支持以旧换新"
    ],
    "openingHours": "10：00-22：00",
    "phone": "15632909377"
  },
  {
    "id": "A400351",
    "brand": "DJI",
    "storeName": "绍兴银泰城授权体验店",
    "province": "浙江省",
    "city": "绍兴市",
    "address": "浙江省绍兴市越城区解放南路777号绍兴银泰城一楼1F088铺位",
    "latitude": 30.301401,
    "longitude": 120.110104,
    "storeType": "ARS",
    "serviceTags": [
      "可试飞",
      "支持以旧换新"
    ],
    "openingHours": "10:00-22:00",
    "phone": "0575-88602113"
  },
  {
    "id": "60020808",
    "brand": "DJI",
    "storeName": "呼和浩特富迈图书大厦照材店",
    "province": "内蒙古自治区",
    "city": "呼和浩特市",
    "address": "内蒙古呼和浩特市回民区中山西路街道94号一楼底商",
    "latitude": 40.812154,
    "longitude": 111.665419,
    "storeType": "新型照材",
    "serviceTags": [
      "可试飞",
      "支持以旧换新"
    ],
    "openingHours": "9:00-20:00",
    "phone": "15352854882"
  },
  {
    "id": "60036846",
    "brand": "DJI",
    "storeName": "西安众凝高新赛格电子授权体验专区",
    "province": "陕西省",
    "city": "西安市",
    "address": "西安市雁塔区电子一路18号赛格电子市场 1A315-1A320",
    "latitude": 34.22,
    "longitude": 108.92,
    "storeType": "新型照材",
    "serviceTags": [
      "可试飞",
      "支持以旧换新"
    ],
    "openingHours": "9:30-20:00",
    "phone": "15802983611"
  },
  {
    "id": "A0400316",
    "brand": "DJI",
    "storeName": "DJI 大疆|哈苏 上海港汇恒隆概念店",
    "province": "上海市",
    "city": "上海市",
    "address": "上海市徐汇区虹桥路1号港汇恒隆广场1层171、172号铺",
    "latitude": 31.194415,
    "longitude": 121.436783,
    "storeType": "ARS",
    "serviceTags": [
      "可试飞",
      "支持以旧换新"
    ],
    "openingHours": "10:00~22:00",
    "phone": "021-64260598,13166357915"
  },
  {
    "id": "60000543",
    "brand": "DJI",
    "storeName": "珠海富华里授权体验店",
    "province": "广东省",
    "city": "珠海市",
    "address": "广东省珠海市香洲区九州大道2055号(富华里)14栋115号",
    "latitude": 22.235608,
    "longitude": 113.539878,
    "storeType": "ARS",
    "serviceTags": [
      "可试飞",
      "支持以旧换新"
    ],
    "openingHours": "周日至周四10:00-22:00 ，周五周六10:00-22:30",
    "phone": "15323609010"
  },
  {
    "id": "A400347",
    "brand": "DJI",
    "storeName": "广州天汇广场授权体验店",
    "province": "广东省",
    "city": "广州市",
    "address": "广东省广州市天河区兴民路igc天汇广场三楼L308大疆体验店",
    "latitude": 23.116275,
    "longitude": 113.331859,
    "storeType": "ARS",
    "serviceTags": [
      "可试飞",
      "支持以旧换新"
    ],
    "openingHours": "10:00~22:00",
    "phone": "19129294369,020-38818906"
  },
  {
    "id": "A0500142",
    "brand": "DJI",
    "storeName": "盐城九州迎宾路照材售点",
    "province": "江苏省",
    "city": "盐城市",
    "address": "江苏省盐城市亭湖区文峰街道迎宾南路28号五洲国际广场1008室",
    "latitude": 33.382219,
    "longitude": 120.135885,
    "storeType": "新型照材",
    "serviceTags": [
      "可试飞",
      "支持以旧换新"
    ],
    "openingHours": "周一至周日8:30-21:00",
    "phone": "18051715588"
  },
  {
    "id": "60036999",
    "brand": "DJI",
    "storeName": "清远万达授权体验店",
    "province": "广东省",
    "city": "清远市",
    "address": "广东省清远市清城区湖西路89号万达广场1071号大疆店铺",
    "latitude": 23.712793,
    "longitude": 113.013367,
    "storeType": "ARS",
    "serviceTags": [
      "可试飞",
      "支持以旧换新"
    ],
    "openingHours": "10:00-22:00",
    "phone": "13336496742"
  },
  {
    "id": "60036262",
    "brand": "DJI",
    "storeName": "沈阳华强广场授权体验专区",
    "province": "辽宁省",
    "city": "沈阳市",
    "address": "辽宁省沈阳市和平区三好街华强广场一楼(2门)门市DJI大疆",
    "latitude": 41.762735,
    "longitude": 123.426918,
    "storeType": "新型照材",
    "serviceTags": [
      "可试飞",
      "支持以旧换新"
    ],
    "openingHours": "周一至周日9:00-17：00",
    "phone": "18640100989"
  },
  {
    "id": "60036242",
    "brand": "DJI",
    "storeName": "天津滨海万达广场授权体验专区",
    "province": "天津市",
    "city": "天津市",
    "address": "天津滨海新区洞庭路4572号滨海万达广场一层JY-BX-108",
    "latitude": 39.0367,
    "longitude": 117.69195,
    "storeType": "ARS",
    "serviceTags": [
      "可试飞",
      "支持以旧换新"
    ],
    "openingHours": "10:00-22:00",
    "phone": "18649095215"
  },
  {
    "id": "60023859",
    "brand": "DJI",
    "storeName": "成都鸣润百脑汇照材店",
    "province": "四川省",
    "city": "成都市",
    "address": "四川省成都市武侯区新南路123号",
    "latitude": 30.641125,
    "longitude": 104.083371,
    "storeType": "新型照材",
    "serviceTags": [
      "可试飞",
      "支持以旧换新"
    ],
    "openingHours": "周一至周日 09:00-18:30",
    "phone": "15008236612"
  },
  {
    "id": "60016090",
    "brand": "DJI",
    "storeName": "石家庄欢乐汇授权体验店",
    "province": "河北省",
    "city": "石家庄市",
    "address": "河北省石家庄市裕华区裕泰路77号智汇广场内综合楼1层161号商铺DJI大疆",
    "latitude": 38.002581,
    "longitude": 114.541708,
    "storeType": "ARS",
    "serviceTags": [
      "可试飞",
      "支持以旧换新"
    ],
    "openingHours": "10：00-22：00",
    "phone": "19333117770"
  },
  {
    "id": "60024032",
    "brand": "DJI",
    "storeName": "宁波阪急百货授权体验店",
    "province": "浙江省",
    "city": "宁波市",
    "address": "宁波市鄞州区东部新城海晏北路189号宁波阪急商场L4层445-1-a商铺",
    "latitude": 29.86,
    "longitude": 121.62,
    "storeType": "ARS",
    "serviceTags": [
      "可试飞",
      "支持以旧换新"
    ],
    "openingHours": "周一至周日:10:00-22:00",
    "phone": "0574-87301293,18069197622"
  },
  {
    "id": "60020596",
    "brand": "DJI",
    "storeName": "湖州浙北大厦授权体验店",
    "province": "浙江省",
    "city": "湖州市",
    "address": "湖州市吴兴区南街669号浙北大厦购物中心1FRH-2",
    "latitude": 30.873703,
    "longitude": 120.10497,
    "storeType": "ARS",
    "serviceTags": [
      "可试飞",
      "支持以旧换新"
    ],
    "openingHours": "10:00-21:00",
    "phone": "0572-2096911"
  },
  {
    "id": "A400344",
    "brand": "DJI",
    "storeName": "上海iapm环贸授权体验店",
    "province": "上海市",
    "city": "上海市",
    "address": "上海市淮海中路999号iapm环贸广场商场LG1层116铺位",
    "latitude": 31.21668,
    "longitude": 121.458598,
    "storeType": "ARS",
    "serviceTags": [
      "可试飞",
      "支持以旧换新"
    ],
    "openingHours": "10:00~22:00",
    "phone": "021-64158059/13122034265"
  },
  {
    "id": "60026219",
    "brand": "DJI",
    "storeName": "杭州航骄萧山颐高售点",
    "province": "浙江省",
    "city": "杭州市",
    "address": "浙江省杭州市萧山区金城路451号颐高数码广场1033号",
    "latitude": 30.181997,
    "longitude": 120.257801,
    "storeType": "新型照材",
    "serviceTags": [
      "可试飞",
      "支持以旧换新"
    ],
    "openingHours": "周一到周日9：00-21：00",
    "phone": "18705813004"
  },
  {
    "id": "A1000763",
    "brand": "DJI",
    "storeName": "广州索盟百脑汇照材店",
    "province": "广东省",
    "city": "广州市",
    "address": "广州市天河区天河路598号百脑汇科技大厦一楼1D02铺",
    "latitude": 23.128616,
    "longitude": 113.332806,
    "storeType": "新型照材",
    "serviceTags": [
      "可试飞",
      "支持以旧换新"
    ],
    "openingHours": "9:30-21:30",
    "phone": "020-38104804/13710546346/19120484940"
  },
  {
    "id": "60036111",
    "brand": "DJI",
    "storeName": "东莞汇一城授权体验店",
    "province": "广东省",
    "city": "东莞市",
    "address": "广东省东莞市南城街道鸿福路200号第一国际汇一城一号裙楼一层B1153B号商铺",
    "latitude": 23.00729,
    "longitude": 113.754827,
    "storeType": "ARS",
    "serviceTags": [
      "可试飞",
      "支持以旧换新"
    ],
    "openingHours": "10:00-22:00",
    "phone": "18025941011"
  },
  {
    "id": "A0400378",
    "brand": "DJI",
    "storeName": "长春欧亚卖场授权体验店",
    "province": "吉林省",
    "city": "长春市",
    "address": "吉林省长春市朝阳区5178号欧亚卖场一楼东海大街82号",
    "latitude": 43.843615,
    "longitude": 125.246521,
    "storeType": "ARS",
    "serviceTags": [
      "可试飞",
      "支持以旧换新"
    ],
    "openingHours": "9:30~20:00",
    "phone": "13654492199"
  },
  {
    "id": "60037138",
    "brand": "DJI",
    "storeName": "上海久光中心授权体验店",
    "province": "上海市",
    "city": "上海市",
    "address": "上海市静安区共和新路 2188 号上海久光中心[ 1 ]层[ M106 ]室",
    "latitude": 31.28,
    "longitude": 121.46,
    "storeType": "ARS",
    "serviceTags": [
      "可试飞",
      "支持以旧换新"
    ],
    "openingHours": "周一至周天 10：00-22：00",
    "phone": "18910329373"
  },
  {
    "id": "A0400373",
    "brand": "DJI",
    "storeName": "苏州中心授权体验店",
    "province": "江苏省",
    "city": "苏州市",
    "address": "江苏省苏州市苏州工业园区苏州中心商场南区二期一层C-1-20号",
    "latitude": 31.321513,
    "longitude": 120.678076,
    "storeType": "ARS",
    "serviceTags": [
      "可试飞",
      "支持以旧换新"
    ],
    "openingHours": "周一至周日 10:00~22:00",
    "phone": "19951272717，0512-65166895"
  },
  {
    "id": "A040005401",
    "brand": "DJI",
    "storeName": "DJI 大疆|哈苏 沈阳万象城概念店",
    "province": "辽宁省",
    "city": "沈阳市",
    "address": "辽宁省沈阳市和平区青年大街288号华润万象城L518",
    "latitude": 41.776208,
    "longitude": 123.434433,
    "storeType": "ARS",
    "serviceTags": [
      "可试飞",
      "支持以旧换新"
    ],
    "openingHours": "10:00~21:30",
    "phone": "15140250233"
  },
  {
    "id": "60026311",
    "brand": "DJI",
    "storeName": "合肥福海新粮仓专营店",
    "province": "安徽省",
    "city": "合肥市",
    "address": "安徽省合肥市蜀山区怀宁路新粮仓KUKU PARK 1-1-1",
    "latitude": 31.84321,
    "longitude": 117.227923,
    "storeType": "新型照材",
    "serviceTags": [
      "可试飞",
      "支持以旧换新"
    ],
    "openingHours": "周一到周日 9：00-22：00",
    "phone": "0551-62893168,19056856585"
  },
  {
    "id": "A0400317",
    "brand": "DJI",
    "storeName": "武汉壹方天地授权体验店",
    "province": "湖北省",
    "city": "武汉市",
    "address": "湖北省武汉市江岸区武汉天地壹方南馆购物中心2F-20号",
    "latitude": 30.552535,
    "longitude": 114.293635,
    "storeType": "ARS",
    "serviceTags": [
      "可试飞",
      "支持以旧换新"
    ],
    "openingHours": "周一至周日10:00~22:00",
    "phone": "13733446027"
  },
  {
    "id": "60036742",
    "brand": "DJI",
    "storeName": "青岛融创茂授权体验店",
    "province": "山东省",
    "city": "青岛市",
    "address": "山东省青岛市黄岛区滨海大道青岛融创茂1楼1009A",
    "latitude": 35.90509,
    "longitude": 120.100929,
    "storeType": "ARS",
    "serviceTags": [
      "可试飞",
      "支持以旧换新"
    ],
    "openingHours": "9:30-22:00",
    "phone": "15953249692"
  },
  {
    "id": "A1000712",
    "brand": "DJI",
    "storeName": "深圳优胜达华强北路照材店",
    "province": "广东省",
    "city": "深圳市",
    "address": "深圳市福田区华强北路赛格科技园二栋1楼1A3号",
    "latitude": 22.553961,
    "longitude": 114.093814,
    "storeType": "新型照材",
    "serviceTags": [
      "可试飞",
      "支持以旧换新"
    ],
    "openingHours": "9:30~20:00",
    "phone": "13602540538"
  },
  {
    "id": "60001004",
    "brand": "DJI",
    "storeName": "大同平城万达授权体验店",
    "province": "山西省",
    "city": "大同市",
    "address": "山西省大同市南环东路万达广场L1-1058",
    "latitude": 40.063036,
    "longitude": 113.334549,
    "storeType": "ARS",
    "serviceTags": [
      "可试飞",
      "支持以旧换新"
    ],
    "openingHours": "10:00-22:00",
    "phone": "15835651010"
  },
  {
    "id": "60026448",
    "brand": "DJI",
    "storeName": "西安众凝行政中心照材店",
    "province": "陕西省",
    "city": "西安市",
    "address": "陕西省西安市未央区凤城八路保亿隆基中心B座103号",
    "latitude": 34.34668,
    "longitude": 108.94949,
    "storeType": "新型照材",
    "serviceTags": [
      "可试飞",
      "支持以旧换新"
    ],
    "openingHours": "周一至周日10:00-20:30",
    "phone": "029-86102905,18909218387"
  },
  {
    "id": "60023502",
    "brand": "DJI",
    "storeName": "南宁君人庆三街两巷照材店",
    "province": "广西壮族自治区",
    "city": "南宁市",
    "address": "广西南宁市兴宁区三街两巷街区金狮巷5号 DJI大疆店（城隍庙后面）",
    "latitude": 22.81,
    "longitude": 108.32,
    "storeType": "新型照材",
    "serviceTags": [
      "可试飞",
      "支持以旧换新"
    ],
    "openingHours": "周一至周日9：30-22：00",
    "phone": "18011968685,19163919926"
  },
  {
    "id": "60000798",
    "brand": "DJI",
    "storeName": "乌鲁木齐美美2购物中心授权体验店",
    "province": "新疆维吾尔自治区",
    "city": "乌鲁木齐市",
    "address": "乌鲁木齐市沙依巴克区友好北路688号美美2购物中心南门一楼",
    "latitude": 43.820026,
    "longitude": 87.59095,
    "storeType": "ARS",
    "serviceTags": [
      "可试飞"
    ],
    "openingHours": "11:30-22:00",
    "phone": "0991-5250992,15199010906"
  },
  {
    "id": "A1000734",
    "brand": "DJI",
    "storeName": "南京千影汇珠江路照材店",
    "province": "江苏省",
    "city": "南京市",
    "address": "南京市珠江路435号华海3c一楼1F-8",
    "latitude": 32.048576,
    "longitude": 118.797899,
    "storeType": "新型照材",
    "serviceTags": [
      "可试飞",
      "支持以旧换新"
    ],
    "openingHours": "9:00~17:30",
    "phone": "025-52643542"
  },
  {
    "id": "60036754",
    "brand": "DJI",
    "storeName": "厦门海沧SM授权体验店",
    "province": "福建省",
    "city": "厦门市",
    "address": "福建省厦门市海沧区孚莲路1818号海沧SM广场一楼L122商铺",
    "latitude": 24.54146,
    "longitude": 117.952614,
    "storeType": "ARS",
    "serviceTags": [
      "可试飞",
      "支持以旧换新"
    ],
    "openingHours": "10:00-22:00",
    "phone": "17350036367,0592-2027938"
  },
  {
    "id": "60020003",
    "brand": "DJI",
    "storeName": "昆明五华吾悦授权体验店",
    "province": "云南省",
    "city": "昆明市",
    "address": "云南省昆明市五华区王筇路五华吾悦广场1楼1037-1",
    "latitude": 25.095607,
    "longitude": 102.664982,
    "storeType": "ARS",
    "serviceTags": [
      "可试飞",
      "支持以旧换新"
    ],
    "openingHours": "周天至周四10:00-22:00,周五至周六10:00-22:30",
    "phone": "18213043671"
  },
  {
    "id": "A0400386",
    "brand": "DJI",
    "storeName": "北京SKP授权体验店",
    "province": "北京市",
    "city": "北京市",
    "address": "北京市朝阳区建国路87号北京SKP购物中心D区5297",
    "latitude": 39.910264,
    "longitude": 116.478833,
    "storeType": "ARS",
    "serviceTags": [
      "可试飞",
      "支持以旧换新"
    ],
    "openingHours": "10:00~22:00",
    "phone": "18601233129"
  },
  {
    "id": "A0500016",
    "brand": "DJI",
    "storeName": "石家庄恒威织音艺术园授权体验专区",
    "province": "河北省",
    "city": "石家庄市",
    "address": "河北省石家庄市长安区和平东路161号织音艺术园区7号楼西侧",
    "latitude": 38.044345,
    "longitude": 114.504681,
    "storeType": "新型照材",
    "serviceTags": [
      "可试飞"
    ],
    "openingHours": "8:30~19:00",
    "phone": "13933001068"
  },
  {
    "id": "A0400245",
    "brand": "DJI",
    "storeName": "淄博万象汇授权体验店",
    "province": "山东省",
    "city": "淄博市",
    "address": "山东省淄博市张店区金晶大道66号淄博万象汇一楼L135",
    "latitude": 36.803011,
    "longitude": 118.060685,
    "storeType": "ARS",
    "serviceTags": [
      "可试飞",
      "支持以旧换新"
    ],
    "openingHours": "10:00~22:00",
    "phone": "15866291693"
  },
  {
    "id": "60037280",
    "brand": "DJI",
    "storeName": "大庆极客德威电脑城授权体验专区",
    "province": "黑龙江省",
    "city": "大庆市",
    "address": "黑龙江省大庆市萨尔图区会站大街德威电脑城1楼1号",
    "latitude": 46.602729,
    "longitude": 125.019935,
    "storeType": "新型照材",
    "serviceTags": [
      "可试飞",
      "支持以旧换新"
    ],
    "openingHours": "周一至周日8:30-17:00",
    "phone": "15845827797"
  },
  {
    "id": "60036220",
    "brand": "DJI",
    "storeName": "DJI 大疆|哈苏 深圳湾万象城概念店",
    "province": "广东省",
    "city": "深圳市",
    "address": "广东省深圳市南山区海德一道1218号深圳湾万象城D区B1层DB139",
    "latitude": 22.52052,
    "longitude": 113.95045,
    "storeType": "ARS",
    "serviceTags": [
      "可试飞",
      "支持以旧换新"
    ],
    "openingHours": "周天至周四10:00-22:00, 周五至周六10:00-22:30",
    "phone": "0755-22672509,18128857925"
  },
  {
    "id": "60026188",
    "brand": "DJI",
    "storeName": "广州广州塔授权体验店",
    "province": "广东省",
    "city": "广州市",
    "address": "广州市海珠区广州塔路8号广州塔广场L110b号铺",
    "latitude": 23.110061,
    "longitude": 113.331373,
    "storeType": "ARS",
    "serviceTags": [
      "可试飞",
      "支持以旧换新"
    ],
    "openingHours": "10:00-22:00",
    "phone": "19128708417,020-32642364"
  },
  {
    "id": "60036211",
    "brand": "DJI",
    "storeName": "阿克苏太百购物中心授权体验店",
    "province": "新疆维吾尔自治区",
    "city": "阿克苏地区",
    "address": "阿克苏地区阿克苏市新华东路13号阿克苏太百购物中心1F-1",
    "latitude": 41.173139,
    "longitude": 80.261847,
    "storeType": "ARS",
    "serviceTags": [
      "可试飞",
      "支持以旧换新"
    ],
    "openingHours": "周天至周四11:00-9:30, 周五至周六11:00-22:00",
    "phone": "15899109512"
  },
  {
    "id": "A400368",
    "brand": "DJI",
    "storeName": "上海七宝领展授权体验店",
    "province": "上海市",
    "city": "上海市",
    "address": "上海市闵行区漕宝路3366号七宝领展B136A-B136C店铺",
    "latitude": 31.15536,
    "longitude": 121.350757,
    "storeType": "ARS",
    "serviceTags": [
      "可试飞",
      "支持以旧换新"
    ],
    "openingHours": "10:00-22:00",
    "phone": "021-64195791,13120659632"
  },
  {
    "id": "A0100004",
    "brand": "DJI",
    "storeName": "深圳蛇口邮轮中心授权体验店",
    "province": "广东省",
    "city": "深圳市",
    "address": "深圳市南山区招商街道五湾社区蛇口海运路1号蛇口太子湾邮轮中心 315",
    "latitude": 22.474665,
    "longitude": 113.919967,
    "storeType": "新型照材",
    "serviceTags": [
      "可试飞",
      "支持以旧换新"
    ],
    "openingHours": "10:00~19:00",
    "phone": "18124132300"
  },
  {
    "id": "60037318",
    "brand": "DJI",
    "storeName": "成都科华王府井授权体验店",
    "province": "四川省",
    "city": "成都市",
    "address": "四川省成都市武侯区科华中路2号第1层L01128号商铺",
    "latitude": 30.62,
    "longitude": 104.08,
    "storeType": "ARS",
    "serviceTags": [
      "可试飞",
      "支持以旧换新"
    ],
    "openingHours": "10:00-22:00",
    "phone": "19150048352"
  },
  {
    "id": "60001008",
    "brand": "DJI",
    "storeName": "惠州港惠授权体验店",
    "province": "广东省",
    "city": "惠州市",
    "address": "广东省惠州市惠城区河南岸街道惠南社区南岸路66号港惠购物中心一楼1037号",
    "latitude": 23.074451,
    "longitude": 114.424798,
    "storeType": "ARS",
    "serviceTags": [
      "可试飞",
      "支持以旧换新"
    ],
    "openingHours": "10：00-22：00",
    "phone": "18127781774"
  },
  {
    "id": "60029650",
    "brand": "DJI",
    "storeName": "北京京东LIVE双井授权体验店",
    "province": "北京市",
    "city": "北京市",
    "address": "朝阳区广集路31号九龙商厦1幢1层部分2层全部3层",
    "latitude": 39.5333,
    "longitude": 116.2807,
    "storeType": "ARS",
    "serviceTags": [
      "可试飞",
      "支持以旧换新"
    ],
    "openingHours": "10：00-22：00",
    "phone": "13121372711"
  },
  {
    "id": "60037137",
    "brand": "DJI",
    "storeName": "深圳怀德万象汇授权体验店",
    "province": "广东省",
    "city": "深圳市",
    "address": "深圳市宝安区福永大道与怀德南路交汇处怀德万象汇ALG32",
    "latitude": 22.66631,
    "longitude": 113.81968,
    "storeType": "ARS",
    "serviceTags": [
      "可试飞",
      "支持以旧换新"
    ],
    "openingHours": "周天至周四10:00-22:00, 周五至周六10:00-22:30",
    "phone": "15999678569"
  },
  {
    "id": "60014952",
    "brand": "DJI",
    "storeName": "盐城金鹰聚龙湖授权体验店",
    "province": "江苏省",
    "city": "盐城市",
    "address": "江苏省盐城市盐都区新都街道268号盐城聚龙湖金鹰购物中心一楼A-F1138",
    "latitude": 33.339817,
    "longitude": 120.163692,
    "storeType": "ARS",
    "serviceTags": [
      "可试飞",
      "支持以旧换新"
    ],
    "openingHours": "周一至周四:10:00-21:30, 周五至周日:10:00-22:00",
    "phone": "13365197685"
  },
  {
    "id": "A0400309",
    "brand": "DJI",
    "storeName": "成都万象城授权体验店",
    "province": "四川省",
    "city": "成都市",
    "address": "四川省成都市成华区双庆路8号成都华润万象城C馆一楼165号",
    "latitude": 30.656346,
    "longitude": 104.10325,
    "storeType": "ARS",
    "serviceTags": [
      "可试飞",
      "支持以旧换新"
    ],
    "openingHours": "周日~周四 10:00~22:00 周五~周六 10:00~22:30",
    "phone": "15387641600,028-84451337"
  },
  {
    "id": "60036826",
    "brand": "DJI",
    "storeName": "长春红旗街万达授权体验店",
    "province": "吉林省",
    "city": "长春市",
    "address": "长春市朝阳区红旗街616号红旗街万达1层182商铺",
    "latitude": 43.866775,
    "longitude": 125.294647,
    "storeType": "ARS",
    "serviceTags": [
      "可试飞",
      "支持以旧换新"
    ],
    "openingHours": "10:00-22:00",
    "phone": "15948558841"
  },
  {
    "id": "60037535",
    "brand": "DJI",
    "storeName": "上海青浦万科天空之城授权体验店",
    "province": "上海市",
    "city": "上海市",
    "address": "上海市青浦区崧泽大道2229弄66号L1-77铺位",
    "latitude": 31.17,
    "longitude": 121.24,
    "storeType": "ARS",
    "serviceTags": [
      "可试飞",
      "支持以旧换新"
    ],
    "openingHours": "周一至周日 10:00-22:00",
    "phone": "17521501724"
  },
  {
    "id": "60023528",
    "brand": "DJI",
    "storeName": "烟台振华广场授权体验店",
    "province": "山东省",
    "city": "烟台市",
    "address": "山东省烟台市芝罘区西大街8号振华商厦1层A41",
    "latitude": 37.542069,
    "longitude": 121.38328,
    "storeType": "ARS",
    "serviceTags": [
      "可试飞",
      "支持以旧换新"
    ],
    "openingHours": "9：30-21：30",
    "phone": "17554258626"
  },
  {
    "id": "60015385",
    "brand": "DJI",
    "storeName": "贵阳万象城授权体验店",
    "province": "贵州省",
    "city": "贵阳市",
    "address": "贵阳市南明区遵义路万象城LG119A",
    "latitude": 26.566745,
    "longitude": 106.711121,
    "storeType": "ARS",
    "serviceTags": [
      "可试飞",
      "支持以旧换新"
    ],
    "openingHours": "10：00-22：00",
    "phone": "13075835966"
  },
  {
    "id": "A400331",
    "brand": "DJI",
    "storeName": "深圳笋岗万象食家授权体验店",
    "province": "广东省",
    "city": "深圳市",
    "address": "广东省深圳市罗湖区梅园路71号万象食家L3层KL326号",
    "latitude": 22.559865,
    "longitude": 114.110598,
    "storeType": "ARS",
    "serviceTags": [
      "可试飞",
      "支持以旧换新"
    ],
    "openingHours": "10:00-22:00",
    "phone": "0755-82491692,18124148809"
  },
  {
    "id": "AD101462",
    "brand": "DJI",
    "storeName": "南京鼎胜珠江路百脑汇授权体验专区",
    "province": "江苏省",
    "city": "南京市",
    "address": "江苏省南京市玄武区珠江路333号百脑汇一楼1A06,1B07",
    "latitude": 32.05564,
    "longitude": 118.800028,
    "storeType": "新型照材",
    "serviceTags": [
      "可试飞",
      "支持以旧换新"
    ],
    "openingHours": "周一至周日9：00-18：00",
    "phone": "13951913615"
  },
  {
    "id": "60036998",
    "brand": "DJI",
    "storeName": "厦门湾悦城授权体验店",
    "province": "福建省",
    "city": "厦门市",
    "address": "福建省厦门市湖里区日圆二里1号厦门湾悦城一层L1-028A商铺",
    "latitude": 24.518275,
    "longitude": 118.156987,
    "storeType": "ARS",
    "serviceTags": [
      "可试飞",
      "支持以旧换新"
    ],
    "openingHours": "10:00-22:00",
    "phone": "0592-2092268,18059859064"
  },
  {
    "id": "A1000249",
    "brand": "DJI",
    "storeName": "合肥当代桐城路照材店",
    "province": "安徽省",
    "city": "合肥市",
    "address": "安徽省合肥市包河区桐城南路358号江南新里程当代数码门",
    "latitude": 31.841329,
    "longitude": 117.287312,
    "storeType": "新型照材",
    "serviceTags": [
      "可试飞",
      "支持以旧换新"
    ],
    "openingHours": "9:00~19:00",
    "phone": "0551-62639399,18156093955"
  },
  {
    "id": "60023539",
    "brand": "DJI",
    "storeName": "兰州万达茂授权体验店",
    "province": "甘肃省",
    "city": "兰州市",
    "address": "甘肃省兰州市七里河区秀川街道南滨河中路3499号万达茂1F-1017号商铺",
    "latitude": 36.089854,
    "longitude": 103.680547,
    "storeType": "ARS",
    "serviceTags": [
      "可试飞",
      "支持以旧换新"
    ],
    "openingHours": "10:00-22:00",
    "phone": "13359408590"
  },
  {
    "id": "60036110",
    "brand": "DJI",
    "storeName": "济南恒隆广场授权体验店",
    "province": "山东省",
    "city": "济南市",
    "address": "山东省济南市历下区泉城路188号东塔1楼127",
    "latitude": 36.663795,
    "longitude": 117.023722,
    "storeType": "ARS",
    "serviceTags": [
      "可试飞",
      "支持以旧换新"
    ],
    "openingHours": "10:00-22:00",
    "phone": "13583171355"
  },
  {
    "id": "60026204",
    "brand": "DJI",
    "storeName": "宝鸡银泰城授权体验店",
    "province": "陕西省",
    "city": "宝鸡市",
    "address": "陕西宝鸡市金台区金台大道66号宝鸡银泰城1F-32号",
    "latitude": 34.36,
    "longitude": 107.2,
    "storeType": "ARS",
    "serviceTags": [
      "可试飞",
      "支持以旧换新"
    ],
    "openingHours": "10:00-22:00",
    "phone": "17791105112"
  },
  {
    "id": "60037075",
    "brand": "DJI",
    "storeName": "广元利州万达授权体验专区",
    "province": "四川省",
    "city": "广元市",
    "address": "四川省广元市利州区万缘路与万缘大桥交叉口东南角广元万达广场一号门",
    "latitude": 32.424358,
    "longitude": 105.875969,
    "storeType": "ARS",
    "serviceTags": [
      "可试飞",
      "支持以旧换新"
    ],
    "openingHours": "10:00-22:00",
    "phone": "19180164358"
  },
  {
    "id": "A0500120",
    "brand": "DJI",
    "storeName": "南京百影锦创书城照材店",
    "province": "江苏省",
    "city": "南京市",
    "address": "南京玄武区珠江路657号锦创书城一路A座1-3（沿街）",
    "latitude": 32.065101,
    "longitude": 118.768883,
    "storeType": "新型照材",
    "serviceTags": [
      "可试飞",
      "支持以旧换新"
    ],
    "openingHours": "09:00~18:00",
    "phone": "13611500267"
  },
  {
    "id": "60036637",
    "brand": "DJI",
    "storeName": "郴州锐飞解放路照材店",
    "province": "湖南省",
    "city": "郴州市",
    "address": "湖南省郴州市解放路103号",
    "latitude": 25.802275,
    "longitude": 113.03437,
    "storeType": "新型照材",
    "serviceTags": [
      "可试飞",
      "支持以旧换新"
    ],
    "openingHours": "9:00-18:00",
    "phone": "15607358088"
  },
  {
    "id": "A1000697",
    "brand": "DJI",
    "storeName": "滨州长城数码授权体验专区",
    "province": "山东省",
    "city": "滨州市",
    "address": "山东省滨州市滨城区黄河五路与渤海六路交叉路口向南50米路东",
    "latitude": 37.387016,
    "longitude": 118.032622,
    "storeType": "新型照材",
    "serviceTags": [
      "可试飞",
      "支持以旧换新"
    ],
    "openingHours": "8:30-17:30",
    "phone": "13605438563;0543-2111066"
  },
  {
    "id": "A0500026",
    "brand": "DJI",
    "storeName": "荆州弄潮红门路照材店",
    "province": "湖北省",
    "city": "荆州市",
    "address": "湖北省荆州市沙市区红门路红景嘉园B区一楼",
    "latitude": 30.308368,
    "longitude": 112.262165,
    "storeType": "新型照材",
    "serviceTags": [
      "可试飞",
      "支持以旧换新"
    ],
    "openingHours": "8:30~18:00",
    "phone": "18972126007"
  },
  {
    "id": "A0500018",
    "brand": "DJI",
    "storeName": "常州恐龙园售点",
    "province": "江苏省",
    "city": "常州市",
    "address": "江苏省常州市新北区河海东路60号迪诺水镇19号楼",
    "latitude": 31.822314,
    "longitude": 120.006097,
    "storeType": "新型照材",
    "serviceTags": [
      "可试飞",
      "支持以旧换新"
    ],
    "openingHours": "周一至周四9:30-21:00,周五9:30-21:30,周六9:00-21:30,周日9:00-21:00",
    "phone": "13775123459"
  },
  {
    "id": "A0300005",
    "brand": "DJI",
    "storeName": "长沙科佳摄影城专营店",
    "province": "湖南省",
    "city": "长沙市",
    "address": "长沙市芙蓉区解放东路科佳摄影城121-1号",
    "latitude": 28.190948,
    "longitude": 113.009345,
    "storeType": "新型照材",
    "serviceTags": [
      "可试飞",
      "支持以旧换新"
    ],
    "openingHours": "周一至周日:9:00-18:00",
    "phone": "0731-88000606,13975108805"
  },
  {
    "id": "A0800291",
    "brand": "DJI",
    "storeName": "成都富卓华凌摄影城照材店",
    "province": "四川省",
    "city": "成都市",
    "address": "四川省成都市金牛区文家巷12号华凌摄影城1楼A2",
    "latitude": 30.683782,
    "longitude": 104.044756,
    "storeType": "新型照材",
    "serviceTags": [
      "可试飞",
      "支持以旧换新"
    ],
    "openingHours": "9:00~17:30",
    "phone": "13982155220"
  },
  {
    "id": "60037541",
    "brand": "DJI",
    "storeName": "常州天宁吾悦授权体验店",
    "province": "江苏省",
    "city": "常州市",
    "address": "江苏省常州市天宁区东方西路名山路交叉口天宁吾悦1F-1062",
    "latitude": 31.767129,
    "longitude": 120.004314,
    "storeType": "ARS",
    "serviceTags": [
      "可试飞",
      "支持以旧换新"
    ],
    "openingHours": "周一到周四10:00-21:30，周五到周日10:00-22:00",
    "phone": "13645191765"
  },
  {
    "id": "60028248",
    "brand": "DJI",
    "storeName": "成都京东MALL授权体验店",
    "province": "四川省",
    "city": "成都市",
    "address": "四川省成都市武侯区都会路59号成都京东MALL1楼",
    "latitude": 30.609839,
    "longitude": 104.070551,
    "storeType": "ARS",
    "serviceTags": [
      "可试飞",
      "支持以旧换新"
    ],
    "openingHours": "10：00-22：00",
    "phone": "13688481883"
  },
  {
    "id": "60019872",
    "brand": "DJI",
    "storeName": "陕西榆林万达授权体验店",
    "province": "陕西省",
    "city": "榆林市",
    "address": "陕西榆林市榆阳区榆林市高新技术产业园区长兴路175号万达广场1F层1052B号商铺",
    "latitude": 38.25,
    "longitude": 109.75,
    "storeType": "ARS",
    "serviceTags": [
      "可试飞",
      "支持以旧换新"
    ],
    "openingHours": "10:00-22:00",
    "phone": "19102930573"
  },
  {
    "id": "60000997",
    "brand": "DJI",
    "storeName": "昆明万象城授权体验店",
    "province": "云南省",
    "city": "昆明市",
    "address": "云南省昆明市官渡区环城南路1号昆明万象城B108商铺",
    "latitude": 25.029693,
    "longitude": 102.734004,
    "storeType": "ARS",
    "serviceTags": [
      "可试飞",
      "支持以旧换新"
    ],
    "openingHours": "周日-周四10:00-22:00，周五-周六10:00-22:30",
    "phone": "0871-65836039"
  },
  {
    "id": "60000797",
    "brand": "DJI",
    "storeName": "厦门磐基中心授权体验店",
    "province": "福建省",
    "city": "厦门市",
    "address": "福建省厦门市思明区磐基名品中心",
    "latitude": 24.482665,
    "longitude": 118.120328,
    "storeType": "ARS",
    "serviceTags": [
      "可试飞",
      "支持以旧换新"
    ],
    "openingHours": "10:00-22:00",
    "phone": "15359312317,0592-5830382"
  },
  {
    "id": "60000776",
    "brand": "DJI",
    "storeName": "重庆IFS国金中心授权体验店",
    "province": "重庆市",
    "city": "重庆市",
    "address": "重庆市江北区庆云路1号IFS国金中心L118b号",
    "latitude": 29.51868,
    "longitude": 106.518509,
    "storeType": "ARS",
    "serviceTags": [
      "可试飞",
      "支持以旧换新"
    ],
    "openingHours": "10:00-22:00",
    "phone": "023-67629136,19332287597"
  },
  {
    "id": "A0400289",
    "brand": "DJI",
    "storeName": "广州番禺天河城授权体验店",
    "province": "广东省",
    "city": "广州市",
    "address": "广东省广州市番禺区南村镇万博二路180号粤海广场B独栋144、237铺",
    "latitude": 23.005474,
    "longitude": 113.348117,
    "storeType": "ARS",
    "serviceTags": [
      "可试飞",
      "支持以旧换新"
    ],
    "openingHours": "10:00~22:00",
    "phone": "020-31563090/18922182051/020-84509117"
  },
  {
    "id": "A0400381",
    "brand": "DJI",
    "storeName": "西安益田假日世界授权体验店",
    "province": "陕西省",
    "city": "西安市",
    "address": "西安市新城区长乐西路益田假日世界购物中心1F",
    "latitude": 34.269737,
    "longitude": 108.973356,
    "storeType": "ARS",
    "serviceTags": [
      "可试飞",
      "支持以旧换新"
    ],
    "openingHours": "10:00~22:00",
    "phone": "029-83220126/17392540513"
  },
  {
    "id": "60028951",
    "brand": "DJI",
    "storeName": "深圳罗湖KKMALL授权体验店",
    "province": "广东省",
    "city": "深圳市",
    "address": "深圳市罗湖区桂园街道深南东路5016号京基KK MALL一楼L108铺",
    "latitude": 22.547592,
    "longitude": 114.101476,
    "storeType": "ARS",
    "serviceTags": [
      "可试飞",
      "支持以旧换新"
    ],
    "openingHours": "周日-周四：10:00-22:00 周五-周六：10:00-22:30",
    "phone": "0755-25123824,18938089952"
  },
  {
    "id": "A1000738",
    "brand": "DJI",
    "storeName": "石家庄恒威太和电子城照材店",
    "province": "河北省",
    "city": "石家庄市",
    "address": "太和电子城1F58号西",
    "latitude": 38.044751,
    "longitude": 114.504767,
    "storeType": "新型照材",
    "serviceTags": [
      "可试飞",
      "支持以旧换新"
    ],
    "openingHours": "8:30~21:00",
    "phone": "15831161919"
  },
  {
    "id": "60033881",
    "brand": "DJI",
    "storeName": "黔东南凯里国贸授权体验店",
    "province": "贵州省",
    "city": "黔东南苗族侗族自治州",
    "address": "贵州省黔东南苗族侗族自治州凯里市北京西路21号国贸购物中心1F",
    "latitude": 26.580681,
    "longitude": 107.973153,
    "storeType": "ARS",
    "serviceTags": [
      "可试飞",
      "支持以旧换新"
    ],
    "openingHours": "10:30-22:00",
    "phone": "18985619016"
  },
  {
    "id": "A0400340",
    "brand": "DJI",
    "storeName": "深圳上梅林卓悦汇授权体验店",
    "province": "广东省",
    "city": "深圳市",
    "address": "深圳市福田区中康路126号卓悦汇购物中心一楼L1-01大疆",
    "latitude": 22.569989,
    "longitude": 114.060223,
    "storeType": "ARS",
    "serviceTags": [
      "可试飞",
      "支持以旧换新"
    ],
    "openingHours": "周日~周四:10:00~22:00   \n周五~周六:10:00~22:30",
    "phone": "0755-23914289,13686801773"
  },
  {
    "id": "60020822",
    "brand": "DJI",
    "storeName": "台州温岭银泰城授权体验店",
    "province": "浙江省",
    "city": "台州市",
    "address": "浙江省台州市温岭市中华路728号温岭银泰城一层1F020-A商铺",
    "latitude": 28.39,
    "longitude": 121.36,
    "storeType": "ARS",
    "serviceTags": [
      "可试飞",
      "支持以旧换新"
    ],
    "openingHours": "周一至周四10:00-21:30, 周五至周日10:00-22:00",
    "phone": "0576-86472686"
  },
  {
    "id": "60037217",
    "brand": "DJI",
    "storeName": "江门新会万达授权体验店",
    "province": "广东省",
    "city": "江门市",
    "address": "广东省广东省江门市新会区启超大道2号万达广场一楼1018A铺",
    "latitude": 22.51,
    "longitude": 113.05,
    "storeType": "ARS",
    "serviceTags": [
      "可试飞",
      "支持以旧换新"
    ],
    "openingHours": "10:00-22:00",
    "phone": "15521670207"
  },
  {
    "id": "60014714",
    "brand": "DJI",
    "storeName": "哈尔滨远大授权体验专区",
    "province": "黑龙江省",
    "city": "哈尔滨市",
    "address": "黑龙江省哈尔滨市南岗区果戈里大街378号5F-B14",
    "latitude": 45.760565,
    "longitude": 126.643868,
    "storeType": "ARS",
    "serviceTags": [
      "可试飞",
      "支持以旧换新"
    ],
    "openingHours": "9:00-21:30",
    "phone": "18724512007"
  },
  {
    "id": "A0400267",
    "brand": "DJI",
    "storeName": "广州天河城授权体验店",
    "province": "广东省",
    "city": "广州市",
    "address": "广东省广州市天河区天河路天河城4楼408铺",
    "latitude": 23.137654,
    "longitude": 113.329203,
    "storeType": "ARS",
    "serviceTags": [
      "可试飞",
      "支持以旧换新"
    ],
    "openingHours": "10:00~22:00",
    "phone": "18925161044,020-83624676"
  },
  {
    "id": "60037295",
    "brand": "DJI",
    "storeName": "珠海金湾华发商都授权体验店",
    "province": "广东省",
    "city": "珠海市",
    "address": "珠海市金湾区三灶镇金河东路720号金湾华发商都A馆一层A1024b、A1025b号",
    "latitude": 22.120125,
    "longitude": 113.367869,
    "storeType": "ARS",
    "serviceTags": [
      "可试飞",
      "支持以旧换新"
    ],
    "openingHours": "周天至周四10:00-22:00, 周五至周六10:00-22:30",
    "phone": "0756-7266991"
  },
  {
    "id": "A1000416",
    "brand": "DJI",
    "storeName": "南宁艺联古城路体验专区",
    "province": "广西壮族自治区",
    "city": "南宁市",
    "address": "南宁市青秀区古城路2-8号103铺",
    "latitude": 22.813361,
    "longitude": 108.342993,
    "storeType": "新型照材",
    "serviceTags": [
      "可试飞",
      "支持以旧换新"
    ],
    "openingHours": "9:30~18:00",
    "phone": "13978809101"
  },
  {
    "id": "A1000542",
    "brand": "DJI",
    "storeName": "广州索盟友谊国金授权体验专区",
    "province": "广东省",
    "city": "广州市",
    "address": "广州市天河区猎德街道珠江西路5号广州友谊商场国金店M层大疆体验专区",
    "latitude": 23.118525,
    "longitude": 113.322689,
    "storeType": "新型照材",
    "serviceTags": [
      "可试飞",
      "支持以旧换新"
    ],
    "openingHours": "周一至周日10:00-22:00",
    "phone": "18928743156"
  },
  {
    "id": "A1000116",
    "brand": "DJI",
    "storeName": "焦作众邦和诚外滩授权体验专区",
    "province": "河南省",
    "city": "焦作市",
    "address": "河南省焦作市解放区王褚街道新安路与政一街交叉口1828号DJI大疆无人机",
    "latitude": 35.216677,
    "longitude": 113.232365,
    "storeType": "新型照材",
    "serviceTags": [
      "可试飞",
      "支持以旧换新"
    ],
    "openingHours": "9:00-20:00",
    "phone": "18530053340,15978790376"
  },
  {
    "id": "60000549",
    "brand": "DJI",
    "storeName": "兰州万象城授权体验店",
    "province": "甘肃省",
    "city": "兰州市",
    "address": "甘肃省兰州市城关区庆阳路2号万象城621",
    "latitude": 36.05445,
    "longitude": 103.831602,
    "storeType": "ARS",
    "serviceTags": [
      "支持以旧换新"
    ],
    "openingHours": "10：00-22：00",
    "phone": "13919010117"
  },
  {
    "id": "60033830",
    "brand": "DJI",
    "storeName": "昆明世纪金源授权体验店",
    "province": "云南省",
    "city": "昆明市",
    "address": "云南省昆明市官渡区金源大道1号B-1022、1023B号商铺",
    "latitude": 24.983597,
    "longitude": 102.768917,
    "storeType": "ARS",
    "serviceTags": [
      "可试飞",
      "支持以旧换新"
    ],
    "openingHours": "周天至周四10:00-22:00 周五至周六10:00-22:30",
    "phone": "15368714212"
  },
  {
    "id": "A10000004",
    "brand": "DJI",
    "storeName": "威海威高授权体验店",
    "province": "山东省",
    "city": "威海市",
    "address": "山东省威海市环翠区新威路17-5号威高广场购物中心A馆1层 L-X102",
    "latitude": 37.509026,
    "longitude": 122.121105,
    "storeType": "ARS",
    "serviceTags": [
      "可试飞",
      "支持以旧换新"
    ],
    "openingHours": "10:00~22:00",
    "phone": "13061107073"
  },
  {
    "id": "60019871",
    "brand": "DJI",
    "storeName": "三亚国际免税城授权体验店",
    "province": "海南省",
    "city": "三亚市",
    "address": "海南省三亚市海棠区海棠北路118号cdf三亚国际免税城一期B区3楼",
    "latitude": 18.372035,
    "longitude": 109.750965,
    "storeType": "ARS",
    "serviceTags": [
      "可试飞",
      "支持以旧换新"
    ],
    "openingHours": "10:00-22:00",
    "phone": "13750267464"
  },
  {
    "id": "60035970",
    "brand": "DJI",
    "storeName": "宜宾万象天地授权体验店",
    "province": "四川省",
    "city": "宜宾市",
    "address": "四川省宜宾市叙州区栀香路6号万象宜宾天地NL115号",
    "latitude": 28.729311,
    "longitude": 104.630997,
    "storeType": "ARS",
    "serviceTags": [
      "可试飞",
      "支持以旧换新"
    ],
    "openingHours": "周日到周四10:00-22:00；周五周六10:00-22:30",
    "phone": "17711227920"
  },
  {
    "id": "60016089",
    "brand": "DJI",
    "storeName": "唐山爱琴海授权体验店",
    "province": "河北省",
    "city": "唐山市",
    "address": "河北省唐山市路北区爱琴海购物公园一层F1031B+F1032号",
    "latitude": 39.639206,
    "longitude": 118.171286,
    "storeType": "ARS",
    "serviceTags": [
      "可试飞",
      "支持以旧换新"
    ],
    "openingHours": "周一至周四 09:30-21:30;周五至周日 09:30-22:00",
    "phone": "13230579929"
  },
  {
    "id": "AD101382",
    "brand": "DJI",
    "storeName": "宜昌江山珍珠路照材店",
    "province": "湖北省",
    "city": "宜昌市",
    "address": "湖北省宜昌市西陵区珍珠路53号",
    "latitude": 30.706348,
    "longitude": 111.287023,
    "storeType": "新型照材",
    "serviceTags": [
      "可试飞",
      "支持以旧换新"
    ],
    "openingHours": "08:00~18:00",
    "phone": "18972009525"
  },
  {
    "id": "000001",
    "brand": "DJI",
    "storeName": "DJI 大疆|哈苏 杭州万象城旗舰店",
    "province": "浙江省",
    "city": "杭州市",
    "address": "杭州市上城区富春路701号杭州万象城商场B1层B1S90铺位",
    "latitude": 30.251975,
    "longitude": 120.215619,
    "storeType": "ARS",
    "serviceTags": [
      "可试飞",
      "支持以旧换新"
    ],
    "openingHours": "10:00~22:00",
    "phone": "0571-85177981"
  },
  {
    "id": "60035139",
    "brand": "DJI",
    "storeName": "西安曲江金地授权体验店",
    "province": "陕西省",
    "city": "西安市",
    "address": "陕西省西安市曲江新区曲江池东路999号金住地广场F1楼F117A-F117B号商铺",
    "latitude": 34.203397,
    "longitude": 108.988435,
    "storeType": "ARS",
    "serviceTags": [
      "可试飞",
      "支持以旧换新"
    ],
    "openingHours": "10:00-22:00",
    "phone": "15399462902"
  },
  {
    "id": "A400311",
    "brand": "DJI",
    "storeName": "郑州熙地港授权体验店",
    "province": "河南省",
    "city": "郑州市",
    "address": "河南省郑州市金水区农业东路15号熙地港购物中心1F L1045",
    "latitude": 34.785197,
    "longitude": 113.716562,
    "storeType": "ARS",
    "serviceTags": [
      "可试飞",
      "支持以旧换新"
    ],
    "openingHours": "10:00~22:00",
    "phone": "17503827430"
  },