[
  {
    "id": "1350",
    "brand": "Insta360",
    "storeName": "影石Insta360北京朝阳合生汇授权体验店",
    "province": "北京市",
    "city": "市辖区",
    "address": "西大望路甲22号合生汇B2K03AB",
    "latitude": 39.899565,
    "longitude": 116.486372,
    "storeType": "授权专卖店",
    "serviceTags": [],
    "openingHours": "周一～周日10:00-22:00",
    "phone": "15600389557"
  },
  {
    "id": "1407",
    "brand": "Insta360",
    "storeName": "影石Insta360北京西单大悦城授权体验店",
    "province": "北京市",
    "city": "市辖区",
    "address": "北京市西城区西单大悦城购物中心4层",
    "latitude": 39.916963,
    "longitude": 116.379306,
    "storeType": "授权专卖店",
    "serviceTags": [],
    "openingHours": "10:00 - 22:00",
    "phone": "18522323191"
  },
  {
    "id": "1291",
    "brand": "Insta360",
    "storeName": "影石Insta360北京清河万象汇授权体验店",
    "province": "北京市",
    "city": "市辖区",
    "address": "清河中街68号/66号院1号楼万象汇一层L114",
    "latitude": 40.035789,
    "longitude": 116.341954,
    "storeType": "授权专卖店",
    "serviceTags": [],
    "openingHours": "周一～周日10:00-22:00",
    "phone": "19231189360"
  },
  {
    "id": "1576",
    "brand": "Insta360",
    "storeName": "影石Insta360北京首都机场T3授权体验店",
    "province": "北京市",
    "city": "市辖区",
    "address": "北京市朝阳区首都机场路首都国际机场",
    "latitude": 40.09,
    "longitude": 116.61,
    "storeType": "授权专卖店",
    "serviceTags": [],
    "openingHours": "06:00-22:00",
    "phone": "17610848823"
  },
  {
    "id": "1584",
    "brand": "Insta360",
    "storeName": "影石Insta360北京亦庄龙湖天街授权体验店",
    "province": "北京市",
    "city": "市辖区",
    "address": "北京市大兴区博兴八路与兴海路交叉口龙湖亦庄天街1F-30A影石Insta360",
    "latitude": 39.76,
    "longitude": 116.5,
    "storeType": "授权专卖店",
    "serviceTags": [],
    "openingHours": "10:00-22:00",
    "phone": "17610268200"
  },
  {
    "id": "1570",
    "brand": "Insta360",
    "storeName": "影石Insta360北京SKP授权体验店",
    "province": "北京市",
    "city": "市辖区",
    "address": "北京市朝阳区建国路87号北京SKPF5层D5297影石Insta360",
    "latitude": 39.92,
    "longitude": 116.49,
    "storeType": "授权专卖店",
    "serviceTags": [],
    "openingHours": "10:00-22:00",
    "phone": "18610474243"
  },
  {
    "id": "1460",
    "brand": "Insta360",
    "storeName": "影石Insta360北京三里屯太古里授权体验店",
    "province": "北京市",
    "city": "市辖区",
    "address": "北京市朝阳区三里屯太古里西区W1-12",
    "latitude": 39.94,
    "longitude": 116.46,
    "storeType": "授权专卖店",
    "serviceTags": [],
    "openingHours": "10:00-22:00",
    "phone": "17301391892"
  },
  {
    "id": "1468",
    "brand": "Insta360",
    "storeName": "影石Insta360北京超极合生汇授权体验店",
    "province": "北京市",
    "city": "市辖区",
    "address": "北京市昌平区北清路超极合生汇lg2-72",
    "latitude": 40.1,
    "longitude": 116.3,
    "storeType": "授权专卖店",
    "serviceTags": [],
    "openingHours": "10:00-22:00",
    "phone": "15611127757"
  },
  {
    "id": "1536",
    "brand": "Insta360",
    "storeName": "北京合生汇授权体验店",
    "province": "北京市",
    "city": "市辖区",
    "address": "北京市朝阳区西大望路甲22号合生汇B2K03AB",
    "latitude": 39.9,
    "longitude": 116.49,
    "storeType": "授权专卖店",
    "serviceTags": [],
    "openingHours": "10:00-22:00",
    "phone": "15600389557"
  },
  {
    "id": "1443",
    "brand": "Insta360",
    "storeName": "影石Insta360北京望京凯德授权体验店",
    "province": "北京市",
    "city": "市辖区",
    "address": "北京市朝阳区望京凯德mall商场1层",
    "latitude": 40.0,
    "longitude": 116.47,
    "storeType": "授权专卖店",
    "serviceTags": [],
    "openingHours": "10:00-22:00",
    "phone": "13011809502"
  },
  {
    "id": "1395",
    "brand": "Insta360",
    "storeName": "影石Insta360北京798创意园授权专卖店",
    "province": "北京市",
    "city": "市辖区",
    "address": "酒仙桥路 4号院内751影石体验店（便利蜂旁边）",
    "latitude": 39.990565,
    "longitude": 116.504968,
    "storeType": "授权专卖店",
    "serviceTags": [],
    "openingHours": "10:00~20:00",
    "phone": "15679620963"
  },
  {
    "id": "778",
    "brand": "Insta360",
    "storeName": "影石Insta360北京五棵松照材专卖店",
    "province": "北京市",
    "city": "市辖区",
    "address": "北京市海淀区西四环中路6号五棵松摄影器材城一层C24A影石",
    "latitude": 39.927195,
    "longitude": 116.282381,
    "storeType": "授权专卖店",
    "serviceTags": [],
    "openingHours": "09:30-17:20",
    "phone": "13121193161"
  },
  {
    "id": "1525",
    "brand": "Insta360",
    "storeName": "影石Insta360北京马连道照材专区",
    "province": "北京市",
    "city": "市辖区",
    "address": "北京市西城区马连道摄影器材城4层南区202",
    "latitude": 39.89,
    "longitude": 116.33,
    "storeType": "合作体验点",
    "serviceTags": [],
    "openingHours": "9:30-18:00",
    "phone": "18501219182"
  },
  {
    "id": "1352",
    "brand": "Insta360",
    "storeName": "北京马连道照材店",
    "province": "北京市",
    "city": "市辖区",
    "address": "马连道摄影器材城4层南区202张张丽摄影",
    "latitude": 39.889093,
    "longitude": 116.332624,
    "storeType": "合作体验点",
    "serviceTags": [],
    "openingHours": "周一～周日9:30-18:00",
    "phone": "18501219182"
  },
  {
    "id": "759",
    "brand": "Insta360",
    "storeName": "中体冠军",
    "province": "北京市",
    "city": "市辖区",
    "address": "北七家温都水城能量馆北京中体冠军仓储店",
    "latitude": 40.109687,
    "longitude": 116.375881,
    "storeType": "合作体验点",
    "serviceTags": [],
    "openingHours": null,
    "phone": null
  },
  {
    "id": "842",
    "brand": "Insta360",
    "storeName": "北京SKP商场店",
    "province": "北京市",
    "city": "市辖区",
    "address": "建国路87号五层",
    "latitude": 39.916203,
    "longitude": 116.485557,
    "storeType": "合作体验点",
    "serviceTags": [],
    "openingHours": null,
    "phone": null
  },
  {
    "id": "499",
    "brand": "Insta360",
    "storeName": "北京三里屯店",
    "province": "北京市",
    "city": "市辖区",
    "address": "工体北路三里屯交汇处三里屯路19号院三里屯Village购物中心（顺电）",
    "latitude": 39.9381,
    "longitude": 116.460212,
    "storeType": "合作体验点",
    "serviceTags": [],
    "openingHours": null,
    "phone": null
  },
  {
    "id": "906",
    "brand": "Insta360",
    "storeName": "北京东枫德必A座店",
    "province": "北京市",
    "city": "市辖区",
    "address": "东风南路8号东枫德必A座1层 黛德安",
    "latitude": 39.960988,
    "longitude": 116.512677,
    "storeType": "合作体验点",
    "serviceTags": [],
    "openingHours": null,
    "phone": null
  },
  {
    "id": "497",
    "brand": "Insta360",
    "storeName": "北京东直门店",
    "province": "北京市",
    "city": "市辖区",
    "address": "东直门南大街1号北京来福士购物中心4层20号（顺电）",
    "latitude": 39.94606,
    "longitude": 116.438918,
    "storeType": "合作体验点",
    "serviceTags": [],
    "openingHours": null,
    "phone": null
  },
  {
    "id": "902",
    "brand": "Insta360",
    "storeName": "北京中体冠军店",
    "province": "北京市",
    "city": "市辖区",
    "address": "七家温都水城能量馆北京中体冠军仓储店",
    "latitude": 40.109687,
    "longitude": 116.375881,
    "storeType": "合作体验点",
    "serviceTags": [],
    "openingHours": null,
    "phone": null
  },
  {
    "id": "850",
    "brand": "Insta360",
    "storeName": "北京公益西桥店",
    "province": "北京市",
    "city": "市辖区",
    "address": "城南嘉园益城园14号楼BHGMall北京华联公益西桥购物中心（鹰巢数码）",
    "latitude": 39.840786,
    "longitude": 116.375516,
    "storeType": "合作体验点",
    "serviceTags": [],
    "openingHours": null,
    "phone": null
  },
  {
    "id": "436",
    "brand": "Insta360",
    "storeName": "北京北苑上品店",
    "province": "北京市",
    "city": "市辖区",
    "address": "北苑路甲13号上品+互联网城市奥莱一层（UP+）",
    "latitude": 40.037985,
    "longitude": 116.423171,
    "storeType": "合作体验点",
    "serviceTags": [],
    "openingHours": null,
    "phone": null
  },
  {
    "id": "851",
    "brand": "Insta360",
    "storeName": "北京四通桥当代店",
    "province": "北京市",
    "city": "市辖区",
    "address": "中关村大街40号1层（鹰巢数码）",
    "latitude": 39.976328,
    "longitude": 116.327636,
    "storeType": "合作体验点",
    "serviceTags": [],
    "openingHours": null,
    "phone": null
  },
  {
    "id": "691",
    "brand": "Insta360",
    "storeName": "北京国贸SOLOX店",
    "province": "北京市",
    "city": "市辖区",
    "address": "建国门外大街1号商场地上一层3L102、3L103、3L104号双层铺位SOLOX（SNOW51）",
    "latitude": 39.918265,
    "longitude": 116.466224,
    "storeType": "合作体验点",
    "serviceTags": [],
    "openingHours": null,
    "phone": null
  },
  {
    "id": "498",
    "brand": "Insta360",
    "storeName": "北京国贸店",
    "province": "北京市",
    "city": "市辖区",
    "address": "建国门外大街一号中国国际贸易中心国贸商城三期3B209/210（顺电）",
    "latitude": 39.916676,
    "longitude": 116.465988,
    "storeType": "合作体验点",
    "serviceTags": [],
    "openingHours": null,
    "phone": null
  },
  {
    "id": "845",
    "brand": "Insta360",
    "storeName": "北京复兴门百盛店",
    "province": "北京市",
    "city": "市辖区",
    "address": "复兴门内大街101号百盛购物中心南楼3层（鹰巢数码）",
    "latitude": 39.91422,
    "longitude": 116.364773,
    "storeType": "合作体验点",
    "serviceTags": [],
    "openingHours": null,
    "phone": null
  },
  {
    "id": "816",
    "brand": "Insta360",
    "storeName": "北京奥莱店",
    "province": "北京市",
    "city": "市辖区",
    "address": "京良路首创奥特莱斯F1-A01B（恒洲苹果）",
    "latitude": 39.769005,
    "longitude": 116.195571,
    "storeType": "合作体验点",
    "serviceTags": [],
    "openingHours": null,
    "phone": null
  },
  {
    "id": "500",
    "brand": "Insta360",
    "storeName": "北京新奥店",
    "province": "北京市",
    "city": "市辖区",
    "address": "湖景东路11号新奥购物中心B2（顺电）",
    "latitude": 40.006364,
    "longitude": 116.402911,
    "storeType": "合作体验点",
    "serviceTags": [],
    "openingHours": null,
    "phone": null
  },
  {
    "id": "843",
    "brand": "Insta360",
    "storeName": "北京燕莎亮马桥店",
    "province": "北京市",
    "city": "市辖区",
    "address": "亮马桥路52号燕莎友谊商城5层（鹰巢数码）",
    "latitude": 39.954562,
    "longitude": 116.469751,
    "storeType": "合作体验点",
    "serviceTags": [],
    "openingHours": null,
    "phone": null
  },
  {
    "id": "844",
    "brand": "Insta360",
    "storeName": "北京燕莎金源店",
    "province": "北京市",
    "city": "市辖区",
    "address": "远大路1号金源燕莎友谊商城B1层（鹰巢数码）",
    "latitude": 39.965015,
    "longitude": 116.297826,
    "storeType": "合作体验点",
    "serviceTags": [],
    "openingHours": null,
    "phone": null
  },
  {
    "id": "849",
    "brand": "Insta360",
    "storeName": "北京甘家口店",
    "province": "北京市",
    "city": "市辖区",
    "address": "三里河路17号甘家口大厦一层鹰巢数码",
    "latitude": 39.933037,
    "longitude": 116.339848,
    "storeType": "合作体验点",
    "serviceTags": [],
    "openingHours": null,
    "phone": null
  },
  {
    "id": "847",
    "brand": "Insta360",
    "storeName": "北京翠微公主坟店",
    "province": "北京市",
    "city": "市辖区",
    "address": "复兴路33号公主坟翠微百货A座四层鹰巢数码",
    "latitude": 39.914267,
    "longitude": 116.309228,
    "storeType": "合作体验点",
    "serviceTags": [],
    "openingHours": null,
    "phone": null
  },
  {
    "id": "846",
    "brand": "Insta360",
    "storeName": "北京翠微牡丹园店",
    "province": "北京市",
    "city": "市辖区",
    "address": "花园路2号翠微百货牡丹园店三层鹰巢数码",
    "latitude": 39.983318,
    "longitude": 116.373697,
    "storeType": "合作体验点",
    "serviceTags": [],
    "openingHours": null,
    "phone": null
  },
  {
    "id": "501",
    "brand": "Insta360",
    "storeName": "北京颐堤港店",
    "province": "北京市",
    "city": "市辖区",
    "address": "酒仙桥颐堤港商场（顺电）",
    "latitude": 39.975869,
    "longitude": 116.498004,
    "storeType": "合作体验点",
    "serviceTags": [],
    "openingHours": null,
    "phone": null
  },
  {
    "id": "848",
    "brand": "Insta360",
    "storeName": "北京龙德广场店",
    "province": "北京市",
    "city": "市辖区",
    "address": "立汤路186号翠微龙德广场3层（鹰巢数码）",
    "latitude": 40.065969,
    "longitude": 116.422025,
    "storeType": "合作体验点",
    "serviceTags": [],
    "openingHours": null,
    "phone": null
  },
  {
    "id": "1552",
    "brand": "Insta360",
    "storeName": "北京五棵松摄影城华聿资通售点1",
    "province": "北京市",
    "city": "市辖区",
    "address": "北京市海淀区五棵松摄影城B20",
    "latitude": 39.93,
    "longitude": 116.28,
    "storeType": "合作体验点",
    "serviceTags": [],
    "openingHours": null,
    "phone": null
  },
  {
    "id": "1557",
    "brand": "Insta360",
    "storeName": "北京光华路SOHO大厦九州摄影器材售点1",
    "province": "北京市",
    "city": "市辖区",
    "address": "北京市朝阳区光华路22号光华路SOHO大厦一期二层 212",
    "latitude": 39.92,
    "longitude": 116.46,
    "storeType": "合作体验点",
    "serviceTags": [],
    "openingHours": null,
    "phone": null
  },
  {
    "id": "1544",
    "brand": "Insta360",
    "storeName": "北京百子湾卡达摄影器材售点1",
    "province": "北京市",
    "city": "市辖区",
    "address": "北京市朝阳区广渠路11号院 能+中心底商A座103",
    "latitude": 39.9,
    "longitude": 116.51,
    "storeType": "合作体验点",
    "serviceTags": [],
    "openingHours": null,
    "phone": null
  },
  {
    "id": "1550",
    "brand": "Insta360",
    "storeName": "北京五棵松博华同达售点1",
    "province": "北京市",
    "city": "市辖区",
    "address": "北京五棵松国际摄影器材城一层C26",
    "latitude": 39.93,
    "longitude": 116.28,
    "storeType": "合作体验点",
    "serviceTags": [],
    "openingHours": null,
    "phone": null
  },
  {
    "id": "1543",
    "brand": "Insta360",
    "storeName": "北京马连道卡达摄影器材售点1",
    "province": "北京市",
    "city": "市辖区",
    "address": "北京市西城区马连道11号马连道摄影器材城4层南区212号",
    "latitude": 39.89,
    "longitude": 116.33,
    "storeType": "合作体验点",
    "serviceTags": [],
    "openingHours": null,
    "phone": null
  },
  {
    "id": "685",
    "brand": "Insta360",
    "storeName": "雪具授权体验店（三里屯旗舰店）",
    "province": "北京市",
    "city": "市辖区",
    "address": "工体北路8号院三里屯SOHO五楼6号商城B1-1650（冷山雪具）",
    "latitude": 39.937095,
    "longitude": 116.460233,
    "storeType": "合作体验点",
    "serviceTags": [],
    "openingHours": null,
    "phone": null
  },
  {
    "id": "682",
    "brand": "Insta360",
    "storeName": "雪具授权体验店（顺义店）",
    "province": "北京市",
    "city": "市辖区",
    "address": "马坡镇南陈路66号傲天极限装备库",
    "latitude": 40.170011,
    "longitude": 116.622816,
    "storeType": "合作体验点",
    "serviceTags": [],
    "openingHours": null,
    "phone": null
  },
  {
    "id": "1425",
    "brand": "Insta360",
    "storeName": "影石Insta360天津梅江天街授权体验店",
    "province": "天津市",
    "city": "市辖区",
    "address": "天津市西青区津门湖街丽江道6号龙湖天津梅江天街1F-41",
    "latitude": 39.07,
    "longitude": 117.21,
    "storeType": "授权专卖店",
    "serviceTags": [],
    "openingHours": "10:00-22:00",
    "phone": "16622572891"
  },
  {
    "id": "1408",
    "brand": "Insta360",
    "storeName": "影石Insta360天津天河城授权体验店",
    "province": "天津市",
    "city": "市辖区",
    "address": "天津市和平区天河城购物中心5FD12",
    "latitude": 39.133042,
    "longitude": 117.210668,
    "storeType": "授权专卖店",
    "serviceTags": [],
    "openingHours": "10:00-22:00",
    "phone": "13096518676"
  },
  {
    "id": "1353",
    "brand": "Insta360",
    "storeName": "影石Insta360天津万象城授权体验店",
    "province": "天津市",
    "city": "市辖区",
    "address": "越秀路街道万象城B1-024-2",
    "latitude": 39.096493,
    "longitude": 117.219971,
    "storeType": "授权专卖店",
    "serviceTags": [],
    "openingHours": "周一～周日10:00-22:00",
    "phone": "13672044033"
  },
  {
    "id": "1392",
    "brand": "Insta360",
    "storeName": "影石Insta360天津南开大悦城授权体验店",
    "province": "天津市",
    "city": "市辖区",
    "address": "天津市南开区南门外大街2-6号大悦城南区2F-D41影石",
    "latitude": 39.13894,
    "longitude": 117.186449,
    "storeType": "授权专卖店",
    "serviceTags": [],
    "openingHours": "10:00-22:00",
    "phone": "17695932048"
  },
  {
    "id": "1409",
    "brand": "Insta360",
    "storeName": "影石Insta360天津百脑汇照材专卖店",
    "province": "天津市",
    "city": "市辖区",
    "address": "天津市南开区鞍山西道336号百脑汇商场1A03",
    "latitude": 39.121516,
    "longitude": 117.164491,
    "storeType": "合作体验点",
    "serviceTags": [],
    "openingHours": "9:30-19:00",
    "phone": "15633811583"
  },
  {
    "id": "1559",
    "brand": "Insta360",
    "storeName": "天津金元宝爱来无忧售点1",
    "province": "天津市",
    "city": "市辖区",
    "address": "天津市滨海新区开发区黄海路19号爱来无忧4楼",
    "latitude": 39.04,
    "longitude": 117.69,
    "storeType": "合作体验点",
    "serviceTags": [],
    "openingHours": null,
    "phone": null
  },
  {
    "id": "533",
    "brand": "Insta360",
    "storeName": "天津六纬路店",
    "province": "天津市",
    "city": "市辖区",
    "address": "嘉里汇购物中心B1层B1039（顺电）",
    "latitude": 39.133376,
    "longitude": 117.223534,
    "storeType": "合作体验点",
    "serviceTags": [],
    "openingHours": null,
    "phone": null
  },
  {
    "id": "901",
    "brand": "Insta360",
    "storeName": "天津冰峰店",
    "province": "天津市",
    "city": "市辖区",
    "address": "海河东路棉三创意园8号楼1541冰峰极限滑雪装备店",
    "latitude": 39.09627,
    "longitude": 117.252536,
    "storeType": "合作体验点",
    "serviceTags": [],
    "openingHours": null,
    "phone": null
  },
  {
    "id": "534",
    "brand": "Insta360",
    "storeName": "天津友谊路",
    "province": "天津市",
    "city": "市辖区",
    "address": "乐园道9号（银河国际购物中心L3001）（顺电）",
    "latitude": 39.095923,
    "longitude": 117.220342,
    "storeType": "合作体验点",
    "serviceTags": [],
    "openingHours": null,
    "phone": null
  },
  {
    "id": "815",
    "brand": "Insta360",
    "storeName": "天津爱来店",
    "province": "天津市",
    "city": "市辖区",
    "address": "东大街355号金元宝爱来无忧数码电器广场（恒州）",
    "latitude": 39.020634,
    "longitude": 117.677629,
    "storeType": "合作体验点",
    "serviceTags": [],
    "openingHours": null,
    "phone": null
  },
  {
    "id": "1399",
    "brand": "Insta360",
    "storeName": "影石Insta360石家庄万象城授权体验店",
    "province": "河北省",
    "city": "石家庄市",
    "address": "河北省石家庄市桥西区中山西路108号华润万象城B1-B104A",
    "latitude": 38.04813,
    "longitude": 114.485054,
    "storeType": "授权专卖店",
    "serviceTags": [],
    "openingHours": "10:00-22:00",
    "phone": "13785418851"
  },
  {
    "id": "1480",
    "brand": "Insta360",
    "storeName": "影石Insta360石家庄太和电子城照材专卖店",
    "province": "河北省",
    "city": "石家庄市",
    "address": "石家庄市新华区太和电子城一层F区40号",
    "latitude": 38.05,
    "longitude": 114.49,
    "storeType": "授权专卖店",
    "serviceTags": [],
    "openingHours": "9:00~18:00",
    "phone": "13582157063"
  },
  {
    "id": "1567",
    "brand": "Insta360",
    "storeName": "河北石家庄织音1953影石insta专卖店",
    "province": "河北省",
    "city": "石家庄市",
    "address": "河北省石家庄市长安区和平东路161号织音1953园区完美人生一层 N-1066",
    "latitude": 38.06,
    "longitude": 114.52,
    "storeType": "授权专卖店",
    "serviceTags": [],
    "openingHours": null,
    "phone": "13111527531"
  },
  {
    "id": "1546",
    "brand": "Insta360",
    "storeName": "石家庄蓝墨里京东之家售点1",
    "province": "河北省",
    "city": "石家庄市",
    "address": "河北省石家庄市桥西区蓝墨里购物中心1楼京东之家",
    "latitude": 38.03,
    "longitude": 114.5,
    "storeType": "合作体验点",
    "serviceTags": [],
    "openingHours": null,
    "phone": null
  },
  {
    "id": "1549",
    "brand": "Insta360",
    "storeName": "石家庄保利广场京东之家售点1",
    "province": "河北省",
    "city": "石家庄市",
    "address": "体育北大街191号保利广场一层1009A",
    "latitude": 38.08,
    "longitude": 114.54,
    "storeType": "合作体验点",
    "serviceTags": [],
    "openingHours": null,
    "phone": null
  },
  {
    "id": "1551",
    "brand": "Insta360",
    "storeName": "石家庄太和电子城冀中数码售点1",
    "province": "河北省",
    "city": "石家庄市",
    "address": "金桥北大街太和电子城一层F区1-2号",
    "latitude": 38.05,
    "longitude": 114.49,
    "storeType": "合作体验点",
    "serviceTags": [],
    "openingHours": null,
    "phone": null
  },
  {
    "id": "1554",
    "brand": "Insta360",
    "storeName": "石家庄海龙电子城佳尼特电子售点1",
    "province": "河北省",
    "city": "石家庄市",
    "address": "石家庄市长安区广安大街6号海龙电子城1楼A2-3",
    "latitude": 38.05,
    "longitude": 114.53,
    "storeType": "合作体验点",
    "serviceTags": [],
    "openingHours": null,
    "phone": null
  },
  {
    "id": "1542",
    "brand": "Insta360",
    "storeName": "石家庄太和电子城新勇数码售点1",
    "province": "河北省",
    "city": "石家庄市",
    "address": "金桥北大街太和电子城一层F区24-25号",
    "latitude": 38.05,
    "longitude": 114.49,
    "storeType": "合作体验点",
    "serviceTags": [],
    "openingHours": null,
    "phone": null
  },
  {
    "id": "1548",
    "brand": "Insta360",
    "storeName": "石家庄太和电子城珲安电子售点1",
    "province": "河北省",
    "city": "石家庄市",
    "address": "金桥北大街6号太和电子城一层F区40号",
    "latitude": 38.05,
    "longitude": 114.49,
    "storeType": "合作体验点",
    "serviceTags": [],
    "openingHours": null,
    "phone": null
  },
  {
    "id": "1560",
    "brand": "Insta360",
    "storeName": "石家庄中冶盛世广场疆域蓝图售点1",
    "province": "河北省",
    "city": "石家庄市",
    "address": "河北省石家庄市裕华区裕兴街道中冶盛世广场A座东南角",
    "latitude": 38.01,
    "longitude": 114.55,
    "storeType": "合作体验点",
    "serviceTags": [],
    "openingHours": null,
    "phone": null
  },
  {
    "id": "1006",
    "brand": "Insta360",
    "storeName": "唐山超商店",
    "province": "河北省",
    "city": "唐山市",
    "address": "新华东道125号唐百超级商场一层苹果店",
    "latitude": 39.63271,
    "longitude": 118.1853,
    "storeType": "合作体验点",
    "serviceTags": [],
    "openingHours": null,
    "phone": null
  },
  {
    "id": "1545",
    "brand": "Insta360",
    "storeName": "唐山数码广场照材专卖店",
    "province": "河北省",
    "city": "唐山市",
    "address": "河北省唐山市路北区建设路硅谷大厦一层1b17",
    "latitude": 39.65,
    "longitude": 118.18,
    "storeType": "授权专卖店",
    "serviceTags": [],
    "openingHours": null,
    "phone": null
  },
  {
    "id": "1558",
    "brand": "Insta360",
    "storeName": "唐山北新道蜗牛摄影器材售点1",
    "province": "河北省",
    "city": "唐山市",
    "address": "唐山北新道蜗牛摄影器材售点1",
    "latitude": 39.64,
    "longitude": 118.17,
    "storeType": "合作体验点",
    "serviceTags": [],
    "openingHours": null,
    "phone": null
  },
  {
    "id": "812",
    "brand": "Insta360",
    "storeName": "唐百超级商场店",
    "province": "河北省",
    "city": "唐山市",
    "address": "新华东道125号唐百超级商场一层苹果店（松联）",
    "latitude": 39.632702,
    "longitude": 118.185295,
    "storeType": "合作体验点",
    "serviceTags": [],
    "openingHours": null,
    "phone": null
  },
  {
    "id": "1034",
    "brand": "Insta360",
    "storeName": "秦皇岛万象汇店",
    "province": "河北省",
    "city": "秦皇岛市",
    "address": "河北省秦皇岛市海港区河北大街中段115号乐都汇购物中心一层L143号i-Zone苹果",
    "latitude": 39.93955,
    "longitude": 119.61028,
    "storeType": "合作体验点",
    "serviceTags": [],
    "openingHours": null,
    "phone": null
  },
  {
    "id": "1019",
    "brand": "Insta360",
    "storeName": "邯郸新世纪店",
    "province": "河北省",
    "city": "邯郸市",
    "address": "中华大街与人民路交叉口新世纪广场北扩一层i-Zone苹果店",
    "latitude": 36.61724,
    "longitude": 114.5017,
    "storeType": "合作体验点",
    "serviceTags": [],
    "openingHours": null,
    "phone": null
  },
  {
    "id": "1020",
    "brand": "Insta360",
    "storeName": "邯郸天鸿店",
    "province": "河北省",
    "city": "邯郸市",
    "address": "联纺东路505号A座一楼02柜组苹果体验店",
    "latitude": 36.63209,
    "longitude": 114.52612,
    "storeType": "合作体验点",
    "serviceTags": [],
    "openingHours": null,
    "phone": null
  },
  {
    "id": "1541",
    "brand": "Insta360",
    "storeName": "邯郸日月城燕赵数码售点1",
    "province": "河北省",
    "city": "邯郸市",
    "address": "陵西大街阳光三联电器日月城一楼",
    "latitude": 36.61,
    "longitude": 114.49,
    "storeType": "合作体验点",
    "serviceTags": [],
    "openingHours": null,
    "phone": null
  },
  {
    "id": "1048",
    "brand": "Insta360",
    "storeName": "邢台万达店",
    "province": "河北省",
    "city": "邢台市",
    "address": "河北省邢台市开元北路与泉南大道交叉口西北角万达广场一层苹果店",
    "latitude": 37.09114,
    "longitude": 114.51988,
    "storeType": "合作体验点",
    "serviceTags": [],
    "openingHours": null,
    "phone": null
  },
  {
    "id": "1555",
    "brand": "Insta360",
    "storeName": "邢台中华科技大厦彭朋电子售点1",
    "province": "河北省",
    "city": "邢台市",
    "address": "河北省邢台市信都区中华科技大厦一层112号",
    "latitude": 37.08,
    "longitude": 114.49,
    "storeType": "合作体验点",
    "serviceTags": [],
    "openingHours": null,
    "phone": null
  },
  {
    "id": "1007",
    "brand": "Insta360",
    "storeName": "保定竞秀万博店",
    "province": "河北省",
    "city": "保定市",
    "address": "大街99号万博广场一层苹果店F10009号",
    "latitude": 38.88246,
    "longitude": 115.47623,
    "storeType": "合作体验点",
    "serviceTags": [],
    "openingHours": null,
    "phone": null
  },
  {
    "id": "1566",
    "brand": "Insta360",
    "storeName": "河北保定市西大街影石Insta360专卖店",
    "province": "河北省",
    "city": "保定市",
    "address": "保定市莲池区淮军公所B区6号楼",
    "latitude": 38.86,
    "longitude": 115.5,
    "storeType": "授权专卖店",
    "serviceTags": [],
    "openingHours": null,
    "phone": "19931256777"
  },
  {
    "id": "1556",
    "brand": "Insta360",
    "storeName": "保定银杏路西路塑叁工业园区今日吉瑞相机售点1",
    "province": "河北省",
    "city": "保定市",
    "address": "保定市竞秀区银杏路西路塑叁工业园区66号",
    "latitude": 38.9,
    "longitude": 115.47,
    "storeType": "合作体验点",
    "serviceTags": [],
    "openingHours": null,
    "phone": null
  },
  {
    "id": "1547",
    "brand": "Insta360",
    "storeName": "保定颐高广场友联铭扬数码售点1",
    "province": "河北省",
    "city": "保定市",
    "address": "河北省保定市莲池区裕华路颐高数码广场2028号",
    "latitude": 38.51,
    "longitude": 115.29,
    "storeType": "合作体验点",
    "serviceTags": [],
    "openingHours": null,
    "phone": null
  },
  {
    "id": "811",
    "brand": "Insta360",
    "storeName": "保定万博店",
    "province": "河北省",
    "city": "保定市",
    "address": "东风中路1999号万博广场一楼（松联）",
    "latitude": 38.882356,
    "longitude": 115.476353,
    "storeType": "合作体验点",
    "serviceTags": [],
    "openingHours": null,
    "phone": null
  },
  {
    "id": "681",
    "brand": "Insta360",
    "storeName": "雪具授权体验店（崇礼店）",
    "province": "河北省",
    "city": "张家口市",
    "address": "美食街一号傲天极限单双板集合店",
    "latitude": 40.985163,
    "longitude": 115.298367,
    "storeType": "合作体验点",
    "serviceTags": [],
    "openingHours": null,
    "phone": null
  },
  {
    "id": "1033",
    "brand": "Insta360",
    "storeName": "沧州吾悦苹果店",
    "province": "河北省",
    "city": "沧州市",
    "address": "河北省沧州市运河区永安南大街与海河西路交叉口吾悦广场1002号i-Zone苹果",
    "latitude": 38.27923,
    "longitude": 116.83448,
    "storeType": "合作体验点",
    "serviceTags": [],
    "openingHours": null,
    "phone": null
  },
  {
    "id": "810",
    "brand": "Insta360",
    "storeName": "沧州吾悦店",
    "province": "河北省",
    "city": "沧州市",
    "address": "永安南大道吾悦广场一楼（松联）",
    "latitude": 29.564371,
    "longitude": 106.583369,
    "storeType": "合作体验点",
    "serviceTags": [],
    "openingHours": null,
    "phone": null
  },
  {
    "id": "1038",
    "brand": "Insta360",
    "storeName": "衡水怡然城店",
    "province": "河北省",
    "city": "衡水市",
    "address": "河北省衡水市桃城区大庆东路369号怡然城北区一层1F-009商铺",
    "latitude": 37.75502,
    "longitude": 115.70665,
    "storeType": "合作体验点",
    "serviceTags": [],
    "openingHours": null,
    "phone": null
  },
  {
    "id": "1553",
    "brand": "Insta360",
    "storeName": "衡水市紫金广场航拍视界售点1",
    "province": "河北省",
    "city": "衡水市",
    "address": "桃城区紫金广场1195号门店",
    "latitude": 37.75,
    "longitude": 115.67,
    "storeType": "合作体验点",
    "serviceTags": [],
    "openingHours": null,
    "phone": null
  },
  {
    "id": "1575",
    "brand": "Insta360",
    "storeName": "影石Insta360太原阳光数码港照材专区",
    "province": "山西省",
    "city": "太原市",
    "address": "山西省太原市小店区南内环街阳光数码港二层A224",
    "latitude": 37.84,
    "longitude": 112.57,
    "storeType": "授权专卖店",
    "serviceTags": [],
    "openingHours": "冬季早9点到下午6点，夏季早9点到下午7点",
    "phone": "15536501051"
  },
  {
    "id": "1232",
    "brand": "Insta360",
    "storeName": "影石小店区授权体验点",
    "province": "山西省",
    "city": "太原市",
    "address": "南内环街阳光数码港二层A223-224",
    "latitude": 37.844818,
    "longitude": 112.570135,
    "storeType": "合作体验点",
    "serviceTags": [],
    "openingHours": null,
    "phone": null
  },
  {
    "id": "1237",
    "brand": "Insta360",
    "storeName": "尼佳数码体验店",
    "province": "山西省",
    "city": "太原市",
    "address": "南内环街130号青龙电脑城一层一期014号（西北门口）",
    "latitude": 37.844829,
    "longitude": 112.563962,
    "storeType": "合作体验点",
    "serviceTags": [],
    "openingHours": null,
    "phone": null
  },
  {
    "id": "1236",
    "brand": "Insta360",
    "storeName": "菲林数码体验店",
    "province": "山西省",
    "city": "大同市",
    "address": "东信上悦城菲林数码",
    "latitude": 40.059638,
    "longitude": 113.304699,
    "storeType": "合作体验点",
    "serviceTags": [],
    "openingHours": null,
    "phone": null
  },
  {
    "id": "1234",
    "brand": "Insta360",
    "storeName": "华洋数码影石体验点",
    "province": "山西省",
    "city": "朔州市",
    "address": "南城街道鄯阳街华洋数码相机",
    "latitude": 39.324797,
    "longitude": 112.437623,
    "storeType": "合作体验点",
    "serviceTags": [],
    "openingHours": null,
    "phone": null
  },
  {
    "id": "1235",
    "brand": "Insta360",
    "storeName": "一帆数码体验店",
    "province": "山西省",
    "city": "运城市",
    "address": "红旗西街电脑城一帆数码",
    "latitude": 35.020893,
    "longitude": 110.994058,
    "storeType": "合作体验点",
    "serviceTags": [],
    "openingHours": null,
    "phone": null
  },
  {
    "id": "1539",
    "brand": "Insta360",
    "storeName": "影石Insta360沈阳三台子万象汇授权体验店",
    "province": "辽宁省",
    "city": "沈阳市",
    "address": "辽宁省沈阳市皇姑区黄河北大街33号华润置地沈阳三台子万象汇L183",
    "latitude": 41.88,
    "longitude": 123.42,
    "storeType": "授权专卖店",
    "serviceTags": [],
    "openingHours": "10:00-22:00",
    "phone": "13889182947"
  },
  {
    "id": "1563",
    "brand": "Insta360",
    "storeName": "影石Insta360沈阳万象城授权体验店",
    "province": "辽宁省",
    "city": "沈阳市",
    "address": "辽宁省沈阳市和平区青年大街 288号华润置地沈阳万象城DL581",
    "latitude": 41.78,
    "longitude": 123.44,
    "storeType": "授权专卖店",
    "serviceTags": [],
    "openingHours": "10:00-21:30",
    "phone": "18302438825"
  },
  {
    "id": "1459",
    "brand": "Insta360",
    "storeName": "影石Insta360沈阳铁西万象汇授权体验店",
    "province": "辽宁省",
    "city": "沈阳市",
    "address": "沈阳市铁西区建设东路158号华润置地沈阳铁西万象汇B186",
    "latitude": 41.8,
    "longitude": 123.38,
    "storeType": "授权专卖店",
    "serviceTags": [],
    "openingHours": "10:00-22:00",
    "phone": "15102405592"
  },
  {
    "id": "1323",
    "brand": "Insta360",
    "storeName": "影石Insta360沈阳百脑汇照材专卖店",
    "province": "辽宁省",
    "city": "沈阳市",
    "address": "文萃路百脑汇科技大厦1B05号",
    "latitude": 41.770557,
    "longitude": 123.433621,
    "storeType": "授权专卖店",
    "serviceTags": [],
    "openingHours": "周一～周日9:00-17:00",
    "phone": "17702442230"
  },
  {
    "id": "1521",
    "brand": "Insta360",
    "storeName": "影石Insta360沈阳东软科技城照材专卖店",
    "province": "辽宁省",
    "city": "沈阳市",
    "address": "辽宁省沈阳市和平区三好街东软大厦一层1A007",
    "latitude": 41.77,
    "longitude": 123.43,
    "storeType": "授权专卖店",
    "serviceTags": [],
    "openingHours": "9:00-17:00",
    "phone": "13149802583"
  },
  {
    "id": "433",
    "brand": "Insta360",
    "storeName": "万象汇店",
    "province": "辽宁省",
    "city": "沈阳市",
    "address": "建设东路158号华润万象汇L582（Mettle3c数码集合）",
    "latitude": 41.801677,
    "longitude": 123.379131,
    "storeType": "合作体验点",
    "serviceTags": [],
    "openingHours": null,
    "phone": null
  },
  {
    "id": "421",
    "brand": "Insta360",
    "storeName": "三好街百脑汇店",
    "province": "辽宁省",
    "city": "沈阳市",
    "address": "三好街百脑汇科技大厦1D03（3C数码企业微分销）",
    "latitude": 41.770587,
    "longitude": 123.433357,
    "storeType": "合作体验点",
    "serviceTags": [],
    "openingHours": null,
    "phone": null
  },
  {
    "id": "426",
    "brand": "Insta360",
    "storeName": "嘉里城店",
    "province": "辽宁省",
    "city": "沈阳市",
    "address": "青年大街123号嘉里城1层117号京东之家",
    "latitude": 41.781421,
    "longitude": 123.443739,
    "storeType": "合作体验点",
    "serviceTags": [],
    "openingHours": null,
    "phone": null
  },
  {
    "id": "428",
    "brand": "Insta360",
    "storeName": "大悦城购物中心店",
    "province": "辽宁省",
    "city": "沈阳市",
    "address": "小东路10号大悦城购物中心C1D52商铺京东手机数码店（东中街地铁A口-门市）",
    "latitude": 41.808926,
    "longitude": 123.473644,
    "storeType": "合作体验点",
    "serviceTags": [],
    "openingHours": null,
    "phone": null
  },
  {
    "id": "431",
    "brand": "Insta360",
    "storeName": "太原街店",
    "province": "辽宁省",
    "city": "沈阳市",
    "address": "中华路68号金旅酒店109商铺（苹果店）",
    "latitude": 41.798012,
    "longitude": 123.407799,
    "storeType": "合作体验点",
    "serviceTags": [],
    "openingHours": null,
    "phone": null
  },
  {
    "id": "430",
    "brand": "Insta360",
    "storeName": "市府恒隆广场店",
    "province": "辽宁省",
    "city": "沈阳市",
    "address": "青年大街1号市府恒隆广场负一层B123-2号铺位",
    "latitude": 41.806851,
    "longitude": 123.440512,
    "storeType": "合作体验点",
    "serviceTags": [],
    "openingHours": null,
    "phone": null
  },
  {
    "id": "427",
    "brand": "Insta360",
    "storeName": "手机数码（铁西店）",
    "province": "辽宁省",
    "city": "沈阳市",
    "address": "兴华南街21号4门（京东手机数码（铁西店））",
    "latitude": 41.796933,
    "longitude": 123.37486,
    "storeType": "合作体验点",
    "serviceTags": [],
    "openingHours": null,
    "phone": null
  },
  {
    "id": "909",
    "brand": "Insta360",
    "storeName": "沈阳英图店",
    "province": "辽宁省",
    "city": "沈阳市",
    "address": "青年大街268号前海环球汇GFC MallL150",
    "latitude": 41.78548,
    "longitude": 123.441783,
    "storeType": "合作体验点",
    "serviceTags": [],
    "openingHours": null,
    "phone": null
  },
  {
    "id": "429",
    "brand": "Insta360",
    "storeName": "玖伍文化城店",
    "province": "辽宁省",
    "city": "沈阳市",
    "address": "太原北街玖伍文化城一楼京东手机数码店",
    "latitude": 41.798664,
    "longitude": 123.408473,
    "storeType": "合作体验点",
    "serviceTags": [],
    "openingHours": null,
    "phone": null
  },
  {
    "id": "734",
    "brand": "Insta360",
    "storeName": "百脑汇大疆店",
    "province": "辽宁省",
    "city": "沈阳市",
    "address": "三好街百脑汇2楼2F16档",
    "latitude": 41.770557,
    "longitude": 123.433621,
    "storeType": "合作体验点",
    "serviceTags": [],
    "openingHours": null,
    "phone": null
  },
  {
    "id": "425",
    "brand": "Insta360",
    "storeName": "皇姑万象汇店",
    "province": "辽宁省",
    "city": "沈阳市",
    "address": "崇山东路18号沈阳皇姑万象汇商场B1层B182号商铺京东之家",
    "latitude": 41.840478,
    "longitude": 123.464293,
    "storeType": "合作体验点",
    "serviceTags": [],
    "openingHours": null,
    "phone": null
  },
  {
    "id": "724",
    "brand": "Insta360",
    "storeName": "视觉印象",
    "province": "辽宁省",
    "city": "沈阳市",
    "address": "三号街百脑汇2A15",
    "latitude": 41.770557,
    "longitude": 123.433621,
    "storeType": "合作体验点",
    "serviceTags": [],
    "openingHours": null,
    "phone": null
  },
  {
    "id": "432",
    "brand": "Insta360",
    "storeName": "青年大街万象城店",
    "province": "辽宁省",
    "city": "沈阳市",
    "address": "青年大街288号万象城L505（Mettle3c数码集合）",
    "latitude": 41.782077,
    "longitude": 123.441008,
    "storeType": "合作体验点",
    "serviceTags": [],
    "openingHours": null,
    "phone": null
  },
  {
    "id": "1587",
    "brand": "Insta360",
    "storeName": "影石Insta360大连罗斯福授权体验店",
    "province": "辽宁省",
    "city": "大连市",
    "address": "辽宁省大连市沙河口区西安路街道139号罗斯福商场一层JT-05",
    "latitude": 38.92,
    "longitude": 121.59,
    "storeType": "授权专卖店",
    "serviceTags": [],
    "openingHours": "9:30-21:30",
    "phone": "15841764066"
  },
  {
    "id": "1335",
    "brand": "Insta360",
    "storeName": "影石Insta360大连华南万象汇授权体验店",
    "province": "辽宁省",
    "city": "大连市",
    "address": "山东路 350号万象汇G层LG102",
    "latitude": 38.997482,
    "longitude": 121.592533,
    "storeType": "授权专卖店",
    "serviceTags": [],
    "openingHours": "周一～周日9:30-21:30",
    "phone": "18041188109"
  },
  {
    "id": "841",
    "brand": "Insta360",
    "storeName": "影石Insta360大连奥林匹克照材专卖店",
    "province": "辽宁省",
    "city": "大连市",
    "address": "中山路奥电未来城地下二层东2001（地铁口第一家）",
    "latitude": 38.914928,
    "longitude": 121.616263,
    "storeType": "授权专卖店",
    "serviceTags": [],
    "openingHours": "周一～周日9:30-17:30",
    "phone": "18940998830"
  },
  {
    "id": "1302",
    "brand": "Insta360",
    "storeName": "大连多隆多商贸有限公司",
    "province": "辽宁省",
    "city": "大连市",
    "address": "奥林匹克电子城东1326-1327号",
    "latitude": 38.914853,
    "longitude": 121.616307,
    "storeType": "合作体验点",
    "serviceTags": [],
    "openingHours": null,
    "phone": null
  },
  {
    "id": "840",
    "brand": "Insta360",
    "storeName": "大连恒隆广场店",
    "province": "辽宁省",
    "city": "大连市",
    "address": "恒隆广场B1层B24一步空间",
    "latitude": 38.912722,
    "longitude": 121.615919,
    "storeType": "合作体验点",
    "serviceTags": [],
    "openingHours": null,
    "phone": null
  },
  {
    "id": "422",
    "brand": "Insta360",
    "storeName": "大连拓金店",
    "province": "辽宁省",
    "city": "大连市",
    "address": "大同街156号",
    "latitude": 38.915087,
    "longitude": 121.616504,
    "storeType": "合作体验点",
    "serviceTags": [],
    "openingHours": null,
    "phone": null
  },
  {
    "id": "899",
    "brand": "Insta360",
    "storeName": "大连沿河街店",
    "province": "辽宁省",
    "city": "大连市",
    "address": "沿河街4-5号雪狐雪具",
    "latitude": 38.907565,
    "longitude": 121.594741,
    "storeType": "合作体验点",
    "serviceTags": [],
    "openingHours": null,
    "phone": null
  },
  {
    "id": "839",
    "brand": "Insta360",
    "storeName": "柏威年购物中心店",
    "province": "辽宁省",
    "city": "大连市",
    "address": "柏威年购物中心L4051一步空间（酷玩地带）",
    "latitude": 38.923845,
    "longitude": 121.635746,
    "storeType": "合作体验点",
    "serviceTags": [],
    "openingHours": null,
    "phone": null
  },
  {
    "id": "424",
    "brand": "Insta360",
    "storeName": "洪蕾通讯店",
    "province": "辽宁省",
    "city": "丹东市",
    "address": "丹东凤城市邓铁梅路二商店洪蕾通讯",
    "latitude": 40.463086,
    "longitude": 124.075691,
    "storeType": "合作体验点",
    "serviceTags": [],
    "openingHours": null,
    "phone": null
  },
  {
    "id": "1447",
    "brand": "Insta360",
    "storeName": "影石Insta360长春万象城授权体验店",
    "province": "吉林省",
    "city": "长春市",
    "address": "吉林省长春市南关区人民大街3388号华润置地长春万象城L547",
    "latitude": 43.89,
    "longitude": 125.33,
    "storeType": "授权专卖店",
    "serviceTags": [],
    "openingHours": "10:00-22:00",
    "phone": "13804321983"
  },
  {
    "id": "1531",
    "brand": "Insta360",
    "storeName": "影石Insta360长春百脑汇照材专卖店",
    "province": "吉林省",
    "city": "长春市",
    "address": "吉林省长春市朝阳区工农大路百脑汇科技大厦一楼1A05影石专卖店",
    "latitude": 43.87,
    "longitude": 125.31,
    "storeType": "授权专卖店",
    "serviceTags": [],
    "openingHours": "09：00-18：00",
    "phone": "17767791123"
  },
  {
    "id": "419",
    "brand": "Insta360",
    "storeName": "7.8购物广场店",
    "province": "吉林省",
    "city": "长春市",
    "address": "自由大路与同志街交汇7.8购物广场一层（临街必胜客旁）苹果专卖店",
    "latitude": 43.870162,
    "longitude": 125.325203,
    "storeType": "合作体验点",
    "serviceTags": [],
    "openingHours": null,
    "phone": null
  },
  {
    "id": "686",
    "brand": "Insta360",
    "storeName": "雪具授权体验店（长春店）",
    "province": "吉林省",
    "city": "长春市",
    "address": "北海路会展中心体育场7看台（冷山雪具）",
    "latitude": 43.844917,
    "longitude": 125.404383,
    "storeType": "合作体验点",
    "serviceTags": [],
    "openingHours": null,
    "phone": null
  },
  {
    "id": "696",
    "brand": "Insta360",
    "storeName": "珲春街旗舰店",
    "province": "吉林省",
    "city": "吉林市",
    "address": "珲春街4号（巅峰户外）",
    "latitude": 43.844743,
    "longitude": 126.560475,
    "storeType": "合作体验点",
    "serviceTags": [],
    "openingHours": null,
    "phone": null
  },
  {
    "id": "900",
    "brand": "Insta360",
    "storeName": "金厂镇雪场店",
    "province": "吉林省",
    "city": "通化市",
    "address": "金厂镇万峰滑雪场3栋一层103商铺",
    "latitude": 41.658242,
    "longitude": 125.970669,
    "storeType": "合作体验点",
    "serviceTags": [],
    "openingHours": null,
    "phone": null
  },
  {
    "id": "1382",
    "brand": "Insta360",
    "storeName": "影石Insta360哈尔滨船舶电子大世界照材专卖店",
    "province": "黑龙江省",
    "city": "哈尔滨市",
    "address": "哈尔滨市南岗区南通大街船舶电子大世界西区1层166B（三期半圆门进门沿左边墙直走第四间）",
    "latitude": 45.78062,
    "longitude": 126.673163,
    "storeType": "授权专卖店",
    "serviceTags": [],
    "openingHours": "8:30-17:30",
    "phone": "13104628851"
  },
  {
    "id": "933",
    "brand": "Insta360",
    "storeName": "哈尔滨高峨科技开发有限公司",
    "province": "黑龙江省",
    "city": "哈尔滨市",
    "address": "松花江街139号教化电子大世界2楼261室",
    "latitude": 45.753721,
    "longitude": 126.636944,
    "storeType": "合作体验点",
    "serviceTags": [],
    "openingHours": null,
    "phone": null
  },
  {
    "id": "932",
    "brand": "Insta360",
    "storeName": "哈尔滨市汇丰照像器材有限公司",
    "province": "黑龙江省",
    "city": "哈尔滨市",
    "address": "红军街124号",
    "latitude": 45.765769,
    "longitude": 126.642897,
    "storeType": "合作体验点",
    "serviceTags": [],
    "openingHours": null,
    "phone": null
  },
  {
    "id": "1532",
    "brand": "Insta360",
    "storeName": "影石Insta360大庆百脑汇照材专卖店",
    "province": "黑龙江省",
    "city": "大庆市",
    "address": "黑龙江省大庆市萨尔图区东风新村纬七路百脑汇一楼1B10",
    "latitude": 46.6,
    "longitude": 125.12,
    "storeType": "授权专卖店",
    "serviceTags": [],
    "openingHours": "9:00-17:30",
    "phone": "19904861234"
  },
  {
    "id": "1488",
    "brand": "Insta360",
    "storeName": "影石Insta360上海浦东嘉里城授权体验店",
    "province": "上海市",
    "city": "市辖区",
    "address": "上海市浦东新区花木路1378号嘉里城B102",
    "latitude": 31.22,
    "longitude": 121.57,
    "storeType": "授权专卖店",
    "serviceTags": [],
    "openingHours": "10:00-22:00",
    "phone": "15502190925"
  },
  {
    "id": "1529",
    "brand": "Insta360",
    "storeName": "影石Insta360上海龙湖宝山天街授权体验店",
    "province": "上海市",
    "city": "市辖区",
    "address": "上海市宝山区顾村镇丹霞山路50弄1号龙湖宝山天街1F-18",
    "latitude": 31.36,
    "longitude": 121.37,
    "storeType": "授权专卖店",
    "serviceTags": [],
    "openingHours": "10:00-22:00",
    "phone": "18738982586"
  },
  {
    "id": "1528",
    "brand": "Insta360",
    "storeName": "影石Insta360上海新天地东台里授权体验店",
    "province": "上海市",
    "city": "市辖区",
    "address": "上海市黄浦区吉安路111号新天地东台里D-L157",
    "latitude": 31.23,
    "longitude": 121.49,
    "storeType": "授权专卖店",
    "serviceTags": [],
    "openingHours": "10:00-22:00",
    "phone": "17621776156"
  },
  {
    "id": "1527",
    "brand": "Insta360",
    "storeName": "影石Insta360上海港汇恒隆授权体验店",
    "province": "上海市",
    "city": "市辖区",
    "address": "上海市徐汇区虹桥路1号港汇恒隆广场4楼409D柜台",
    "latitude": 31.2,
    "longitude": 121.44,
    "storeType": "授权专卖店",
    "serviceTags": [],
    "openingHours": "10:00-22:00",
    "phone": "17601371794"
  },
  {
    "id": "1482",
    "brand": "Insta360",
    "storeName": "影石Insta360上海月星环球港授权体验店",
    "province": "上海市",
    "city": "市辖区",
    "address": "上海市普陀区中山北路 3300 号月星环球港 B2101",
    "latitude": 31.24,
    "longitude": 121.42,
    "storeType": "授权专卖店",
    "serviceTags": [],
    "openingHours": "10:00-22:00",
    "phone": "13951876577"
  },
  {
    "id": "1213",
    "brand": "Insta360",
    "storeName": "影石Insta360上海太古汇授权体验店",
    "province": "上海市",
    "city": "市辖区",
    "address": "石门一路288号兴业太古汇商场L732号",
    "latitude": 31.234489,
    "longitude": 121.469854,
    "storeType": "授权专卖店",
    "serviceTags": [],
    "openingHours": "周一～周日 10:00-22:00",
    "phone": "17274616898"
  },
  {
    "id": "1354",
    "brand": "Insta360",
    "storeName": "影石Insta360上海世博天地授权体验店",
    "province": "上海市",
    "city": "市辖区",
    "address": "上钢新村街道世博大道1467号世博天地L109号商铺 19850110502",
    "latitude": 31.190457,
    "longitude": 121.497715,
    "storeType": "授权专卖店",
    "serviceTags": [],
    "openingHours": "周一～周日10:00-22:00",
    "phone": "19850110502"
  },
  {
    "id": "1348",
    "brand": "Insta360",
    "storeName": "影石Insta360上海陆家嘴正大广场授权体验店",
    "province": "上海市",
    "city": "市辖区",
    "address": "陆家嘴西路168号正大广场临2F08+10号",
    "latitude": 31.242497,
    "longitude": 121.505934,
    "storeType": "授权专卖店",
    "serviceTags": [],
    "openingHours": "周一～周日10:00-22:00",
    "phone": "17278883706"
  },
  {
    "id": "689",
    "brand": "Insta360",
    "storeName": "影石Insta360上海陆家嘴中心授权体验店",
    "province": "上海市",
    "city": "市辖区",
    "address": "上海市浦东新区浦东南路899号陆家嘴中心 L+Mall商场LG1层",
    "latitude": 31.236387,
    "longitude": 121.52238,
    "storeType": "授权专卖店",
    "serviceTags": [],
    "openingHours": "周一～周日 10:00-22:00",
    "phone": "17274637838"
  },
  {
    "id": "1289",
    "brand": "Insta360",
    "storeName": "影石Insta360上海万象城授权体验店",
    "province": "上海市",
    "city": "市辖区",
    "address": "吴中路1599号万象城购物中心 L540",
    "latitude": 31.175767,
    "longitude": 121.374882,
    "storeType": "授权专卖店",
    "serviceTags": [],
    "openingHours": "周一～周日10:00-22:00",
    "phone": "18951570987"
  },
  {
    "id": "1320",
    "brand": "Insta360",
    "storeName": "影石Insta360上海合生汇授权体验店",
    "province": "上海市",
    "city": "市辖区",
    "address": "翔殷路1099号合生国际广场L1-03号商铺影石",
    "latitude": 31.305855,
    "longitude": 121.524713,
    "storeType": "授权专卖店",
    "serviceTags": [],
    "openingHours": "周一～周日 10:00-22:00",
    "phone": "19521300436"
  },
  {
    "id": "1341",
    "brand": "Insta360",
    "storeName": "影石Insta360上海北外滩来福士授权体验店",
    "province": "上海市",
    "city": "市辖区",
    "address": "东大名路999号上海北外滩来福士广场 01层26B号影石Insta360",
    "latitude": 31.22232,
    "longitude": 121.421698,
    "storeType": "授权专卖店",
    "serviceTags": [],
    "openingHours": "周一～周日10:00-22:00",
    "phone": "17278813595"
  },
  {
    "id": "1334",
    "brand": "Insta360",
    "storeName": "影石Insta360上海长宁来福士授权体验店",
    "province": "上海市",
    "city": "市辖区",
    "address": "长宁路 1123 号 上海长宁来福士广场东区E01层 K03号影石Insta360",
    "latitude": 31.22232,
    "longitude": 121.421698,
    "storeType": "授权专卖店",
    "serviceTags": [],
    "openingHours": "周一～周日 10:00-22:00",
    "phone": "19539481977"
  },
  {
    "id": "1416",
    "brand": "Insta360",
    "storeName": "影石Isnta360上海环龙商场照材专卖店",
    "province": "上海市",
    "city": "市辖区",
    "address": "上海市静安区秣陵路202号环龙商场一楼1006-1007商铺",
    "latitude": 31.253695,
    "longitude": 121.462782,
    "storeType": "授权专卖店",
    "serviceTags": [],
    "openingHours": "10:00-20:00",
    "phone": "15021912968"
  },
  {
    "id": "754",
    "brand": "Insta360",
    "storeName": "影石Insta360上海百脑汇照材专卖店",
    "province": "上海市",
    "city": "市辖区",
    "address": "漕溪北路339号一楼",
    "latitude": 31.19704,
    "longitude": 121.444653,
    "storeType": "授权专卖店",
    "serviceTags": [],
    "openingHours": "周一～周日10:00-21:00",
    "phone": "15168406397"
  },
  {
    "id": "1565",
    "brand": "Insta360",
    "storeName": "上海闵行凯德梦之龙照材专卖店",
    "province": "上海市",
    "city": "市辖区",
    "address": "上海市闵行区沪闵路6088号凯德闵行商业中心一层48C号影石Insta360专卖店",
    "latitude": 31.108154,
    "longitude": 121.37776,
    "storeType": "授权专卖店",
    "serviceTags": [],
    "openingHours": "10：00-22：00",
    "phone": "15168406397"
  },
  {
    "id": "1430",
    "brand": "Insta360",
    "storeName": "影石Insta360上海星光摄影城照材专卖店",
    "province": "上海市",
    "city": "市辖区",
    "address": "鲁班路300号星光摄影器材城A区132室影石Insta 360专卖店",
    "latitude": 31.21,
    "longitude": 121.48,
    "storeType": "授权专卖店",
    "serviceTags": [],
    "openingHours": "周一～周日09:00-19:00",
    "phone": "13052083193"
  },
  {
    "id": "802",
    "brand": "Insta360",
    "storeName": "上海展厅",
    "province": "上海市",
    "city": "市辖区",
    "address": "上海市南昌路45号城汇大厦10层（佳能）",
    "latitude": 31.2247,
    "longitude": 121.477012,
    "storeType": "合作体验点",
    "serviceTags": [],
    "openingHours": null,
    "phone": null
  },
  {
    "id": "1050",
    "brand": "Insta360",
    "storeName": "上海星光阳华摄影器材行",
    "province": "上海市",
    "city": "市辖区",
    "address": "鲁班路300号A区319",
    "latitude": 31.209148,
    "longitude": 121.481095,
    "storeType": "合作体验点",
    "serviceTags": [],
    "openingHours": null,
    "phone": null
  },
  {
    "id": "1249",
    "brand": "Insta360",
    "storeName": "上海新尚数码售点",
    "province": "上海市",
    "city": "市辖区",
    "address": "淮海东路99号新尚数码1楼A6",
    "latitude": 31.231194,
    "longitude": 121.487633,
    "storeType": "合作体验点",
    "serviceTags": [],
    "openingHours": null,
    "phone": null
  },
  {
    "id": "693",
    "brand": "Insta360",
    "storeName": "上海兴业太古汇L375店",
    "province": "上海市",
    "city": "市辖区",
    "address": "石门一路288号兴业太古汇商场L375（SNOW51滑雪场）",
    "latitude": 31.234489,
    "longitude": 121.469854,
    "storeType": "合作体验点",
    "serviceTags": [],
    "openingHours": null,
    "phone": null
  },
  {
    "id": "523",
    "brand": "Insta360",
    "storeName": "顺电（上海嘉里城店）",
    "province": "上海市",
    "city": "市辖区",
    "address": "花木路1378号地下一层B101（顺电）",
    "latitude": 31.218812,
    "longitude": 121.570416,
    "storeType": "合作体验点",
    "serviceTags": [],
    "openingHours": null,
    "phone": null
  },
  {
    "id": "694",
    "brand": "Insta360",
    "storeName": "上海外滩BFC店",
    "province": "上海市",
    "city": "市辖区",
    "address": "中山东二路588号2层S212单元（SNOW51室内滑雪场）",
    "latitude": 31.23119,
    "longitude": 121.504795,
    "storeType": "合作体验点",
    "serviceTags": [],
    "openingHours": null,
    "phone": null
  },
  {
    "id": "525",
    "brand": "Insta360",
    "storeName": "上海尚嘉店",
    "province": "上海市",
    "city": "市辖区",
    "address": "仙霞路99号尚嘉中心地下一层L116-117单元（顺电）",
    "latitude": 31.211732,
    "longitude": 121.413677,
    "storeType": "合作体验点",
    "serviceTags": [],
    "openingHours": null,
    "phone": null
  },
  {
    "id": "524",
    "brand": "Insta360",
    "storeName": "上海浦东南路店",
    "province": "上海市",
    "city": "市辖区",
    "address": "浦东南路899号陆家嘴中心LG·19-20店铺（顺电）",
    "latitude": 31.1883,
    "longitude": 121.507829,
    "storeType": "合作体验点",
    "serviceTags": [],
    "openingHours": null,
    "phone": null
  },
  {
    "id": "1298",
    "brand": "Insta360",
    "storeName": "上海欧川星光店",
    "province": "上海市",
    "city": "市辖区",
    "address": "鲁班路300号星光摄影器材城A区一楼24-25号",
    "latitude": 31.20946,
    "longitude": 121.481079,
    "storeType": "合作体验点",
    "serviceTags": [],
    "openingHours": null,
    "phone": null
  },
  {
    "id": "526",
    "brand": "Insta360",
    "storeName": "上海长宁店",
    "province": "上海市",
    "city": "市辖区",
    "address": "大宁路与共和新路交汇处L12(大宁久光)（顺电）",
    "latitude": 31.280328,
    "longitude": 121.458756,
    "storeType": "合作体验点",
    "serviceTags": [],
    "openingHours": null,
    "phone": null
  },
  {
    "id": "1321",
    "brand": "Insta360",
    "storeName": "影石Insta360南京德基授权体验店",
    "province": "江苏省",
    "city": "南京市",
    "address": "中山路18 号德基广场六层 F612 号商铺",
    "latitude": 32.050325,
    "longitude": 118.791625,
    "storeType": "直营店",
    "serviceTags": [],
    "openingHours": "周一～周日10:30-22:30",
    "phone": "18061292910"
  },
  {
    "id": "1410",
    "brand": "Insta360",
    "storeName": "影石Insta360南京金陵天地授权体验店",
    "province": "江苏省",
    "city": "南京市",
    "address": "南京市建邺区中和路68号金陵天地 L1 层 L156 铺位",
    "latitude": 31.981022,
    "longitude": 118.720638,
    "storeType": "授权专卖店",
    "serviceTags": [],
    "openingHours": "10:00-21:00",
    "phone": "17768382981"
  },
  {
    "id": "1406",
    "brand": "Insta360",
    "storeName": "影石Insta360南京桥北弘阳广场授权体验店",
    "province": "江苏省",
    "city": "南京市",
    "address": "江苏省南京市弘阳广场大桥北路48号B1区-1F-28号",
    "latitude": 32.142399,
    "longitude": 118.732665,
    "storeType": "授权专卖店",
    "serviceTags": [],
    "openingHours": "10:00-22:00",
    "phone": "18912974413"
  },
  {
    "id": "1474",
    "brand": "Insta360",
    "storeName": "影石Insta360南京仙林金鹰授权体验店",
    "province": "江苏省",
    "city": "南京市",
    "address": "江苏省南京市栖霞区仙林街道学海路1号仙林金鹰HB01-F1111",
    "latitude": 32.11,
    "longitude": 118.93,
    "storeType": "授权专卖店",
    "serviceTags": [],
    "openingHours": "10:00-22:00",
    "phone": "17372762791"
  },
  {
    "id": "1331",
    "brand": "Insta360",
    "storeName": "影石Insta360南京景枫授权体验店",
    "province": "江苏省",
    "city": "南京市",
    "address": "双龙大道1698号景枫中心F125-5",
    "latitude": 31.936053,
    "longitude": 118.82668,
    "storeType": "授权专卖店",
    "serviceTags": [],
    "openingHours": "周一～周日10:00-22:00",
    "phone": "18851949294"
  },
  {
    "id": "1514",
    "brand": "Insta360",
    "storeName": "影石Insta360南京华海3C照材专卖店",
    "province": "江苏省",
    "city": "南京市",
    "address": "江苏省南京市玄武区珠江路435号华海大厦",
    "latitude": 32.06,
    "longitude": 118.8,
    "storeType": "授权专卖店",
    "serviceTags": [],
    "openingHours": "10:00-20:00",
    "phone": "13382056018"
  },
  {
    "id": "1274",
    "brand": "Insta360",
    "storeName": "M会员店（南京）",
    "province": "江苏省",
    "city": "南京市",
    "address": "江苏省南京市建邺区南苑街道应天大街866号",
    "latitude": 32.02727,
    "longitude": 118.750254,
    "storeType": "合作体验点",
    "serviceTags": [],
    "openingHours": null,
    "phone": null
  },
  {
    "id": "1250",
    "brand": "Insta360",
    "storeName": "南京艺风授权体验点",
    "province": "江苏省",
    "city": "南京市",
    "address": "珠江路333号百脑汇1楼1C10",
    "latitude": 32.055633,
    "longitude": 118.799933,
    "storeType": "合作体验点",
    "serviceTags": [],
    "openingHours": null,
    "phone": null
  },
  {
    "id": "1293",
    "brand": "Insta360",
    "storeName": "影石Insta360 无锡万象城授权体验店",
    "province": "江苏省",
    "city": "无锡市",
    "address": "金石路88号万象城一楼L1 73-74",
    "latitude": 31.519452,
    "longitude": 120.28914,
    "storeType": "授权专卖店",
    "serviceTags": [],
    "openingHours": "周一～周日9:30-21:30",
    "phone": "18115365881"
  },
  {
    "id": "1367",
    "brand": "Insta360",
    "storeName": "影石Insta360无锡百脑汇照材专卖店",
    "province": "江苏省",
    "city": "无锡市",
    "address": "人民西路百脑汇一楼1C12、1C14",
    "latitude": 31.580364,
    "longitude": 120.297223,
    "storeType": "授权专卖店",
    "serviceTags": [],
    "openingHours": "周一～周日9:30-17:30",
    "phone": "18020506090"
  },
  {
    "id": "1251",
    "brand": "Insta360",
    "storeName": "影石Insta360无锡维络格授权体验点",
    "province": "江苏省",
    "city": "无锡市",
    "address": "人民西路25号百脑汇2B09",
    "latitude": 31.580359,
    "longitude": 120.296953,
    "storeType": "合作体验点",
    "serviceTags": [],
    "openingHours": null,
    "phone": null
  },
  {
    "id": "1490",
    "brand": "Insta360",
    "storeName": "影石Insta360徐州苏宁授权体验店",
    "province": "江苏省",
    "city": "徐州市",
    "address": "江苏省徐州市鼓楼区淮海东路29号徐州苏宁广场131b",
    "latitude": 34.27,
    "longitude": 117.2,
    "storeType": "授权专卖店",
    "serviceTags": [],
    "openingHours": "10:00-22:00",
    "phone": "17712122284"
  },
  {
    "id": "1534",
    "brand": "Insta360",
    "storeName": "影石Insta360徐州中山南路格派照材专卖店",
    "province": "江苏省",
    "city": "徐州市",
    "address": "江苏省徐州市中山南路98号佳能专卖店(鸿姐火锅楼下)",
    "latitude": 34.26,
    "longitude": 117.19,
    "storeType": "授权专卖店",
    "serviceTags": [],
    "openingHours": "10:00-20:00",
    "phone": "15252035203"
  },
  {
    "id": "1582",
    "brand": "Insta360",
    "storeName": "影石Insta360常州武进吾悦授权体验店",
    "province": "江苏省",
    "city": "常州市",
    "address": "江苏省常州市武进区湖塘镇武宜北路19号吾悦广场1层1046号商铺",
    "latitude": 31.73,
    "longitude": 119.95,
    "storeType": "授权专卖店",
    "serviceTags": [],
    "openingHours": "周日-周四10：00-21：30；周五-周六10：00-22：00",
    "phone": "18052719285"
  },
  {
    "id": "1306",
    "brand": "Insta360",
    "storeName": "影石Insta360常州万象城授权体验店",
    "province": "江苏省",
    "city": "常州市",
    "address": "离宫路329号华润国际花园100 幢常州万象城1号门外街L114a",
    "latitude": 29.521547,
    "longitude": 106.524418,
    "storeType": "授权专卖店",
    "serviceTags": [],
    "openingHours": "周一～周日10:00-21:30",
    "phone": "15312563235"
  },
  {
    "id": "1273",
    "brand": "Insta360",
    "storeName": "M会员店",
    "province": "江苏省",
    "city": "常州市",
    "address": "江苏省常州市天宁区兰陵北路301号",
    "latitude": 31.755399,
    "longitude": 119.952016,
    "storeType": "合作体验点",
    "serviceTags": [],
    "openingHours": null,
    "phone": null
  },
  {
    "id": "1246",
    "brand": "Insta360",
    "storeName": "常州卓图数码影像有限公司",
    "province": "江苏省",
    "city": "常州市",
    "address": "劳动西路银河湾电脑城1B44",
    "latitude": 31.770263,
    "longitude": 119.96426,
    "storeType": "合作体验点",
    "serviceTags": [],
    "openingHours": null,
    "phone": null
  },
  {
    "id": "1499",
    "brand": "Insta360",
    "storeName": "影石Insta360苏州中心授权体验店",
    "province": "江苏省",
    "city": "苏州市",
    "address": "江苏省苏州市工业园区苏州中心商场北区B1层(A）B1-54",
    "latitude": 31.32,
    "longitude": 120.68,
    "storeType": "授权专卖店",
    "serviceTags": [],
    "openingHours": "10:00-22:00",
    "phone": "18068055829"
  },
  {
    "id": "1537",
    "brand": "Insta360",
    "storeName": "影石Insta360苏州昆山万象汇授权体验店",
    "province": "江苏省",
    "city": "苏州市",
    "address": "江苏省昆山市玉山镇万象路 昆山万象汇外街 S175a （窖滚旁边）",
    "latitude": 31.39,
    "longitude": 120.93,
    "storeType": "授权专卖店",
    "serviceTags": [],
    "openingHours": "10:00-21:30",
    "phone": "18051880656"
  },
  {
    "id": "1336",
    "brand": "Insta360",
    "storeName": "影石Insta360苏州吴江万象汇授权体验店",
    "province": "江苏省",
    "city": "苏州市",
    "address": "松陵街道秋枫街吴江万象汇L176",
    "latitude": 31.142355,
    "longitude": 120.625604,
    "storeType": "授权专卖店",
    "serviceTags": [],
    "openingHours": "周一～周日10:00-22:00",
    "phone": "13390837059"
  },
  {
    "id": "1366",
    "brand": "Insta360",
    "storeName": "影石Insta360昆山万象汇授权体验店",
    "province": "江苏省",
    "city": "苏州市",
    "address": "玉山镇万象路昆山万象汇外街S175A",
    "latitude": 31.387479,
    "longitude": 120.93379,
    "storeType": "授权专卖店",
    "serviceTags": [],
    "openingHours": null,
    "phone": "18061696251"
  },
  {
    "id": "1467",
    "brand": "Insta360",
    "storeName": "影石Insta360苏州泰华数码天地照材专卖店",
    "province": "江苏省",
    "city": "苏州市",
    "address": "江苏省苏州姑苏区人民路372号1b10",
    "latitude": 31.3,
    "longitude": 120.63,
    "storeType": "授权专卖店",
    "serviceTags": [],
    "openingHours": "09:00-21:00",
    "phone": "18014899816"
  },
  {
    "id": "1429",
    "brand": "Insta360",
    "storeName": "影石Insta360昆山商厦家电市场照材专卖店",
    "province": "江苏省",
    "city": "苏州市",
    "address": "江苏省苏州市昆山市玉山镇人民南路96-2A昆山商厦家电生活广场一楼",
    "latitude": 31.38,
    "longitude": 120.96,
    "storeType": "授权专卖店",
    "serviceTags": [],
    "openingHours": "9：30-21：00",
    "phone": "15655136545"
  },
  {
    "id": "1368",
    "brand": "Insta360",
    "storeName": "苏摄影像",
    "province": "江苏省",
    "city": "苏州市",
    "address": "干将西路91号",
    "latitude": 31.311741,
    "longitude": 120.625949,
    "storeType": "授权专卖店",
    "serviceTags": [],
    "openingHours": null,
    "phone": null
  },
  {
    "id": "1369",
    "brand": "Insta360",
    "storeName": "XTJOY苏州仁恒仓街店",
    "province": "江苏省",
    "city": "苏州市",
    "address": "江苏省苏州市姑苏区仓街1号第LG1层145号商铺XTJOY",
    "latitude": 31.31819,
    "longitude": 120.646038,
    "storeType": "合作体验点",
    "serviceTags": [],
    "openingHours": null,
    "phone": null
  },
  {
    "id": "527",
    "brand": "Insta360",
    "storeName": "时代广场店",
    "province": "江苏省",
    "city": "苏州市",
    "address": "旺敦路圆融时代广场7栋（顺电）",
    "latitude": 31.325951,
    "longitude": 120.717856,
    "storeType": "合作体验点",
    "serviceTags": [],
    "openingHours": null,
    "phone": null
  },
  {
    "id": "528",
    "brand": "Insta360",
    "storeName": "苏州东吴天街分店",
    "province": "江苏省",
    "city": "苏州市",
    "address": "东吴南路179号龙湖东吴天街A-2F-06（顺电）",
    "latitude": 31.260391,
    "longitude": 120.635457,
    "storeType": "合作体验点",
    "serviceTags": [],
    "openingHours": null,
    "phone": null
  },
  {
    "id": "530",
    "brand": "Insta360",
    "storeName": "苏州欧尚店",
    "province": "江苏省",
    "city": "苏州市",
    "address": "中心大道西181号1栋1033号（顺电）",
    "latitude": 31.31223,
    "longitude": 120.679584,
    "storeType": "合作体验点",
    "serviceTags": [],
    "openingHours": null,
    "phone": null
  },
  {
    "id": "529",
    "brand": "Insta360",
    "storeName": "苏州龙湖狮山分店",
    "province": "江苏省",
    "city": "苏州市",
    "address": "塔园路181号龙湖狮山天街四期B178（顺电）",
    "latitude": 31.299513,
    "longitude": 120.561992,
    "storeType": "合作体验点",
    "serviceTags": [],
    "openingHours": null,
    "phone": null
  },
  {
    "id": "1526",
    "brand": "Insta360",
    "storeName": "影石Insta360淮安万象城授权体验店",
    "province": "江苏省",
    "city": "淮安市",
    "address": "江苏省淮安市清江浦区翔宇中道170号淮安万象城 L111 影石insta 360",
    "latitude": 33.61,
    "longitude": 119.05,
    "storeType": "授权专卖店",
    "serviceTags": [],
    "openingHours": "10:00-21:30",
    "phone": "19105281600"
  },
  {
    "id": "1247",
    "brand": "Insta360",
    "storeName": "清江浦区航摄数码经营部",
    "province": "江苏省",
    "city": "淮安市",
    "address": "淮安市清浦区淮海北路苏宁生活广场104号",
    "latitude": 33.597083,
    "longitude": 119.025785,
    "storeType": "合作体验点",
    "serviceTags": [],
    "openingHours": null,
    "phone": null
  },
  {
    "id": "1491",
    "brand": "Insta360",
    "storeName": "影石Insta360扬州万象汇授权体验店",
    "province": "江苏省",
    "city": "扬州市",
    "address": "江苏省扬州市邗江区文昌中路 606 号 扬州万象汇L0139N",
    "latitude": 32.4,
    "longitude": 119.43,
    "storeType": "授权专卖店",
    "serviceTags": [],
    "openingHours": "10:00-22:00",
    "phone": "19975077153"
  },
  {
    "id": "1023",
    "brand": "Insta360",
    "storeName": "大润发M会员店",
    "province": "江苏省",
    "city": "扬州市",
    "address": "江阳中路425号",
    "latitude": 32.39697,
    "longitude": 119.40252,
    "storeType": "合作体验点",
    "serviceTags": [],
    "openingHours": null,
    "phone": null
  },
  {
    "id": "1371",
    "brand": "Insta360",
    "storeName": "盛荣时光印象摄影沙龙",
    "province": "江苏省",
    "city": "扬州市",
    "address": "文昌中路273号",
    "latitude": 32.400476,
    "longitude": 119.453529,
    "storeType": "合作体验点",
    "serviceTags": [],
    "openingHours": null,
    "phone": "19941743801"
  },
  {
    "id": "1254",
    "brand": "Insta360",
    "storeName": "镇江仲佳数码体验店",
    "province": "江苏省",
    "city": "镇江市",
    "address": "解放路72号小仲数码俱乐部",
    "latitude": 32.207263,
    "longitude": 119.461822,
    "storeType": "合作体验点",
    "serviceTags": [],
    "openingHours": null,
    "phone": null
  },
  {
    "id": "1509",
    "brand": "Insta360",
    "storeName": "影石Insta360泰州万象城授权体验店",
    "province": "江苏省",
    "city": "泰州市",
    "address": "江苏省泰州市医药高新区永定东路399号泰州万象城C122",
    "latitude": 32.45,
    "longitude": 119.93,
    "storeType": "授权专卖店",
    "serviceTags": [],
    "openingHours": "周日-周四营业时间：10：00-21：30，周五周六：10：00-22：00",
    "phone": "18115232316"
  },
  {
    "id": "1256",
    "brand": "Insta360",
    "storeName": "宿迁得添数码Insta360授权体验店",
    "province": "江苏省",
    "city": "宿迁市",
    "address": "江苏省宿迁市宿城区发展大道88号新华数码广场3号",
    "latitude": 33.958678,
    "longitude": 118.285806,
    "storeType": "合作体验点",
    "serviceTags": [],
    "openingHours": null,
    "phone": null
  },
  {
    "id": "1391",
    "brand": "Insta360",
    "storeName": "影石Insta360杭州西溪天街授权体验店",
    "province": "浙江省",
    "city": "杭州市",
    "address": "浙江省杭州市西湖区余杭塘路1001号西溪龙湖天街1楼",
    "latitude": 30.298917,
    "longitude": 120.074831,
    "storeType": "授权专卖店",
    "serviceTags": [],
    "openingHours": "10:00-22:00",
    "phone": "19032585733"
  },
  {
    "id": "1324",
    "brand": "Insta360",
    "storeName": "影石Insta360杭州万象城授权体验店",
    "province": "浙江省",
    "city": "杭州市",
    "address": "浙江省杭州市上城区富春路701号杭州万象城B1SC16号商铺",
    "latitude": 30.254400999999998,
    "longitude": 120.21418599999993,
    "storeType": "授权专卖店",
    "serviceTags": [],
    "openingHours": "周一～周日10:00-22:00",
    "phone": "19032589733"
  },
  {
    "id": "1580",
    "brand": "Insta360",
    "storeName": "影石Insta360杭州萧山万象汇授权体验店",
    "province": "浙江省",
    "city": "杭州市",
    "address": "浙江省杭州市萧山区北干街道金城路927号华润万象汇B1S05影石Insta360",
    "latitude": 30.19,
    "longitude": 120.28,
    "storeType": "授权专卖店",
    "serviceTags": [],
    "openingHours": "10:00-22:00",
    "phone": "18967190850"
  },
  {
    "id": "1564",
    "brand": "Insta360",
    "storeName": "影石Insta360绍兴银泰授权体验店",
    "province": "浙江省",
    "city": "杭州市",
    "address": "杭州市西湖区黄姑山路29号颐高旗舰大厦A座1302",
    "latitude": 30.28,
    "longitude": 120.14,
    "storeType": "授权专卖店",
    "serviceTags": [],
    "openingHours": "10∶00—22∶00",
    "phone": "17398010377"
  },
  {
    "id": "1498",
    "brand": "Insta360",
    "storeName": "影石Insta360杭州亚奥万象天地授权体验店",
    "province": "浙江省",
    "city": "杭州市",
    "address": "浙江省杭州市萧山区盈丰街道亚奥城  杭州亚奥万象天地L111 商铺影石Insta 360",
    "latitude": 30.26,
    "longitude": 120.25,
    "storeType": "授权专卖店",
    "serviceTags": [],
    "openingHours": "10∶00—22∶00",
    "phone": "17328896877"
  },
  {
    "id": "1398",
    "brand": "Insta360",
    "storeName": "影石Insta360杭州IN77授权体验店",
    "province": "浙江省",
    "city": "杭州市",
    "address": "浙江省杭州市上城区延安路238号杭州湖滨银泰in77 C1区B1层",
    "latitude": 30.259954,
    "longitude": 120.171246,
    "storeType": "授权专卖店",
    "serviceTags": [],
    "openingHours": "10:00-22:00",
    "phone": "18967196182"
  },
  {
    "id": "1342",
    "brand": "Insta360",
    "storeName": "影石Insta360杭州百脑汇照材专卖店",
    "province": "浙江省",
    "city": "杭州市",
    "address": "教工路23号百脑汇科技大厦一楼1B12",
    "latitude": 30.28183,
    "longitude": 120.139589,
    "storeType": "授权专卖店",
    "serviceTags": [],
    "openingHours": "周一～周日9:00-18:00",
    "phone": "13165999212"
  },
  {
    "id": "1440",
    "brand": "Insta360",
    "storeName": "影石Insta360杭州滨江天街授权体验店",
    "province": "浙江省",
    "city": "杭州市",
    "address": "浙江省杭州市滨江区江汉路1515号(江汉路地铁站D口旁)滨江龙湖天街 1 楼",
    "latitude": 30.21,
    "longitude": 120.21,
    "storeType": "授权专卖店",
    "serviceTags": [],
    "openingHours": "10:00—22:00",
    "phone": "18158717205"
  },
  {
    "id": "1433",
    "brand": "Insta360",
    "storeName": "影石Insta360杭州学院路照材专卖店",
    "province": "浙江省",
    "city": "杭州市",
    "address": "浙江省杭州市西湖区翠苑街道学院路82号",
    "latitude": 30.28,
    "longitude": 120.14,
    "storeType": "授权专卖店",
    "serviceTags": [],
    "openingHours": "9:00-21:00",
    "phone": "19065683089"
  },
  {
    "id": "1426",
    "brand": "Insta360",
    "storeName": "影石Insta360杭州拱墅区悦街照材售点",
    "province": "浙江省",
    "city": "杭州市",
    "address": "浙江省杭州市拱墅区大悦城T202（T2商业电梯厅2楼）",
    "latitude": 30.31,
    "longitude": 120.14,
    "storeType": "合作体验点",
    "serviceTags": [],
    "openingHours": "10:00-22:00",
    "phone": "15001897964"
  },
  {
    "id": "1318",
    "brand": "Insta360",
    "storeName": "杭州颖顺器材照材店",
    "province": "浙江省",
    "city": "杭州市",
    "address": "大悦城月亮路印悦201SONY索尼",
    "latitude": 30.306833,
    "longitude": 120.137272,
    "storeType": "合作体验点",
    "serviceTags": [],
    "openingHours": null,
    "phone": "18258231127"
  },
  {
    "id": "1005",
    "brand": "Insta360",
    "storeName": "风影数码东部店",
    "province": "浙江省",
    "city": "杭州市",
    "address": "秋涛北路128号东部数码城一楼沿街商铺1A02风影数码",
    "latitude": 30.274306,
    "longitude": 120.20734,
    "storeType": "合作体验点",
    "serviceTags": [],
    "openingHours": null,
    "phone": null
  },
  {
    "id": "1370",
    "brand": "Insta360",
    "storeName": "杭州橘子数码",
    "province": "浙江省",
    "city": "杭州市",
    "address": "浙江省杭州市西湖区黄姑山路29号颐高广场A座3楼3029",
    "latitude": 30.28168,
    "longitude": 120.139094,
    "storeType": "合作体验点",
    "serviceTags": [],
    "openingHours": null,
    "phone": null
  },
  {
    "id": "1003",
    "brand": "Insta360",
    "storeName": "杭州启邦授权店",
    "province": "浙江省",
    "city": "杭州市",
    "address": "良渚街道网周路99号3幢5层506室",
    "latitude": 30.369411,
    "longitude": 120.066363,
    "storeType": "合作体验点",
    "serviceTags": [],
    "openingHours": null,
    "phone": null
  },
  {
    "id": "1343",
    "brand": "Insta360",
    "storeName": "影石Insta360宁波万象城授权体验店",
    "province": "浙江省",
    "city": "宁波市",
    "address": "清河路 265 号万象城购物中心L224铺位",
    "latitude": 29.904181,
    "longitude": 121.558048,
    "storeType": "授权专卖店",
    "serviceTags": [],
    "openingHours": "周一～周日10:00-22:00",
    "phone": "19157602877"
  },
  {
    "id": "1518",
    "brand": "Insta360",
    "storeName": "宁波明州里授权专卖店",
    "province": "浙江省",
    "city": "宁波市",
    "address": "浙江省宁波市鄞州区钟公庙街道明州里商场一楼1029A",
    "latitude": 29.83,
    "longitude": 121.55,
    "storeType": "授权专卖店",
    "serviceTags": [],
    "openingHours": "10:00-22:00",
    "phone": "18868933339"
  },
  {
    "id": "1024",
    "brand": "Insta360",
    "storeName": "开市客宁波店",
    "province": "浙江省",
    "city": "宁波市",
    "address": "下应街道首南东路与启明南路交叉口东南角",
    "latitude": 29.80378,
    "longitude": 121.60889,
    "storeType": "合作体验点",
    "serviceTags": [],
    "openingHours": null,
    "phone": null
  },
  {
    "id": "1506",
    "brand": "Insta360",
    "storeName": "影石Insta360温州万象城授权体验店",
    "province": "浙江省",
    "city": "温州市",
    "address": "浙江省温州市瓯海区瓯海大道1999号温州万象城 5楼 L515A",
    "latitude": 27.96,
    "longitude": 120.69,
    "storeType": "授权专卖店",
    "serviceTags": [],
    "openingHours": "10∶00-22∶00",
    "phone": "19957016377"
  },
  {
    "id": "1457",
    "brand": "Insta360",
    "storeName": "影石Insta360温州滨江万象城授权体验店",
    "province": "浙江省",
    "city": "温州市",
    "address": "浙江省温州市鹿城区瓯江路3999号温州滨江万象城L165a",
    "latitude": 28.02,
    "longitude": 120.72,
    "storeType": "授权专卖店",
    "serviceTags": [],
    "openingHours": "10:00-22:00",
    "phone": "19106782077"
  },
  {
    "id": "1329",
    "brand": "Insta360",
    "storeName": "温州青青数码",
    "province": "浙江省",
    "city": "温州市",
    "address": "温州市鹿城区人民路中民市场a11-12",
    "latitude": 28.017138,
    "longitude": 120.671745,
    "storeType": "合作体验点",
    "serviceTags": [],
    "openingHours": null,
    "phone": "18958785888"
  },
  {
    "id": "1275",
    "brand": "Insta360",
    "storeName": "嘉善奇点数码产品经营部",
    "province": "浙江省",
    "city": "嘉兴市",
    "address": "魏塘街道老县府路177－1号",
    "latitude": 30.848817,
    "longitude": 120.919837,
    "storeType": "合作体验点",
    "serviceTags": [],
    "openingHours": null,
    "phone": null
  },
  {
    "id": "817",
    "brand": "Insta360",
    "storeName": "嘉兴八佰伴店",
    "province": "浙江省",
    "city": "嘉兴市",
    "address": "中山路1360号嘉兴八佰伴购物中心L1036-37A（恒州）",
    "latitude": 30.764807,
    "longitude": 120.738509,
    "storeType": "合作体验点",
    "serviceTags": [],
    "openingHours": null,
    "phone": null
  },
  {
    "id": "1481",
    "brand": "Insta360",
    "storeName": "影石Insta360浙江金华永盛授权体验店",
    "province": "浙江省",
    "city": "金华市",
    "address": "浙江省金华市新华街67号永盛购物广场1楼53号商铺",
    "latitude": 29.11,
    "longitude": 119.66,
    "storeType": "授权专卖店",
    "serviceTags": [],
    "openingHours": "10∶00—22∶00",
    "phone": "17376589677"
  },
  {
    "id": "1277",
    "brand": "Insta360",
    "storeName": "毅光年影像椒江店",
    "province": "浙江省",
    "city": "台州市",
    "address": "广场南路573号（海湾浪琴西）",
    "latitude": 28.650245,
    "longitude": 121.423021,
    "storeType": "合作体验点",
    "serviceTags": [],
    "openingHours": null,
    "phone": null
  },
  {
    "id": "1276",
    "brand": "Insta360",
    "storeName": "毅光年影像路桥数码城店",
    "province": "浙江省",
    "city": "台州市",
    "address": "电子数码城3楼3509号（E7柱子）",
    "latitude": 28.596406,
    "longitude": 121.37607,
    "storeType": "合作体验点",
    "serviceTags": [],
    "openingHours": null,
    "phone": null
  },
  {
    "id": "1581",
    "brand": "Insta360",
    "storeName": "影石Insta360合肥万象城授权体验店",
    "province": "安徽省",
    "city": "合肥市",
    "address": "安徽省合肥市蜀山区潜山路111号合肥万象城L0506A",
    "latitude": 31.81,
    "longitude": 117.24,
    "storeType": "授权专卖店",
    "serviceTags": [],
    "openingHours": "10：00-22：00",
    "phone": "18355728757"
  },
  {
    "id": "1583",
    "brand": "Insta360",
    "storeName": "影石Insta360合肥包河万象汇授权体验店",
    "province": "安徽省",
    "city": "合肥市",
    "address": "合肥市包河区包河大道和龙川路交叉口包河万象汇D107影石Insta360",
    "latitude": 31.81,
    "longitude": 117.31,
    "storeType": "授权专卖店",
    "serviceTags": [],
    "openingHours": "10：00-22：00",
    "phone": "18756967829"
  },
  {
    "id": "1414",
    "brand": "Insta360",
    "storeName": "影石Insta360合肥百脑汇照材专卖店",
    "province": "安徽省",
    "city": "合肥市",
    "address": "合肥市包河区金寨路162号百脑汇2楼2A16",
    "latitude": 31.845049,
    "longitude": 117.272217,
    "storeType": "授权专卖店",
    "serviceTags": [],
    "openingHours": "09:00-18:00",
    "phone": "18018685758"
  },
  {
    "id": "1389",
    "brand": "Insta360",
    "storeName": "合肥儒佳影石授权体验专区",
    "province": "安徽省",
    "city": "合肥市",
    "address": "安徽省合肥市包河区中国科学技术大学高科技广场南二区10-12号",
    "latitude": 31.842064,
    "longitude": 117.272265,
    "storeType": "合作体验点",
    "serviceTags": [],
    "openingHours": null,
    "phone": "13645601775"
  },
  {
    "id": "1393",
    "brand": "Insta360",
    "storeName": "合肥美好数码影视器材",
    "province": "安徽省",
    "city": "合肥市",
    "address": "安徽省合肥市蜀山区赛博数码广场一楼152号",
    "latitude": 31.847236,
    "longitude": 117.272827,
    "storeType": "合作体验点",
    "serviceTags": [],
    "openingHours": "18056090910",
    "phone": null
  },
  {
    "id": "1327",
    "brand": "Insta360",
    "storeName": "合肥万象城Brompton Loop",
    "province": "安徽省",
    "city": "合肥市",
    "address": "荷叶地街道潜山路111号万象城1楼Loop 自行车店L140a号",
    "latitude": 31.805396,
    "longitude": 117.237586,
    "storeType": "合作体验点",
    "serviceTags": [],
    "openingHours": null,
    "phone": "19315289052"
  },
  {
    "id": "1258",
    "brand": "Insta360",
    "storeName": "创新未来智能科技Insta360授权店",
    "province": "安徽省",
    "city": "阜阳市",
    "address": "颖河西路东方数码广场2楼D2005佳能",
    "latitude": 32.904763,
    "longitude": 115.828994,
    "storeType": "合作体验点",
    "serviceTags": [],
    "openingHours": null,
    "phone": null
  },
  {
    "id": "1400",
    "brand": "Insta360",
    "storeName": "影石Insta360福州万象城授权体验店",
    "province": "福建省",
    "city": "福州市",
    "address": "福州市鼓楼区洪山园路5号华润万象城购物广场5楼L509",
    "latitude": 26.08122,
    "longitude": 119.283446,
    "storeType": "授权专卖店",
    "serviceTags": [],
    "openingHours": "10:00-22:00",
    "phone": "18159082923"
  },
  {
    "id": "1411",
    "brand": "Insta360",
    "storeName": "影石Insta360福州东二泰禾授权体验店",
    "province": "福建省",
    "city": "福州市",
    "address": "福建省福州市晋安区东二环泰禾广场一楼L126-1",
    "latitude": 26.095913,
    "longitude": 119.343648,
    "storeType": "授权专卖店",
    "serviceTags": [],
    "openingHours": "10:00-22:00",
    "phone": "19906938512"
  },
  {
    "id": "1578",
    "brand": "Insta360",
    "storeName": "影石Insta360福州烟台山授权体验店",
    "province": "福建省",
    "city": "福州市",
    "address": "福建省福州仓山区仓前街道仓前路 7 号",
    "latitude": 26.05,
    "longitude": 119.32,
    "storeType": "授权专卖店",
    "serviceTags": [],
    "openingHours": "9:30-22:30",
    "phone": "18959085930"
  },
  {
    "id": "1387",
    "brand": "Insta360",
    "storeName": "福州茗航毅站",
    "province": "福建省",
    "city": "福州市",
    "address": "福建省福州市台江区白马南路63号",
    "latitude": 26.056201,
    "longitude": 119.307559,
    "storeType": "合作体验点",
    "serviceTags": [],
    "openingHours": null,
    "phone": "18150799246"
  },
  {
    "id": "1402",
    "brand": "Insta360",
    "storeName": "影石Insta360厦门SM授权体验店",
    "province": "福建省",
    "city": "厦门市",
    "address": "厦门市湖里区嘉禾路468号SM广场一楼中庭KK102",
    "latitude": 24.506704,
    "longitude": 118.133494,
    "storeType": "授权专卖店",
    "serviceTags": [],
    "openingHours": "10:00-22:00",
    "phone": "18050237915"
  },
  {
    "id": "1441",
    "brand": "Insta360",
    "storeName": "影石Insta360厦门大悦城授权体验店",
    "province": "福建省",
    "city": "厦门市",
    "address": "福建省厦门市集美区厦门大悦城1F-D01",
    "latitude": 24.6,
    "longitude": 118.06,
    "storeType": "授权专卖店",
    "serviceTags": [],
    "openingHours": "10:00-22:00",
    "phone": "18965510135"
  },
  {
    "id": "1051",
    "brand": "Insta360",
    "storeName": "厦门百脑汇圣耀影视器材",
    "province": "福建省",
    "city": "厦门市",
    "address": "湖滨南路76号百脑汇一楼1F21店铺",
    "latitude": 24.474454,
    "longitude": 118.097665,
    "storeType": "合作体验点",
    "serviceTags": [],
    "openingHours": null,
    "phone": null
  },
  {
    "id": "1401",
    "brand": "Insta360",
    "storeName": "影石Insta360泉州浦西万达授权体验店",
    "province": "福建省",
    "city": "泉州市",
    "address": "福建省泉州市丰泽区宝洲路679号浦西万达广场1楼1030-AA",
    "latitude": 24.888198,
    "longitude": 118.605603,
    "storeType": "授权专卖店",
    "serviceTags": [],
    "openingHours": "10:00-22:00",
    "phone": "18060561060"
  },
  {
    "id": "1489",
    "brand": "Insta360",
    "storeName": "影石Insta360福建龙岩万宝授权体验店",
    "province": "福建省",
    "city": "龙岩市",
    "address": "福建省龙岩市新罗区龙岩万宝广场新3号门旁边1001铺",
    "latitude": 25.09,
    "longitude": 117.03,
    "storeType": "授权专卖店",
    "serviceTags": [],
    "openingHours": "10:00—22:00",
    "phone": "18959031282"
  },
  {
    "id": "1483",
    "brand": "Insta360",
    "storeName": "影石Insta360南昌万象城授权体验店",
    "province": "江西省",
    "city": "南昌市",
    "address": "南昌市红谷滩区学府大道388号南昌万象城B110",
    "latitude": 28.66,
    "longitude": 115.85,
    "storeType": "授权专卖店",
    "serviceTags": [],
    "openingHours": "10:00-22:00",
    "phone": "19917928376"
  },
  {
    "id": "1579",
    "brand": "Insta360",
    "storeName": "影石Insta360南昌铜锣湾商场授权体验店",
    "province": "江西省",
    "city": "南昌市",
    "address": "江西省南昌市红谷滩新区庐山南大道369号南昌铜锣湾广场1F L1-D08",
    "latitude": 28.71,
    "longitude": 115.87,
    "storeType": "授权专卖店",
    "serviceTags": [],
    "openingHours": "10：00-22：00",
    "phone": "19044575951"
  },
  {
    "id": "1431",
    "brand": "Insta360",
    "storeName": "影石Insta360南昌和昌里街区授权专卖店",
    "province": "江西省",
    "city": "南昌市",
    "address": "江西省南昌市红谷滩区会展路888号和昌里1层024铺insta影石专卖店（地铁4号口） 黄语欢",
    "latitude": 28.69646,
    "longitude": 115.854758,
    "storeType": "授权专卖店",
    "serviceTags": [],
    "openingHours": "10:00-22:00",
    "phone": "18679156781"
  },
  {
    "id": "1388",
    "brand": "Insta360",
    "storeName": "云逸贸易有限公司",
    "province": "江西省",
    "city": "南昌市",
    "address": "江西省南昌市红谷滩区学府大道388号南昌万象城4楼481店铺",
    "latitude": 28.661002,
    "longitude": 115.854094,
    "storeType": "合作体验点",
    "serviceTags": [],
    "openingHours": null,
    "phone": "19079192070"
  },
  {
    "id": "1319",
    "brand": "Insta360",
    "storeName": "京东之家(南昌王府井店)",
    "province": "江西省",
    "city": "南昌市",
    "address": "洪城路158号王府井购物中心二楼023",
    "latitude": 28.659398,
    "longitude": 115.910811,
    "storeType": "合作体验点",
    "serviceTags": [],
    "openingHours": null,
    "phone": "13407913078"
  },
  {
    "id": "1432",
    "brand": "Insta360",
    "storeName": "影石Insta360赣州泽丰环球汇授权专区",
    "province": "江西省",
    "city": "赣州市",
    "address": "江西省赣州市章贡区泽丰环球汇2号门门口一楼",
    "latitude": 25.83,
    "longitude": 114.95,
    "storeType": "授权专卖店",
    "serviceTags": [],
    "openingHours": null,
    "phone": "13117520561"
  },
  {
    "id": "1524",
    "brand": "Insta360",
    "storeName": "影石Insta360江西赣州京东授权专区",
    "province": "江西省",
    "city": "赣州市",
    "address": "江西省赣州市章贡区水南镇泽丰环球汇负一楼京东家电",
    "latitude": 25.83,
    "longitude": 114.95,
    "storeType": "合作体验点",
    "serviceTags": [],
    "openingHours": "10:00-22:00",
    "phone": "13117520561"
  },
  {
    "id": "1428",
    "brand": "Insta360",
    "storeName": "影石Insta济南华强电子科技照材专卖店",
    "province": "山东省",
    "city": "济南市",
    "address": "山东省济南市历下区157号华强电子世界二层Q2015A铺位",
    "latitude": 36.67,
    "longitude": 117.06,
    "storeType": "授权专卖店",
    "serviceTags": [],
    "openingHours": "9:00-18:00",
    "phone": "13210541165"
  },
  {
    "id": "1362",
    "brand": "Insta360",
    "storeName": "济南晶彩数码科技照材店",
    "province": "山东省",
    "city": "济南市",
    "address": "山大路178号银座数码广场一层C-15",
    "latitude": 36.672918,
    "longitude": 117.062972,
    "storeType": "合作体验点",
    "serviceTags": [],
    "openingHours": null,
    "phone": "18653186550"
  },
  {
    "id": "1239",
    "brand": "Insta360",
    "storeName": "济南悦杨体验店",
    "province": "山东省",
    "city": "济南市",
    "address": "解放路43号赛博数码广场1楼A07号索尼专卖店",
    "latitude": 36.672719,
    "longitude": 117.063491,
    "storeType": "合作体验点",
    "serviceTags": [],
    "openingHours": null,
    "phone": null
  },
  {
    "id": "1242",
    "brand": "Insta360",
    "storeName": "济南浩瀚体验店",
    "province": "山东省",
    "city": "济南市",
    "address": "山大路178号赛博数码广场2楼2121",
    "latitude": 36.672823,
    "longitude": 117.063121,
    "storeType": "合作体验点",
    "serviceTags": [],
    "openingHours": null,
    "phone": null
  },
  {
    "id": "1245",
    "brand": "Insta360",
    "storeName": "济南亘富沓来商贸照材店",
    "province": "山东省",
    "city": "济南市",
    "address": "山大路157号华强电子世界2楼Q2082",
    "latitude": 36.673104,
    "longitude": 117.061844,
    "storeType": "合作体验点",
    "serviceTags": [],
    "openingHours": null,
    "phone": null
  },
  {
    "id": "1241",
    "brand": "Insta360",
    "storeName": "青山摄影体验店",
    "province": "山东省",
    "city": "济南市",
    "address": "标山南路12号",
    "latitude": 36.700632,
    "longitude": 117.005185,
    "storeType": "合作体验点",
    "serviceTags": [],
    "openingHours": null,
    "phone": null
  },
  {
    "id": "1469",
    "brand": "Insta360",
    "storeName": "影石Insta360青岛海信广场授权体验店",
    "province": "山东省",
    "city": "青岛市",
    "address": "山东省青岛市澳门路117号海信广场2期LG层0303",
    "latitude": 36.07,
    "longitude": 120.4,
    "storeType": "授权专卖店",
    "serviceTags": [],
    "openingHours": "10:00-22:00",
    "phone": "16653221285"
  },
  {
    "id": "1571",
    "brand": "Insta360",
    "storeName": "影石Insta360青岛凯德MALL授权体验店",
    "province": "山东省",
    "city": "青岛市",
    "address": "山东省青岛市市北区黑龙江南路18号凯德mall新都心01层15号",
    "latitude": 36.12,
    "longitude": 120.4,
    "storeType": "授权专卖店",
    "serviceTags": [],
    "openingHours": "10:00-22:00",
    "phone": "13730949877"
  },
  {
    "id": "1502",
    "brand": "Insta360",
    "storeName": "影石Insta360青岛崂山万象汇授权体验店",
    "province": "山东省",
    "city": "青岛市",
    "address": "山东省青岛市崂山区深圳路与辽阳东路交汇崂山万象汇L109A",
    "latitude": 36.12,
    "longitude": 120.45,
    "storeType": "授权专卖店",
    "serviceTags": [],
    "openingHours": "18100375560",
    "phone": "18100375560"
  },
  {
    "id": "1418",
    "brand": "Insta360",
    "storeName": "影石Insta360青岛百脑汇照材专卖店",
    "province": "山东省",
    "city": "青岛市",
    "address": "山东省青岛市市北区辽宁路百脑汇1楼1E08",
    "latitude": 36.089846,
    "longitude": 120.339906,
    "storeType": "授权专卖店",
    "serviceTags": [],
    "openingHours": "9:00-18:00",
    "phone": "15253257181"
  },
  {
    "id": "1244",
    "brand": "Insta360",
    "storeName": "青岛信鹏轩照材店",
    "province": "山东省",
    "city": "青岛市",
    "address": "辽宁路147号1c05",
    "latitude": 36.089738,
    "longitude": 120.34015,
    "storeType": "合作体验点",
    "serviceTags": [],
    "openingHours": null,
    "phone": null
  },
  {
    "id": "1572",
    "brand": "Insta360",
    "storeName": "影石Insta360烟台振华商厦授权体验店",
    "province": "山东省",
    "city": "烟台市",
    "address": "山东省烟台市芝罘区西大街18号振华精品商厦1F-B01-2",
    "latitude": 37.55,
    "longitude": 121.39,
    "storeType": "授权专卖店",
    "serviceTags": [],
    "openingHours": "10:00-22:00",
    "phone": "15684080488"
  },
  {
    "id": "1361",
    "brand": "Insta360",
    "storeName": "烟台菲林电子科技照材店",
    "province": "山东省",
    "city": "烟台市",
    "address": "芝罘屯路11号联民众诚数码广场C0A1",
    "latitude": 37.555947,
    "longitude": 121.380488,
    "storeType": "合作体验点",
    "serviceTags": [],
    "openingHours": null,
    "phone": "13506454610"
  },
  {
    "id": "1360",
    "brand": "Insta360",
    "storeName": "潍坊羽中照材店",
    "province": "山东省",
    "city": "潍坊市",
    "address": "南关街道青年路威尼斯2F62",
    "latitude": 36.711568,
    "longitude": 119.117351,
    "storeType": "合作体验点",
    "serviceTags": [],
    "openingHours": null,
    "phone": "15336363466"
  },
  {
    "id": "1462",
    "brand": "Insta360",
    "storeName": "影石Insta360潍坊益家园照材专卖店",
    "province": "山东省",
    "city": "潍坊市",
    "address": "北宫西街3687号6号楼益家园家电家居MALL潍城店",
    "latitude": 36.74,
    "longitude": 119.08,
    "storeType": "授权专卖店",
    "serviceTags": [],
    "openingHours": "9:30-20:00",
    "phone": "18353620560"
  },
  {
    "id": "1438",
    "brand": "Insta360",
    "storeName": "青州市友乐影视器材有限公司",
    "province": "山东省",
    "city": "潍坊市",
    "address": "山东省青州市尧王山东路399号国泰科技城友乐数码",
    "latitude": 36.7,
    "longitude": 118.49,
    "storeType": "合作体验点",
    "serviceTags": [],
    "openingHours": null,
    "phone": null
  },
  {
    "id": "1562",
    "brand": "Insta360",
    "storeName": "影石Insta360济宁万象汇授权体验店",
    "province": "山东省",
    "city": "济宁市",
    "address": "山东省济宁市高新区柳行街道海川路77号济宁万象汇L135",
    "latitude": 35.42,
    "longitude": 116.71,
    "storeType": "授权专卖店",
    "serviceTags": [],
    "openingHours": "周一至周四营业时间：10：00-21：30，周五周六周日：10：00-22：00",
    "phone": "15318418366"
  },
  {
    "id": "1519",
    "brand": "Insta360",
    "storeName": "影石Insta360泰安三源照材专卖店",
    "province": "山东省",
    "city": "泰安市",
    "address": "山东省泰安市泰山区财源大街107号三源家电1楼",
    "latitude": 36.19,
    "longitude": 117.13,
    "storeType": "授权专卖店",
    "serviceTags": [],
    "openingHours": "9:00-19:00",
    "phone": "18661314123"
  },
  {
    "id": "1344",
    "brand": "Insta360",
    "storeName": "日照新索照材店",
    "province": "山东省",
    "city": "日照市",
    "address": "北京路王府大街C1-1-3号",
    "latitude": 35.417611,
    "longitude": 119.528546,
    "storeType": "合作体验点",
    "serviceTags": [],
    "openingHours": null,
    "phone": null
  },
  {
    "id": "1365",
    "brand": "Insta360",
    "storeName": "兰山区天鸿摄影器材商行",
    "province": "山东省",
    "city": "临沂市",
    "address": "通达路百脑汇数码广场一楼135号",
    "latitude": 35.086374,
    "longitude": 118.333133,
    "storeType": "合作体验点",
    "serviceTags": [],
    "openingHours": null,
    "phone": "13954919001"
  },
  {
    "id": "1396",
    "brand": "Insta360",
    "storeName": "影石Insta360郑州东万象城授权体验店",
    "province": "河南省",
    "city": "郑州市",
    "address": "祥盛街东风南路交叉口西南100米郑东万象城南区一楼CL103",
    "latitude": 34.770962,
    "longitude": 113.772439,
    "storeType": "授权专卖店",
    "serviceTags": [],
    "openingHours": "10:00-22:00",
    "phone": "18638546739"
  },
  {
    "id": "1470",
    "brand": "Insta360",
    "storeName": "影石Insta360郑州探十里授权体验店",
    "province": "河南省",
    "city": "郑州市",
    "address": "河南省郑州市陇海路桐柏路探十里1楼影石Insta360",
    "latitude": 34.74,
    "longitude": 113.62,
    "storeType": "授权专卖店",
    "serviceTags": [],
    "openingHours": "10：00-22：00",
    "phone": "15515815705"
  },
  {
    "id": "1307",
    "brand": "Insta360",
    "storeName": "影石Insta360郑州大卫城授权体验店",
    "province": "河南省",
    "city": "郑州市",
    "address": "西太康路和二七路交叉路口丹尼斯大卫城MALL6F层M048号",
    "latitude": 34.764044,
    "longitude": 113.672469,
    "storeType": "授权专卖店",
    "serviceTags": [],
    "openingHours": "周一～周日10:00-22:00",
    "phone": "15515681920"
  },
  {
    "id": "1476",
    "brand": "Insta360",
    "storeName": "影石Insta360郑州正弘城授权体验店",
    "province": "河南省",
    "city": "郑州市",
    "address": "河南省郑州市金水区东风路正弘城负1楼花园里LB-M14",
    "latitude": 34.8,
    "longitude": 113.69,
    "storeType": "授权专卖店",
    "serviceTags": [],
    "openingHours": "10:00-22:00",
    "phone": "13598605739"
  },
  {
    "id": "1439",
    "brand": "Insta360",
    "storeName": "影石Insta360郑州信万广场授权专卖店",
    "province": "河南省",
    "city": "郑州市",
    "address": "河南省郑州市金水区国基路丰庆路信万广场一楼A1012",
    "latitude": 34.83,
    "longitude": 113.65,
    "storeType": "授权专卖店",
    "serviceTags": [],
    "openingHours": "09:30-22:00",
    "phone": "15137199413"
  },
  {
    "id": "1538",
    "brand": "Insta360",
    "storeName": "影石Insta360郑州赛博数码港照材专卖店",
    "province": "河南省",
    "city": "郑州市",
    "address": "河南省郑州市金水区赛博数码港一楼M111",
    "latitude": 34.81,
    "longitude": 113.67,
    "storeType": "授权专卖店",
    "serviceTags": [],
    "openingHours": "9:00-19:00",
    "phone": "15238015211"
  },
  {
    "id": "1417",
    "brand": "Insta360",
    "storeName": "影石Insta360郑州智汇城照材专卖店",
    "province": "河南省",
    "city": "郑州市",
    "address": "河南省郑州市金水区文博西路与东风路交叉口智汇城内场一楼西北门C1000-1",
    "latitude": 34.804373,
    "longitude": 113.676837,
    "storeType": "授权专卖店",
    "serviceTags": [],
    "openingHours": "9:00-18:30",
    "phone": "13683817031"
  },
  {
    "id": "1278",
    "brand": "Insta360",
    "storeName": "郑州风玩数码影石Insta360照材售点",
    "province": "河南省",
    "city": "郑州市",
    "address": "东风路与文博西路交汇处智汇城一楼A1009号",
    "latitude": 34.804025,
    "longitude": 113.67852,
    "storeType": "合作体验点",
    "serviceTags": [],
    "openingHours": null,
    "phone": null
  },
  {
    "id": "1212",
    "brand": "Insta360",
    "storeName": "影石Insta360百脑汇凌越照材专区",
    "province": "河南省",
    "city": "郑州市",
    "address": "东风路百脑汇一楼1A21/金水区文化路硅谷广场A座1809",
    "latitude": 34.805183,
    "longitude": 113.677585,
    "storeType": "合作体验点",
    "serviceTags": [],
    "openingHours": null,
    "phone": null
  },
  {
    "id": "1512",
    "brand": "Insta360",
    "storeName": "影石Insta360洛阳大卫天地授权体验店",
    "province": "河南省",
    "city": "洛阳市",
    "address": "河南省洛阳市西工区中州中路丹尼斯大卫天地8F影石Insta360",
    "latitude": 34.68,
    "longitude": 112.44,
    "storeType": "授权专卖店",
    "serviceTags": [],
    "openingHours": "09:30——22:00",
    "phone": "17739093233"
  },
  {
    "id": "1586",
    "brand": "Insta360",
    "storeName": "影石Insta360洛阳王城公园照材专卖店",
    "province": "河南省",
    "city": "洛阳市",
    "address": "河南省洛阳市西工区中州中路312号17-18 商铺，影石Insta360王城公园店",
    "latitude": 34.67,
    "longitude": 112.43,
    "storeType": "授权专卖店",
    "serviceTags": [],
    "openingHours": "9：00-19：00",
    "phone": "13838888481"
  },
  {
    "id": "820",
    "brand": "Insta360",
    "storeName": "泉舜购物中心店",
    "province": "河南省",
    "city": "洛阳市",
    "address": "牡丹大道166号泉舜购物中心一层1057号（尚派）",
    "latitude": 34.618464,
    "longitude": 112.460733,
    "storeType": "合作体验点",
    "serviceTags": [],
    "openingHours": null,
    "phone": null
  },
  {
    "id": "1207",
    "brand": "Insta360",
    "storeName": "安阳飞越数码摄影器材店",
    "province": "河南省",
    "city": "安阳市",
    "address": "红旗路金豪数码广场二楼B221",
    "latitude": 36.115587,
    "longitude": 114.360707,
    "storeType": "合作体验点",
    "serviceTags": [],
    "openingHours": null,
    "phone": null
  },
  {
    "id": "1501",
    "brand": "Insta360",
    "storeName": "影石Insta360商丘正弘汇授权体验店",
    "province": "河南省",
    "city": "商丘市",
    "address": "河南省商丘市梁园区前进街道神火大道正弘汇一楼L155号",
    "latitude": 34.44,
    "longitude": 115.66,
    "storeType": "授权专卖店",
    "serviceTags": [],
    "openingHours": "10：00-22：00",
    "phone": "19059705213"
  },
  {
    "id": "1394",
    "brand": "Insta360",
    "storeName": "影石Insta360武汉梦时代授权体验店",
    "province": "湖北省",
    "city": "武汉市",
    "address": "中南路街道武珞路598号武商梦时代负一层A-037A",
    "latitude": 30.53502,
    "longitude": 114.347113,
    "storeType": "授权专卖店",
    "serviceTags": [],
    "openingHours": "10:00-22:00",
    "phone": "19036916602"
  },
  {
    "id": "1513",
    "brand": "Insta360",
    "storeName": "影石Insta360武汉万象城授权体验店",
    "province": "湖北省",
    "city": "武汉市",
    "address": "湖北省武汉市江岸区建设大道668号武汉万象城6FD603店铺",
    "latitude": 30.61,
    "longitude": 114.29,
    "storeType": "授权专卖店",
    "serviceTags": [],
    "openingHours": "10：00-22：00",
    "phone": "15795648152"
  },
  {
    "id": "1442",
    "brand": "Insta360",
    "storeName": "影石Insta360武汉天地壹方授权体验店",
    "province": "湖北省",
    "city": "武汉市",
    "address": "湖北省武汉市江岸区永清街道中山大道591号武汉天地壹方购物中心L1-A3",
    "latitude": 30.62,
    "longitude": 114.32,
    "storeType": "授权专卖店",
    "serviceTags": [],
    "openingHours": "10：00-22：00",
    "phone": "13750383214"
  },
  {
    "id": "1338",
    "brand": "Insta360",
    "storeName": "影石Insta360武汉甘露山授权体验店",
    "province": "湖北省",
    "city": "武汉市",
    "address": "前川街文创城社区甘露山文创城项目中101地块冰雪综合体中配套商业区城F1-M14-1号商铺 影石Insta360武汉甘露山店",
    "latitude": 30.890285,
    "longitude": 114.410856,
    "storeType": "授权专卖店",
    "serviceTags": [],
    "openingHours": "周一～周五10:00-21:00 周六～周日10:00-22:00",
    "phone": "13971272669"
  },
  {
    "id": "1520",
    "brand": "Insta360",
    "storeName": "影石Insta360武汉婚纱摄影照材专卖店",
    "province": "湖北省",
    "city": "武汉市",
    "address": "湖北省武汉市江岸区胜利街6号一楼1011商铺",
    "latitude": 30.59,
    "longitude": 114.3,
    "storeType": "授权专卖店",
    "serviceTags": [],
    "openingHours": "9:00-18:00",
    "phone": "15337204720"
  },
  {
    "id": "1455",
    "brand": "Insta360",
    "storeName": "OPPO｜一加 旗舰店(武汉楚河汉街店)",
    "province": "湖北省",
    "city": "武汉市",
    "address": "湖北省武汉市武昌区水果湖街街道商业广场室内步行街J4-2-3号OPPO旗舰店",
    "latitude": 30.558375,
    "longitude": 114.337521,
    "storeType": "合作体验点",
    "serviceTags": [],
    "openingHours": "10:00:00~22:00:00",
    "phone": "027-87718188"
  },
  {
    "id": "1359",
    "brand": "Insta360",
    "storeName": "武汉季佳PAI影石Insta360售点",
    "province": "湖北省",
    "city": "武汉市",
    "address": "珞喻路1号季佳PAI商场一层1010号（2号/8号地铁街道口C口出右转即到）",
    "latitude": 30.533533,
    "longitude": 114.360537,
    "storeType": "授权专卖店",
    "serviceTags": [],
    "openingHours": null,
    "phone": null
  },
  {
    "id": "961",
    "brand": "Insta360",
    "storeName": "武汉咔拍佳汇馆",
    "province": "湖北省",
    "city": "武汉市",
    "address": "汉口胜利街6号武汉婚纱照材城一楼A区1009号",
    "latitude": 30.58605,
    "longitude": 114.300178,
    "storeType": "合作体验点",
    "serviceTags": [],
    "openingHours": null,
    "phone": null
  },
  {
    "id": "1437",
    "brand": "Insta360",
    "storeName": "武汉市盈科照材店",
    "province": "湖北省",
    "city": "武汉市",
    "address": "湖北省武汉市江岸区武汉市江岸区南京路18号盈科摄影器材专卖店",
    "latitude": 30.59,
    "longitude": 114.3,
    "storeType": "合作体验点",
    "serviceTags": [],
    "openingHours": null,
    "phone": null
  },
  {
    "id": "1322",
    "brand": "Insta360",
    "storeName": "e·Fun Super（武汉SKP店）",
    "province": "湖北省",
    "city": "武汉市",
    "address": "汉街武汉SKP-3号门4楼E fun super",
    "latitude": 30.562715,
    "longitude": 114.344689,
    "storeType": "合作体验点",
    "serviceTags": [],
    "openingHours": null,
    "phone": "13007112592"
  },
  {
    "id": "1436",
    "brand": "Insta360",
    "storeName": "武汉若羽臣科技照材店",
    "province": "湖北省",
    "city": "武汉市",
    "address": "湖北省武汉市洪山区武汉市洪山区珞狮路352号附30京东电脑数码南湖澳新学院店",
    "latitude": 30.49,
    "longitude": 114.34,
    "storeType": "合作体验点",
    "serviceTags": [],
    "openingHours": null,
    "phone": null
  },
  {
    "id": "934",
    "brand": "Insta360",
    "storeName": "宜昌凯能数码科技照材店",
    "province": "湖北省",
    "city": "宜昌市",
    "address": "珍珠路53号",
    "latitude": 30.712345,
    "longitude": 111.293454,
    "storeType": "合作体验点",
    "serviceTags": [],
    "openingHours": null,
    "phone": null
  },
  {
    "id": "1222",
    "brand": "Insta360",
    "storeName": "襄阳现代城万鑫数码照材店",
    "province": "湖北省",
    "city": "襄阳市",
    "address": "春园路现代城三楼万鑫数码",
    "latitude": 32.058367,
    "longitude": 112.143747,
    "storeType": "合作体验点",
    "serviceTags": [],
    "openingHours": null,
    "phone": null
  },
  {
    "id": "1475",
    "brand": "Insta360",
    "storeName": "影石Insta360长沙万象城授权体验店",
    "province": "湖南省",
    "city": "长沙市",
    "address": "湖南省长沙市岳麓区桐梓坡路11号长沙万象城L135号DL102",
    "latitude": 28.22,
    "longitude": 112.96,
    "storeType": "授权专卖店",
    "serviceTags": [],
    "openingHours": "10：00-22：00",
    "phone": "19173739900"
  },
  {
    "id": "1493",
    "brand": "Insta360",
    "storeName": "影石Insta360长沙星城天地授权体验店",
    "province": "湖南省",
    "city": "长沙市",
    "address": "湖南省长沙市雨花区湘府东路二段398号步步高星城天地G层G041B商铺影石Insta360",
    "latitude": 28.12,
    "longitude": 113.02,
    "storeType": "授权专卖店",
    "serviceTags": [],
    "openingHours": "10.00-22.00",
    "phone": "19397987466"
  },
  {
    "id": "1351",
    "brand": "Insta360",
    "storeName": "影石Insta360长沙IFS授权体验店",
    "province": "湖南省",
    "city": "长沙市",
    "address": "解放西路188号IFS国际金融中心地下一层LG116A号商铺",
    "latitude": 28.198535,
    "longitude": 112.986454,
    "storeType": "授权专卖店",
    "serviceTags": [],
    "openingHours": "周一～周日10:00-22:00",
    "phone": "17373132601"
  },
  {
    "id": "1465",
    "brand": "Insta360",
    "storeName": "影石Insta360长沙科佳电脑城照材专卖店",
    "province": "湖南省",
    "city": "长沙市",
    "address": "湖南省长沙市芙蓉区朝阳街道车站中路21号科佳电脑城一楼（火车站对面）",
    "latitude": 28.2,
    "longitude": 113.02,
    "storeType": "授权专卖店",
    "serviceTags": [],
    "openingHours": "09:00-18:30",
    "phone": "15388090416"
  },
  {
    "id": "1574",
    "brand": "Insta360",
    "storeName": "影石Insta360湖南摄影城照材专卖店",
    "province": "湖南省",
    "city": "长沙市",
    "address": "湖南省长沙市芙蓉区解放东路湖南摄影城一楼138号影石Insta360照材专卖店",
    "latitude": 28.2,
    "longitude": 113.02,
    "storeType": "授权专卖店",
    "serviceTags": [],
    "openingHours": "9:00-18:00",
    "phone": "15973120697"
  },
  {
    "id": "1466",
    "brand": "Insta360",
    "storeName": "影石Insta360长沙高桥数码广场照材专卖店",
    "province": "湖南省",
    "city": "长沙市",
    "address": "湖南省长沙市雨花区高桥现代商贸城4栋1楼03号东门入口",
    "latitude": 28.18,
    "longitude": 113.03,
    "storeType": "授权专卖店",
    "serviceTags": [],
    "openingHours": "09:00-18:30",
    "phone": "15675881828"
  },
  {
    "id": "1290",
    "brand": "Insta360",
    "storeName": "影石Insta360长沙国储照材店",
    "province": "湖南省",
    "city": "长沙市",
    "address": "朝阳街道车站中路国储电脑城一楼二号",
    "latitude": 28.197267,
    "longitude": 113.016743,
    "storeType": "合作体验点",
    "serviceTags": [],
    "openingHours": null,
    "phone": null
  },
  {
    "id": "1434",
    "brand": "Insta360",
    "storeName": "长沙恒佳摄影器材有限公司",
    "province": "湖南省",
    "city": "长沙市",
    "address": "湖南省长沙市芙蓉区解放东路46号湖南摄影城一楼135-136号",
    "latitude": 28.2,
    "longitude": 113.02,
    "storeType": "合作体验点",
    "serviceTags": [],
    "openingHours": null,
    "phone": null
  },
  {
    "id": "1435",
    "brand": "Insta360",
    "storeName": "长沙群创照相器材有限公司",
    "province": "湖南省",
    "city": "长沙市",
    "address": "湖南省长沙市芙蓉区湖南省长沙市芙蓉区赛格摄影城 1A12B",
    "latitude": 28.2,
    "longitude": 113.02,
    "storeType": "合作体验点",
    "serviceTags": [],
    "openingHours": null,
    "phone": null
  },
  {
    "id": "1588",
    "brand": "Insta360",
    "storeName": "影石Insta360广州天河城授权体验店",
    "province": "广东省",
    "city": "广州市",
    "address": "广东省广州市天河区天河路208号天河城购物中心3楼323铺影石Insta360",
    "latitude": 23.14,
    "longitude": 113.33,
    "storeType": "授权专卖店",
    "serviceTags": [],
    "openingHours": "10：00-22：00",
    "phone": "15360003665"
  },
  {
    "id": "1561",
    "brand": "Insta360",
    "storeName": "影石Insta360广州琶洲保利授权体验店",
    "province": "广东省",
    "city": "广州市",
    "address": "广州市海珠区琶洲蟠龙新街2号保利广场购物中心1层1061铺",
    "latitude": 23.11,
    "longitude": 113.39,
    "storeType": "授权专卖店",
    "serviceTags": [],
    "openingHours": "10:00-22:00",
    "phone": "19128896236"
  },
  {
    "id": "1535",
    "brand": "Insta360",
    "storeName": "影石Insta360广州融创授权体验店",
    "province": "广东省",
    "city": "广州市",
    "address": "广东省广州市花都区凤凰北路63号融创茂一楼影石Insta360（1082铺）",
    "latitude": 23.43,
    "longitude": 113.24,
    "storeType": "授权专卖店",
    "serviceTags": [],
    "openingHours": "10：00-22：00",
    "phone": "15899955380"
  },
  {
    "id": "1355",
    "brand": "Insta360",
    "storeName": "影石Insta360广州广州塔广场授权体验店",
    "province": "广东省",
    "city": "广州市",
    "address": "广州塔路8号广州塔广场负一层B108商铺",
    "latitude": 23.11044,
    "longitude": 113.331202,
    "storeType": "授权专卖店",
    "serviceTags": [],
    "openingHours": "周一～周日10:00-22:00",
    "phone": "19926007927"
  },
  {
    "id": "1339",
    "brand": "Insta360",
    "storeName": "影石Insta360广州番禺天河城授权体验店",
    "province": "广东省",
    "city": "广州市",
    "address": "汉溪大道东366号",
    "latitude": 23.009681,
    "longitude": 113.354503,
    "storeType": "授权专卖店",
    "serviceTags": [],
    "openingHours": "周一～周日10:00-22:00",
    "phone": "13360560983"
  },
  {
    "id": "1383",
    "brand": "Insta360",
    "storeName": "影石Insta360广州百脑汇照材专卖店",
    "province": "广东省",
    "city": "广州市",
    "address": "广东省广州市天河区天河路598号百脑汇1B12(影石insta)",
    "latitude": 23.8,
    "longitude": 113.2,
    "storeType": "授权专卖店",
    "serviceTags": [],
    "openingHours": "周一～周日9:30-21:00",
    "phone": "13184899989"
  },
  {
    "id": "1264",
    "brand": "Insta360",
    "storeName": "广州市越秀区忠忠摄影器材行",
    "province": "广东省",
    "city": "广州市",
    "address": "大沙头路西菜地15号",
    "latitude": 23.122673,
    "longitude": 113.290963,
    "storeType": "合作体验点",
    "serviceTags": [],
    "openingHours": null,
    "phone": "18122751607"
  },
  {
    "id": "1453",
    "brand": "Insta360",
    "storeName": "OPPO｜一加 旗舰店(广州正佳店)",
    "province": "广东省",
    "city": "广州市",
    "address": "广东省广州市天河区天河南街道 天河路228号正佳广场1A003/020、1A002、1A021-22",
    "latitude": 23.133211,
    "longitude": 113.327453,
    "storeType": "合作体验点",
    "serviceTags": [],
    "openingHours": "10:00:00~22:00:00",
    "phone": "020-88138500"
  },
  {
    "id": "1456",
    "brand": "Insta360",
    "storeName": "广州润宇数码",
    "province": "广东省",
    "city": "广州市",
    "address": "广州市天河区天河路502号天河电脑城一楼Z160-161铺",
    "latitude": 23.133211,
    "longitude": 113.327453,
    "storeType": "合作体验点",
    "serviceTags": [],
    "openingHours": null,
    "phone": "13600076277"
  },
  {
    "id": "1449",
    "brand": "Insta360",
    "storeName": "OPPO官方授权服务体验中心(广州越秀区中华广场店)",
    "province": "广东省",
    "city": "广州市",
    "address": "广东省广州市越秀区东山街道中山三路33号中华广场4楼4026/4027铺",
    "latitude": 23.125566,
    "longitude": 113.281976,
    "storeType": "合作体验点",
    "serviceTags": [],
    "openingHours": "10:00~22:00",
    "phone": "020-83738896"
  },
  {
    "id": "1451",
    "brand": "Insta360",
    "storeName": "OPPO官方授权体验店(广州天河区时尚天河店)",
    "province": "广东省",
    "city": "广州市",
    "address": "广东省广州市天河区天河南街道天河路299号体育中心负一层东二街006B商铺",
    "latitude": 23.134059,
    "longitude": 113.325274,
    "storeType": "合作体验点",
    "serviceTags": [],
    "openingHours": "10:00:00~22:00:00",
    "phone": "18924327252"
  },
  {
    "id": "1450",
    "brand": "Insta360",
    "storeName": "OPPO官方授权体验店(广州白云区金铂广场龙归店)",
    "province": "广东省",
    "city": "广州市",
    "address": "东省广州市白云区太和镇龙归龙岗路一号金铂广场一楼150A铺",
    "latitude": 23.267468,
    "longitude": 113.2941,
    "storeType": "合作体验点",
    "serviceTags": [],
    "openingHours": "10:00~22:00",
    "phone": "19128902259"
  },
  {
    "id": "1452",
    "brand": "Insta360",
    "storeName": "OPPO官方授权体验店(广州白云区嘉禾金铂天地店)",
    "province": "广东省",
    "city": "广州市",
    "address": "广东省广州市白云区嘉禾街道金铂广场鹤龙二路85号金铂广场一楼131号铺",
    "latitude": 23.239528,
    "longitude": 113.282014,
    "storeType": "合作体验点",
    "serviceTags": [],
    "openingHours": "10:00:00~22:00:00",
    "phone": "18688894292"
  },
  {
    "id": "508",
    "brand": "Insta360",
    "storeName": "广州太古",
    "province": "广东省",
    "city": "广州市",
    "address": "天河路与天河东路交界处太古汇商场M层M12商铺（顺电）",
    "latitude": 23.140343,
    "longitude": 113.338335,
    "storeType": "合作体验点",
    "serviceTags": [],
    "openingHours": null,
    "phone": null
  },
  {
    "id": "732",
    "brand": "Insta360",
    "storeName": "盛贤摄影器材城店",
    "province": "广东省",
    "city": "广州市",
    "address": "大沙头二马路盛贤摄影器材城C3-11档",
    "latitude": 23.123142,
    "longitude": 113.29044,
    "storeType": "合作体验点",
    "serviceTags": [],
    "openingHours": null,
    "phone": null
  },
  {
    "id": "1589",
    "brand": "Insta360",
    "storeName": "广东韶关风度名城广场影石授权售点",
    "province": "广东省",
    "city": "韶关市",
    "address": "广东省韶关市浈江区解放路1号风度名城1层1D006号Apple官方授权店",
    "latitude": 24.805278,
    "longitude": 113.606392,
    "storeType": "合作体验点",
    "serviceTags": [],
    "openingHours": null,
    "phone": "0751-8894688"
  },
  {
    "id": "1224",
    "brand": "Insta360",
    "storeName": "影石Insta360深圳壹方城直营店",
    "province": "广东省",
    "city": "深圳市",
    "address": "新安街道壹方城购物中心B2-054影石Insta360",
    "latitude": 22.558666,
    "longitude": 113.894113,
    "storeType": "直营店",
    "serviceTags": [],
    "openingHours": "周日～周四10:00-22:00 周五～周六10:00-22:30",
    "phone": "19925294205"
  },
  {
    "id": "1390",
    "brand": "Insta360",
    "storeName": "影石Insta360深圳机场直营店",
    "province": "广东省",
    "city": "深圳市",
    "address": "深圳宝安国际机场T3航站楼3C-01-01",
    "latitude": 22.63381,
    "longitude": 113.81804,
    "storeType": "直营店",
    "serviceTags": [],
    "openingHours": "7:00-22:30",
    "phone": "19068088793"
  },
  {
    "id": "1330",
    "brand": "Insta360",
    "storeName": "影石Insta360深圳壹方汇直营店",
    "province": "广东省",
    "city": "深圳市",
    "address": "听海大道5059号前海壹方汇购物中心一楼3号门旁影石Insta360",
    "latitude": 22.535459,
    "longitude": 113.903148,
    "storeType": "直营店",
    "serviceTags": [],
    "openingHours": "周一～周日10:00-22:00",
    "phone": "15361601817"
  },
  {
    "id": "1337",
    "brand": "Insta360",
    "storeName": "影石Insta360深圳龙华壹方天地授权体验店",
    "province": "广东省",
    "city": "深圳市",
    "address": "龙华街道3639号壹方天地C区LG-005",
    "latitude": 22.650784,
    "longitude": 114.03583,
    "storeType": "授权专卖店",
    "serviceTags": [],
    "openingHours": "周一～周日10:00-22:00",
    "phone": "19075357190"
  },
  {
    "id": "1412",
    "brand": "Insta360",
    "storeName": "影石Insta360深圳大悦城授权体验店",
    "province": "广东省",
    "city": "深圳市",
    "address": "广东省深圳市宝安区新安街道创业二路与前进一路交会处宝安大悦城L101",
    "latitude": 22.575287,
    "longitude": 113.908874,
    "storeType": "授权专卖店",
    "serviceTags": [],
    "openingHours": "10：00-22：00",
    "phone": "18118752596"
  },
  {
    "id": "1461",
    "brand": "Insta360",
    "storeName": "影石Insta360深圳海岸城授权体验店",
    "province": "广东省",
    "city": "深圳市",
    "address": "深圳市南山区粤海街道办文心五路33号海岸城购物广场2层279-280店铺",
    "latitude": 22.52,
    "longitude": 113.94,
    "storeType": "授权专卖店",
    "serviceTags": [],
    "openingHours": "10:00-22:00",
    "phone": "18923716021"
  },
  {
    "id": "1500",
    "brand": "Insta360",
    "storeName": "影石Insta360深圳大运天地授权体验店",
    "province": "广东省",
    "city": "深圳市",
    "address": "广东省深圳市龙岗区龙翔大道3001号深圳大运天地LG中岛店铺  LG层和L1层的位置",
    "latitude": 22.7,
    "longitude": 114.22,
    "storeType": "授权专卖店",
    "serviceTags": [],
    "openingHours": "10：00-22：00",
    "phone": "18123756437"
  },
  {
    "id": "1356",
    "brand": "Insta360",
    "storeName": "影石Insta360深圳福田COCOPARK授权体验店",
    "province": "广东省",
    "city": "深圳市",
    "address": "福华三路268号福田星河COCO Park购物中心北区负一楼 B1-127A",
    "latitude": 22.539623,
    "longitude": 114.060805,
    "storeType": "授权专卖店",
    "serviceTags": [],
    "openingHours": "周一～周日10:00-22:00",
    "phone": "18145767381"
  },
  {
    "id": "1405",
    "brand": "Insta360",
    "storeName": "影石Insta360深圳KK ONE授权体验店",
    "province": "广东省",
    "city": "深圳市",
    "address": "广东省深圳市福田区滨河大道9289号福田KKONE商场（京基滨河时代广场）L103",
    "latitude": 22.534179,
    "longitude": 114.033272,
    "storeType": "授权专卖店",
    "serviceTags": [],
    "openingHours": "10：00-22：00",
    "phone": "18570265225"
  },
  {
    "id": "1479",
    "brand": "Insta360",
    "storeName": "影石Insta360深圳深业上城授权体验店",
    "province": "广东省",
    "city": "深圳市",
    "address": "广东深圳市福田区皇岗路5001号深业上城L2-233店铺",
    "latitude": 22.56,
    "longitude": 114.08,
    "storeType": "授权专卖店",
    "serviceTags": [],
    "openingHours": "10:00-22:00",
    "phone": "13332968325"
  },
  {
    "id": "1378",
    "brand": "Insta360",
    "storeName": "影石Insta360深圳新华强照材专卖店",
    "province": "广东省",
    "city": "深圳市",
    "address": "深圳市福田区华强北路华强电子2店三楼q3c128房间，李先生",
    "latitude": 22.54871,
    "longitude": 114.092656,
    "storeType": "授权专卖店",
    "serviceTags": [],
    "openingHours": "周一～周日 9:30-19:10",
    "phone": "13544129994"
  },
  {
    "id": "1379",
    "brand": "Insta360",
    "storeName": "影石Insta360深圳新华强照材专卖店二店",
    "province": "广东省",
    "city": "深圳市",
    "address": "广东省深圳市福田区华强北新华强电子世界2店二楼Q2C099",
    "latitude": 22.54871,
    "longitude": 114.092656,
    "storeType": "授权专卖店",
    "serviceTags": [],
    "openingHours": "周一~周四 10：00-19：30 周五~周天 10：00-20：30",
    "phone": "15920046777"
  },
  {
    "id": "1485",
    "brand": "Insta360",
    "storeName": "影石Insta360深圳华强北赛格科技园照材专卖店",
    "province": "广东省",
    "city": "深圳市",
    "address": "广东省深圳市福田区华强北街道华强北路3018号",
    "latitude": 22.54871,
    "longitude": 114.092656,
    "storeType": "授权专卖店",
    "serviceTags": [],
    "openingHours": "10:00-22:00",
    "phone": "19926804416"
  },
  {
    "id": "1262",
    "brand": "Insta360",
    "storeName": "深圳领汇金摄影器材",
    "province": "广东省",
    "city": "深圳市",
    "address": "华强电子世界二店三楼h3b020-023",
    "latitude": 22.54871,
    "longitude": 114.092656,
    "storeType": "合作体验点",
    "serviceTags": [],
    "openingHours": null,
    "phone": null
  },
  {
    "id": "757",
    "brand": "Insta360",
    "storeName": "Z·Pilot黑科技旗舰店（南头古城）",
    "province": "广东省",
    "city": "深圳市",
    "address": "南头古城中山东路33号",
    "latitude": 22.549263,
    "longitude": 113.929704,
    "storeType": "合作体验点",
    "serviceTags": [],
    "openingHours": null,
    "phone": null
  },
  {
    "id": "535",
    "brand": "Insta360",
    "storeName": "万象城店",
    "province": "广东省",
    "city": "深圳市",
    "address": "宝安南路华润万象城5楼（顺电）",
    "latitude": 22.545504,
    "longitude": 114.117203,
    "storeType": "合作体验点",
    "serviceTags": [],
    "openingHours": null,
    "phone": null
  },
  {
    "id": "506",
    "brand": "Insta360",
    "storeName": "东门店",
    "province": "广东省",
    "city": "深圳市",
    "address": "深南东路2102号振华大厦1-2楼（顺电）",
    "latitude": 22.550509,
    "longitude": 114.129435,
    "storeType": "合作体验点",
    "serviceTags": [],
    "openingHours": null,
    "phone": null
  },
  {
    "id": "512",
    "brand": "Insta360",
    "storeName": "华强店",
    "province": "广东省",
    "city": "深圳市",
    "address": "华强北路上步工业区103栋（顺电）",
    "latitude": 22.553409,
    "longitude": 114.090414,
    "storeType": "合作体验点",
    "serviceTags": [],
    "openingHours": null,
    "phone": null
  },
  {
    "id": "532",
    "brand": "Insta360",
    "storeName": "太阳百货店",
    "province": "广东省",
    "city": "深圳市",
    "address": "解放路2001号利联太阳广场一期二楼（顺电）",
    "latitude": 22.5517,
    "longitude": 114.124997,
    "storeType": "合作体验点",
    "serviceTags": [],
    "openingHours": null,
    "phone": null
  },
  {
    "id": "502",
    "brand": "Insta360",
    "storeName": "布吉万象汇店",
    "province": "广东省",
    "city": "深圳市",
    "address": "布吉街道翔鸽路2号华润万象汇4层L452（顺电）",
    "latitude": 22.59918,
    "longitude": 114.137937,
    "storeType": "合作体验点",
    "serviceTags": [],
    "openingHours": null,
    "phone": null
  },
  {
    "id": "521",
    "brand": "Insta360",
    "storeName": "平安店",
    "province": "广东省",
    "city": "深圳市",
    "address": "福田街道福安社区益田路5033号（顺电）",
    "latitude": 22.539489,
    "longitude": 114.061991,
    "storeType": "合作体验点",
    "serviceTags": [],
    "openingHours": null,
    "phone": null
  },
  {
    "id": "520",
    "brand": "Insta360",
    "storeName": "欧洲城店",
    "province": "广东省",
    "city": "深圳市",
    "address": "北环大道与沙河东路交界处欧洲城迪卡侬二楼（顺电）",
    "latitude": 31.974437,
    "longitude": 120.899697,
    "storeType": "合作体验点",
    "serviceTags": [],
    "openingHours": null,
    "phone": null
  },
  {
    "id": "509",
    "brand": "Insta360",
    "storeName": "海岸城店",
    "province": "广东省",
    "city": "深圳市",
    "address": "文心五路33号海岸城购物中心负一层042号铺（顺电）",
    "latitude": 22.522692,
    "longitude": 113.942489,
    "storeType": "合作体验点",
    "serviceTags": [],
    "openingHours": null,
    "phone": null
  },
  {
    "id": "510",
    "brand": "Insta360",
    "storeName": "海雅缤纷城店",
    "province": "广东省",
    "city": "深圳市",
    "address": "建安一路99号海雅缤纷城518铺（香缤家乐福对面）（顺电）",
    "latitude": 22.566182,
    "longitude": 113.912419,
    "storeType": "合作体验点",
    "serviceTags": [],
    "openingHours": null,
    "phone": null
  },
  {
    "id": "522",
    "brand": "Insta360",
    "storeName": "深圳万象前海购物中心2店",
    "province": "广东省",
    "city": "深圳市",
    "address": "听海大道与桂湾四路交汇处L2(万象前海购物中心)（顺电）",
    "latitude": 22.537331,
    "longitude": 113.90636,
    "storeType": "合作体验点",
    "serviceTags": [],
    "openingHours": null,
    "phone": null
  },
  {
    "id": "536",
    "brand": "Insta360",
    "storeName": "深圳壹方城2店",
    "province": "广东省",
    "city": "深圳市",
    "address": "新湖路99号壹方城L3-033-D-E（顺电）",
    "latitude": 22.558656,
    "longitude": 113.894099,
    "storeType": "合作体验点",
    "serviceTags": [],
    "openingHours": null,
    "phone": null
  },
  {
    "id": "531",
    "brand": "Insta360",
    "storeName": "笋岗万象店",
    "province": "广东省",
    "city": "深圳市",
    "address": "梅园路南侧、桃园路北侧深圳笋岗万象汇L317,L318号铺（顺电）",
    "latitude": 22.566642,
    "longitude": 114.113908,
    "storeType": "合作体验点",
    "serviceTags": [],
    "openingHours": null,
    "phone": null
  },
  {
    "id": "511",
    "brand": "Insta360",
    "storeName": "花园城店",
    "province": "广东省",
    "city": "深圳市",
    "address": "蛇口南海大道花园城中心南区1-2楼（顺电）",
    "latitude": 22.507209,
    "longitude": 113.929694,
    "storeType": "合作体验点",
    "serviceTags": [],
    "openingHours": null,
    "phone": null
  },
  {
    "id": "507",
    "brand": "Insta360",
    "storeName": "观澜湖店",
    "province": "广东省",
    "city": "深圳市",
    "address": "观澜街道高尔夫大道8号观澜新城MHMALL（一期）1栋L2层L215216（顺电）",
    "latitude": 22.728677,
    "longitude": 114.083247,
    "storeType": "合作体验点",
    "serviceTags": [],
    "openingHours": null,
    "phone": null
  },
  {
    "id": "516",
    "brand": "Insta360",
    "storeName": "龙华壹方城店",
    "province": "广东省",
    "city": "深圳市",
    "address": "龙华街道景龙社区龙华大道3639号环智中心C座壹方天地C区L4-027（顺电）",
    "latitude": 22.652512,
    "longitude": 114.037758,
    "storeType": "合作体验点",
    "serviceTags": [],
    "openingHours": null,
    "phone": null
  },
  {
    "id": "515",
    "brand": "Insta360",
    "storeName": "龙岗万科店",
    "province": "广东省",
    "city": "深圳市",
    "address": "龙翔大道与德政路交界处万科广场3F-42号（顺电）",
    "latitude": 22.719822,
    "longitude": 114.249058,
    "storeType": "合作体验点",
    "serviceTags": [],
    "openingHours": null,
    "phone": null
  },
  {
    "id": "1268",
    "brand": "Insta360",
    "storeName": "广东珠海浩展科技有限公司",
    "province": "广东省",
    "city": "珠海市",
    "address": "香洲东风路32号",
    "latitude": 22.27814,
    "longitude": 113.585746,
    "storeType": "合作体验点",
    "serviceTags": [],
    "openingHours": null,
    "phone": null
  },
  {
    "id": "449",
    "brand": "Insta360",
    "storeName": "珠海华发商都旗舰店",
    "province": "广东省",
    "city": "珠海市",
    "address": "珠海大道8号华发商都B馆1层C01（UP+）",
    "latitude": 22.230924,
    "longitude": 113.517777,
    "storeType": "合作体验点",
    "serviceTags": [],
    "openingHours": null,
    "phone": null
  },
  {
    "id": "1523",
    "brand": "Insta360",
    "storeName": "影石Insta360佛山创意产业园授权专卖店",
    "province": "广东省",
    "city": "佛山市",
    "address": "广东省佛山市禅城区创意产业园33号楼122号",
    "latitude": 23.02,
    "longitude": 113.1,
    "storeType": "授权专卖店",
    "serviceTags": [],
    "openingHours": "13：00-21：00",
    "phone": "15304949991"
  },
  {
    "id": "1590",
    "brand": "Insta360",
    "storeName": "广东湛江霞山万达广场影石授权售点",
    "province": "广东省",
    "city": "湛江市",
    "address": "湛江市霞山区海滨大道128号万达广场一楼1058铺",
    "latitude": 21.254971,
    "longitude": 110.412344,
    "storeType": "合作体验点",
    "serviceTags": [],
    "openingHours": null,
    "phone": "0759-2834568"
  },
  {
    "id": "1591",
    "brand": "Insta360",
    "storeName": "广东肇庆端州星湖国际影石Ista360授权售点",
    "province": "广东省",
    "city": "肇庆市",
    "address": "肇庆市端州区端州四路10号星湖国际广场3楼(大润发超市入口旁)-炬旺",
    "latitude": 23.06243,
    "longitude": 112.478958,
    "storeType": "合作体验点",
    "serviceTags": [],
    "openingHours": null,
    "phone": null
  },
  {
    "id": "1492",
    "brand": "Insta360",
    "storeName": "影石Insta360惠州华贸授权体验店",
    "province": "广东省",
    "city": "惠州市",
    "address": "广东省惠州市惠城区华贸天地店铺L1-1142",
    "latitude": 23.11,
    "longitude": 114.42,
    "storeType": "授权专卖店",
    "serviceTags": [],
    "openingHours": "10：00-22：00",
    "phone": "18923645517"
  },
  {
    "id": "1486",
    "brand": "Insta360",
    "storeName": "影石Insta360东莞悠兰里街区授权专卖店",
    "province": "广东省",
    "city": "东莞市",
    "address": "广东省东莞市松山湖文化艺术街区B3-101铺 吴记春",
    "latitude": 22.92852,
    "longitude": 113.89308,
    "storeType": "授权专卖店",
    "serviceTags": [],
    "openingHours": "10:00-22:00",
    "phone": "0769-27287666"
  },
  {
    "id": "1530",
    "brand": "Insta360",
    "storeName": "影石Insta360中山大信新都汇授权体验店",
    "province": "广东省",
    "city": "中山市",
    "address": "中山市石岐区莲员东路2号首层1FB15号商铺",
    "latitude": 22.54,
    "longitude": 113.39,
    "storeType": "授权专卖店",
    "serviceTags": [],
    "openingHours": "10:00~22:00",
    "phone": "18144953592"
  },
  {
    "id": "1347",
    "brand": "Insta360",
    "storeName": "影石Insta360中山石歧万象汇授权体验店",
    "province": "广东省",
    "city": "中山市",
    "address": "石岐万象汇 LG128",
    "latitude": 22.526875,
    "longitude": 113.395056,
    "storeType": "授权专卖店",
    "serviceTags": [],
    "openingHours": "周日～周四 10:00-22:00 周五～周六 10:00-22:30",
    "phone": "18144953592"
  },
  {
    "id": "1372",
    "brand": "Insta360",
    "storeName": "影石Insta360南宁万锦电脑城照材专区",
    "province": "广西壮族自治区",
    "city": "南宁市",
    "address": "广西南宁市青秀区星湖北一里万锦电脑城1A07、1A10铺",
    "latitude": 22.813308,
    "longitude": 108.346669,
    "storeType": "授权专卖店",
    "serviceTags": [],
    "openingHours": null,
    "phone": "15977703464"
  },
  {
    "id": "1386",
    "brand": "Insta360",
    "storeName": "南宁光驿摄影",
    "province": "广西壮族自治区",
    "city": "南宁市",
    "address": "广西南宁市青秀区古城路2-8号星湖电影院一层111-6号光驿摄影",
    "latitude": 22.812834,
    "longitude": 108.343158,
    "storeType": "合作体验点",
    "serviceTags": [],
    "openingHours": null,
    "phone": "13377189715"
  },
  {
    "id": "755",
    "brand": "Insta360",
    "storeName": "广西未来智驾汽车贸易有限公司",
    "province": "广西壮族自治区",
    "city": "南宁市",
    "address": "星湖路14号南宁电子科技广场1号楼5楼",
    "latitude": 22.812263,
    "longitude": 108.346001,
    "storeType": "合作体验点",
    "serviceTags": [],
    "openingHours": null,
    "phone": null
  },
  {
    "id": "1511",
    "brand": "Insta360",
    "storeName": "影石Insta360柳州万象城授权体验店",
    "province": "广西壮族自治区",
    "city": "柳州市",
    "address": "广西省柳州市鱼峰区文昌路17号柳州万象城",
    "latitude": 24.33,
    "longitude": 109.46,
    "storeType": "授权专卖店",
    "serviceTags": [],
    "openingHours": "10：00-22：00",
    "phone": "19101120360"
  },
  {
    "id": "1507",
    "brand": "Insta360",
    "storeName": "影石Insta360桂林万象城授权体验店",
    "province": "广西壮族自治区",
    "city": "桂林市",
    "address": "广西省桂林市秀峰区红岭路1号桂林万象城L153影石Insta360",
    "latitude": 25.27,
    "longitude": 110.28,
    "storeType": "授权专卖店",
    "serviceTags": [],
    "openingHours": "10：00-22：00",
    "phone": "19111445159"
  },
  {
    "id": "1573",
    "brand": "Insta360",
    "storeName": "影石Insta360海口天街授权体验店",
    "province": "海南省",
    "city": "海口市",
    "address": "海南省海口市龙华区南海大道15号龙湖海口天街C-1F-29",
    "latitude": 20.0,
    "longitude": 110.34,
    "storeType": "授权专卖店",
    "serviceTags": [],
    "openingHours": "10:00-22:00",
    "phone": "18689511411"
  },
  {
    "id": "1373",
    "brand": "Insta360",
    "storeName": "三亚腾越数码",
    "province": "海南省",
    "city": "三亚市",
    "address": "海南三亚市天涯区新风街237号创业大厦",
    "latitude": 18.25774,
    "longitude": 109.514027,
    "storeType": "合作体验点",
    "serviceTags": [],
    "openingHours": null,
    "phone": "13876335389"
  },
  {
    "id": "1374",
    "brand": "Insta360",
    "storeName": "三亚硕展（京东电脑数码）",
    "province": "海南省",
    "city": "三亚市",
    "address": "海南省三亚市天涯区新风街74号",
    "latitude": 18.256836,
    "longitude": 109.512888,
    "storeType": "合作体验点",
    "serviceTags": [],
    "openingHours": null,
    "phone": "13637536901"
  },
  {
    "id": "1375",
    "brand": "Insta360",
    "storeName": "海南锐度电子科技有限公司（千卓）",
    "province": "海南省",
    "city": "三亚市",
    "address": "三亚市天涯区新风街创新电脑城一楼千卓数码",
    "latitude": 18.256648,
    "longitude": 109.511503,
    "storeType": "合作体验点",
    "serviceTags": [],
    "openingHours": null,
    "phone": "13518863799"
  },
  {
    "id": "1397",
    "brand": "Insta360",
    "storeName": "影石Insta360重庆来福士授权专卖店",
    "province": "重庆市",
    "city": "市辖区",
    "address": "重庆市渝中区嘉陵江滨江路5号重庆来福士L1-62号",
    "latitude": 29.571063,
    "longitude": 106.593629,
    "storeType": "授权专卖店",
    "serviceTags": [],
    "openingHours": "10:00-22:00",
    "phone": "13983092469"
  },
  {
    "id": "1473",
    "brand": "Insta360",
    "storeName": "影石Insta360重庆时代天街授权体验店",
    "province": "重庆市",
    "city": "市辖区",
    "address": "重庆市渝中区长江二路174号时代天街C馆L-22号",
    "latitude": 29.54,
    "longitude": 106.52,
    "storeType": "授权专卖店",
    "serviceTags": [],
    "openingHours": "10:00-22:00",
    "phone": "15310326067"
  },
  {
    "id": "1477",
    "brand": "Insta360",
    "storeName": "影石Insta360重庆来福士授权体验店",
    "province": "重庆市",
    "city": "市辖区",
    "address": "重庆市渝中区嘉陵江滨江路5号重庆来福士L1-62号",
    "latitude": 29.57,
    "longitude": 106.59,
    "storeType": "授权专卖店",
    "serviceTags": [],
    "openingHours": "10:00-22:00",
    "phone": "13983092469"
  },
  {
    "id": "1504",
    "brand": "Insta360",
    "storeName": "影石Insta360重庆光环花园城授权体验店",
    "province": "重庆市",
    "city": "市辖区",
    "address": "重庆市 渝北区 同茂大道236号光环花园城A区-L1层-9号铺位影石insta360授权体验店",
    "latitude": 29.73,
    "longitude": 106.6,
    "storeType": "授权专卖店",
    "serviceTags": [],
    "openingHours": "9：30-22：00",
    "phone": "19389358580"
  },
  {
    "id": "1288",
    "brand": "Insta360",
    "storeName": "影石Insta360重庆万象城授权体验店",
    "province": "重庆市",
    "city": "市辖区",
    "address": "谢家湾正街51、53号重庆万象城DLG16号商铺",
    "latitude": 29.522704,
    "longitude": 106.525426,
    "storeType": "授权专卖店",
    "serviceTags": [],
    "openingHours": "周日～周四10:00-22:00 周五～周六及节假日10:00-22:30",
    "phone": "15086883642"
  },
  {
    "id": "1478",
    "brand": "Insta360",
    "storeName": "影石Insta360重庆国泰广场授权专卖店",
    "province": "重庆市",
    "city": "市辖区",
    "address": "重庆市渝中区邹容路108号国泰广场第 负2层（B2层）钻石中庭C",
    "latitude": 29.57,
    "longitude": 106.58,
    "storeType": "授权专卖店",
    "serviceTags": [],
    "openingHours": "10:00-22:00",
    "phone": "18983617081"
  },
  {
    "id": "1419",
    "brand": "Insta360",
    "storeName": "影石Insta360重庆百脑汇照材专卖店",
    "province": "重庆市",
    "city": "市辖区",
    "address": "重庆市九龙坡区石桥铺百脑汇电脑城1B03 影石专卖店",
    "latitude": 29.54,
    "longitude": 106.49,
    "storeType": "授权专卖店",
    "serviceTags": [],
    "openingHours": "周一9：00-周日18:30",
    "phone": "17745084482"
  },
  {
    "id": "1487",
    "brand": "Insta360",
    "storeName": "影石Insta360重庆石桥铺赛博广场照材专卖店",
    "province": "重庆市",
    "city": "市辖区",
    "address": "重庆市九龙坡区渝州路6号石桥铺赛博数码广场1楼1013",
    "latitude": 29.54,
    "longitude": 106.49,
    "storeType": "授权专卖店",
    "serviceTags": [],
    "openingHours": "9:30-18:30",
    "phone": "18723482272"
  },
  {
    "id": "1420",
    "brand": "Insta360",
    "storeName": "影石Insta360重庆观音桥赛博数码广场照材专卖店",
    "province": "重庆市",
    "city": "市辖区",
    "address": "重庆市江北区观音桥步行街5号芯赛博1F-1014",
    "latitude": 29.58,
    "longitude": 106.54,
    "storeType": "授权专卖店",
    "serviceTags": [],
    "openingHours": "10:00-21:00",
    "phone": "18723385175"
  },
  {
    "id": "1413",
    "brand": "Insta360",
    "storeName": "影石Insta360成都环球中心授权体验店",
    "province": "四川省",
    "city": "成都市",
    "address": "四川省成都市武侯区天府大道北段1700号环球中心1F",
    "latitude": 30.574844,
    "longitude": 104.069852,
    "storeType": "授权专卖店",
    "serviceTags": [],
    "openingHours": "10:00-22:00",
    "phone": "19960371882"
  },
  {
    "id": "1444",
    "brand": "Insta360",
    "storeName": "影石Insta360成都IFS授权体验店",
    "province": "四川省",
    "city": "成都市",
    "address": "四川省成都市锦江区红星路三段1号IFS六层L644K号商铺",
    "latitude": 30.66,
    "longitude": 104.09,
    "storeType": "授权专卖店",
    "serviceTags": [],
    "openingHours": "10:00-22:00",
    "phone": "18328524253"
  },
  {
    "id": "1510",
    "brand": "Insta360",
    "storeName": "影石Insta360成都天府和悦广场授权体验店",
    "province": "四川省",
    "city": "成都市",
    "address": "四川省成都市双流区四川省成都市双流区麓山大道二段199号天府和悦广场一楼中庭影石店",
    "latitude": 30.49,
    "longitude": 104.09,
    "storeType": "授权专卖店",
    "serviceTags": [],
    "openingHours": "10：00-22：00",
    "phone": "15208244550"
  },
  {
    "id": "1585",
    "brand": "Insta360",
    "storeName": "影石Insta360成都科华王府井授权体验店",
    "province": "四川省",
    "city": "成都市",
    "address": "四川省成都市武侯区科华路王府井1楼-B13",
    "latitude": 30.62,
    "longitude": 104.08,
    "storeType": "授权专卖店",
    "serviceTags": [],
    "openingHours": "10：00-22：00",
    "phone": "19180684465"
  },
  {
    "id": "1508",
    "brand": "Insta360",
    "storeName": "影石Insta360成都SKP授权体验店",
    "province": "四川省",
    "city": "成都市",
    "address": "四川省成都市武侯区天府大道北段skp K大道中岛 insta360影石专卖店",
    "latitude": 30.58,
    "longitude": 104.07,
    "storeType": "授权专卖店",
    "serviceTags": [],
    "openingHours": "10.30-22.30",
    "phone": "15928541284"
  },
  {
    "id": "1505",
    "brand": "Insta360",
    "storeName": "影石Insta360成都龙泉世茂广场授权体验店",
    "province": "四川省",
    "city": "成都市",
    "address": "四川省成都市龙泉驿区大面街道金枫路833号15栋1层152号L1-52店铺",
    "latitude": 30.59,
    "longitude": 104.2,
    "storeType": "授权专卖店",
    "serviceTags": [],
    "openingHours": "10:00-22:00",
    "phone": "17828411306"
  },
  {
    "id": "1328",
    "brand": "Insta360",
    "storeName": "影石Insta360成都大悦城授权体验店",
    "province": "四川省",
    "city": "成都市",
    "address": "大悦城购物中心1F-D11号",
    "latitude": 30.632063,
    "longitude": 104.017691,
    "storeType": "授权专卖店",
    "serviceTags": [],
    "openingHours": "周一～周日10:00-22:00",
    "phone": "18284470815"
  },
  {
    "id": "1404",
    "brand": "Insta360",
    "storeName": "影石Insta360成都金楠天街授权体验店",
    "province": "四川省",
    "city": "成都市",
    "address": "四川省成都市武侯区晋阳路龙湖金楠天街 1F-26号铺位",
    "latitude": 30.654224,
    "longitude": 104.002724,
    "storeType": "授权专卖店",
    "serviceTags": [],
    "openingHours": "10:00-22:00",
    "phone": "18349155695"
  },
  {
    "id": "1445",
    "brand": "Insta360",
    "storeName": "影石Insta360成都西宸天街授权体验店",
    "province": "四川省",
    "city": "成都市",
    "address": "四川省成都市金牛区花照壁西顺街399号附115号1层A馆1F-15号",
    "latitude": 30.7,
    "longitude": 104.04,
    "storeType": "授权专卖店",
    "serviceTags": [],
    "openingHours": "10:00-22:00",
    "phone": "18482332045"
  },
  {
    "id": "1381",
    "brand": "Insta360",
    "storeName": "影石Insta360成都金牛凯德授权体验店",
    "province": "四川省",
    "city": "成都市",
    "address": "金牛区九里堤街道凯德广场",
    "latitude": 30.709695,
    "longitude": 104.050963,
    "storeType": "授权专卖店",
    "serviceTags": [],
    "openingHours": "周一～周日10:00-22:00",
    "phone": "13408447177"
  },
  {
    "id": "1292",
    "brand": "Insta360",
    "storeName": "影石Insta360成都万象城授权体验店",
    "province": "四川省",
    "city": "成都市",
    "address": "双庆路8号成都万象城C馆二楼215",
    "latitude": 30.653804,
    "longitude": 104.122527,
    "storeType": "授权专卖店",
    "serviceTags": [],
    "openingHours": "周日～周四10:00-22:00 周五～周六及节假日10:00-22:30",
    "phone": "15802883480"
  },
  {
    "id": "1494",
    "brand": "Insta360",
    "storeName": "影石Insta360成都滨江天街授权体验店",
    "province": "四川省",
    "city": "成都市",
    "address": "四川省成都市成华区滨江天街L1-54号",
    "latitude": 30.67,
    "longitude": 104.13,
    "storeType": "授权专卖店",
    "serviceTags": [],
    "openingHours": "9.30-22.00",
    "phone": "17323179361"
  },
  {
    "id": "1446",
    "brand": "Insta360",
    "storeName": "影石Insta360成都温江合生汇授权体验店",
    "province": "四川省",
    "city": "成都市",
    "address": "四川省成都市温江区光华大道三段1588号1栋附101号成都合生汇L1层L1-E1-18号",
    "latitude": 30.69,
    "longitude": 103.87,
    "storeType": "授权专卖店",
    "serviceTags": [],
    "openingHours": "10:00-22:00",
    "phone": "17828133776"
  },
  {
    "id": "1533",
    "brand": "Insta360",
    "storeName": "影石Insta360成都天府艺术公园授权专卖店",
    "province": "四川省",
    "city": "成都市",
    "address": "四川省成都市金牛区北三环路一段111-113号天府艺术公园111号索尼SONY",
    "latitude": 30.72,
    "longitude": 104.03,
    "storeType": "授权专卖店",
    "serviceTags": [],
    "openingHours": null,
    "phone": null
  },
  {
    "id": "1421",
    "brand": "Insta360",
    "storeName": "影石Insta360成都数码广场照材专卖店A",
    "province": "四川省",
    "city": "成都市",
    "address": "四川省成都市武侯区人民南路四段1号数码广场1楼a8b 13908203715",
    "latitude": 30.64,
    "longitude": 104.07,
    "storeType": "授权专卖店",
    "serviceTags": [],
    "openingHours": "9:00-18:00",
    "phone": "13908203715"
  },
  {
    "id": "1423",
    "brand": "Insta360",
    "storeName": "影石Insta360成都华凌摄影城照材专卖店",
    "province": "四川省",
    "city": "成都市",
    "address": "四川省成都市金牛区文家巷12号华凌婚纱摄影器材城一楼A27",
    "latitude": 30.69,
    "longitude": 104.05,
    "storeType": "授权专卖店",
    "serviceTags": [],
    "openingHours": "9:00-18:30",
    "phone": "19108190448"
  },
  {
    "id": "1517",
    "brand": "Insta360",
    "storeName": "影石Insta360成都A世界照材专卖店",
    "province": "四川省",
    "city": "成都市",
    "address": "四川省成都市武侯区一环路南二段17号A世界电脑商城一楼001号",
    "latitude": 30.64,
    "longitude": 104.07,
    "storeType": "授权专卖店",
    "serviceTags": [],
    "openingHours": "9.30-18.00",
    "phone": "18123306865"
  },
  {
    "id": "1522",
    "brand": "Insta360",
    "storeName": "影石Insta360成都数码广场照材专卖店B",
    "province": "四川省",
    "city": "成都市",
    "address": "四川省成都市武侯区人民南路四段1号数码广场1楼B11",
    "latitude": 30.64,
    "longitude": 104.07,
    "storeType": "授权专卖店",
    "serviceTags": [],
    "openingHours": "9:00-18:00",
    "phone": "18010587558"
  },
  {
    "id": "1422",
    "brand": "Insta360",
    "storeName": "成都数码广场照材店B",
    "province": "四川省",
    "city": "成都市",
    "address": "四川省成都市武侯区人民南路四段1号 成都数码广场一楼 B11-B13",
    "latitude": 30.64,
    "longitude": 104.07,
    "storeType": "授权专卖店",
    "serviceTags": [],
    "openingHours": "9:00-18:30",
    "phone": "13808028046"
  },
  {
    "id": "504",
    "brand": "Insta360",
    "storeName": "成都万象城分店",
    "province": "四川省",
    "city": "成都市",
    "address": "双庆路8号成都万象城4楼（顺电）",
    "latitude": 30.65547,
    "longitude": 104.122075,
    "storeType": "合作体验点",
    "serviceTags": [],
    "openingHours": null,
    "phone": null
  },
  {
    "id": "503",
    "brand": "Insta360",
    "storeName": "成都太古里店",
    "province": "四川省",
    "city": "成都市",
    "address": "中纱帽街8号成都远洋太古里负一层M062号（顺电）",
    "latitude": 30.659042,
    "longitude": 104.090075,
    "storeType": "合作体验点",
    "serviceTags": [],
    "openingHours": null,
    "phone": null
  },
  {
    "id": "1424",
    "brand": "Insta360",
    "storeName": "影石Insta360绵阳数码广场照材专卖店",
    "province": "四川省",
    "city": "绵阳市",
    "address": "四川省绵阳市涪城区数码广场1楼B2",
    "latitude": 31.47,
    "longitude": 104.75,
    "storeType": "授权专卖店",
    "serviceTags": [],
    "openingHours": "9:00-18:30",
    "phone": "13778147661"
  },
  {
    "id": "1311",
    "brand": "Insta360",
    "storeName": "宏盛电脑经营部",
    "province": "四川省",
    "city": "遂宁市",
    "address": "大东街78号",
    "latitude": 30.509408,
    "longitude": 105.587356,
    "storeType": "合作体验点",
    "serviceTags": [],
    "openingHours": null,
    "phone": null
  },
  {
    "id": "1313",
    "brand": "Insta360",
    "storeName": "乐山恒达数码",
    "province": "四川省",
    "city": "乐山市",
    "address": "嘉定北路99号 久顺广场1FA13",
    "latitude": 29.587718,
    "longitude": 103.772232,
    "storeType": "合作体验点",
    "serviceTags": [],
    "openingHours": null,
    "phone": null
  },
  {
    "id": "1503",
    "brand": "Insta360",
    "storeName": "影石Insta360宜宾万象天地授权体验店",
    "province": "四川省",
    "city": "宜宾市",
    "address": "四川省宜宾市叙州区香路6号万象宜宾天地NL111号影视Insta360",
    "latitude": 28.73,
    "longitude": 104.64,
    "storeType": "授权专卖店",
    "serviceTags": [],
    "openingHours": "10:00-22:30",
    "phone": "17761000280"
  },
  {
    "id": "1308",
    "brand": "Insta360",
    "storeName": "广安市城南钰辉数码店",
    "province": "四川省",
    "city": "广安市",
    "address": "凌云路27号速度户外",
    "latitude": 30.463996,
    "longitude": 106.647446,
    "storeType": "合作体验点",
    "serviceTags": [],
    "openingHours": null,
    "phone": null
  },
  {
    "id": "1309",
    "brand": "Insta360",
    "storeName": "巴州区锐新计算机经营部",
    "province": "四川省",
    "city": "巴中市",
    "address": "中南电脑城24号",
    "latitude": 31.858239,
    "longitude": 106.766972,
    "storeType": "合作体验点",
    "serviceTags": [],
    "openingHours": null,
    "phone": null
  },
  {
    "id": "1377",
    "brand": "Insta360",
    "storeName": "影石Insta360贵阳新大陆数码广场照材专卖店",
    "province": "贵州省",
    "city": "贵阳市",
    "address": "贵州省贵阳市南明区中华南路新大陆电脑城1楼影石专营店",
    "latitude": 26.581372,
    "longitude": 106.718916,
    "storeType": "授权专卖店",
    "serviceTags": [],
    "openingHours": null,
    "phone": "19011722242"
  },
  {
    "id": "1454",
    "brand": "Insta360",
    "storeName": "OPPO|一加 旗舰店（贵阳万象城店）",
    "province": "贵州省",
    "city": "贵阳市",
    "address": "贵州省贵阳市南明区遵义路街道万象城LG126+L119铺",
    "latitude": 26.560248,
    "longitude": 106.704624,
    "storeType": "合作体验点",
    "serviceTags": [],
    "openingHours": "周日-周四：10:00-22:00  周五-周六：10:00-22:30",
    "phone": "0851-85202024"
  },
  {
    "id": "1484",
    "brand": "Insta360",
    "storeName": "影石Insta360昆明恒隆授权体验店",
    "province": "云南省",
    "city": "昆明市",
    "address": "昆明市盘龙区东风东路恒隆广场负一楼B134A-1",
    "latitude": 25.04,
    "longitude": 102.73,
    "storeType": "授权专卖店",
    "serviceTags": [],
    "openingHours": "周一~周四10:00~22:00，周五~周日10:00~22:30",
    "phone": "18987877998"
  },
  {
    "id": "750",
    "brand": "Insta360",
    "storeName": "影石Insta360昆明佰腾数码广场照材专卖店",
    "province": "云南省",
    "city": "昆明市",
    "address": "云南省昆明市五华区圆通北路121号佰腾数码广场A座一楼B9a影石授权店",
    "latitude": 25.063306,
    "longitude": 102.712633,
    "storeType": "授权专卖店",
    "serviceTags": [],
    "openingHours": "9:30-18:00",
    "phone": "15287131837"
  },
  {
    "id": "1332",
    "brand": "Insta360",
    "storeName": "影石Insta360昆明顺城授权体验店",
    "province": "云南省",
    "city": "昆明市",
    "address": "东风西路11号顺城购物中心负一层B1-68号",
    "latitude": 25.041761,
    "longitude": 102.713809,
    "storeType": "授权专卖店",
    "serviceTags": [],
    "openingHours": "周日～周四10:00-22:00，周五～周六10:00-22:30",
    "phone": "13608815805"
  },
  {
    "id": "942",
    "brand": "Insta360",
    "storeName": "昆明华臻铂金店佳汇馆",
    "province": "云南省",
    "city": "昆明市",
    "address": "圆通北路121号佰腾数码广场一楼临街",
    "latitude": 25.063351,
    "longitude": 102.71264,
    "storeType": "合作体验点",
    "serviceTags": [],
    "openingHours": null,
    "phone": null
  },
  {
    "id": "1325",
    "brand": "Insta360",
    "storeName": "昆明云纺国际商厦店",
    "province": "云南省",
    "city": "昆明市",
    "address": "云纺国际商厦C座6楼62号",
    "latitude": 25.027287,
    "longitude": 102.716389,
    "storeType": "合作体验点",
    "serviceTags": [],
    "openingHours": null,
    "phone": "18908807140"
  },
  {
    "id": "679",
    "brand": "Insta360",
    "storeName": "昆明摩托装备授权体验店",
    "province": "云南省",
    "city": "昆明市",
    "address": "福保路1号1栋1层凯旋利车博汇安骑天下装备店",
    "latitude": 24.981067,
    "longitude": 102.725473,
    "storeType": "合作体验点",
    "serviceTags": [],
    "openingHours": null,
    "phone": null
  },
  {
    "id": "1471",
    "brand": "Insta360",
    "storeName": "影石Insta360西安万象城授权体验店",
    "province": "陕西省",
    "city": "西安市",
    "address": "陕西省西安市雁塔区长安南路街道2899号万象城2楼",
    "latitude": 34.2,
    "longitude": 108.96,
    "storeType": "授权专卖店",
    "serviceTags": [],
    "openingHours": "10:00-22:00",
    "phone": "17792900579"
  },
  {
    "id": "1472",
    "brand": "Insta360",
    "storeName": "影石Insta360西安赛格授权体验店",
    "province": "陕西省",
    "city": "西安市",
    "address": "陕西省西安市雁塔区小寨东路赛格国际购物中心2F",
    "latitude": 34.23,
    "longitude": 108.95,
    "storeType": "授权专卖店",
    "serviceTags": [],
    "openingHours": "10:00-22:00",
    "phone": "13319299791"
  },
  {
    "id": "1568",
    "brand": "Insta360",
    "storeName": "影石Insta360西安荟聚授权体验店",
    "province": "陕西省",
    "city": "西安市",
    "address": "西安市雁塔区子午大道6号西安荟聚中心(LG1)层 影石 Insta360",
    "latitude": 34.18,
    "longitude": 108.91,
    "storeType": "授权专卖店",
    "serviceTags": [],
    "openingHours": "10:00-22:00",
    "phone": "17391881158"
  },
  {
    "id": "1577",
    "brand": "Insta360",
    "storeName": "影石Insta360西安SKP授权体验店",
    "province": "陕西省",
    "city": "西安市",
    "address": "陕西省西安市碑林区长安北路261号SKP 4楼影石",
    "latitude": 34.25,
    "longitude": 108.96,
    "storeType": "授权专卖店",
    "serviceTags": [],
    "openingHours": "10：00-22：00",
    "phone": "13032931126"
  },
  {
    "id": "1497",
    "brand": "Insta360",
    "storeName": "影石Insta360西安DT51授权体验店",
    "province": "陕西省",
    "city": "西安市",
    "address": "陕西省西安市高新区唐延路69号陕西国际体育之窗DT51商场3楼Insta360专柜",
    "latitude": 34.21,
    "longitude": 108.9,
    "storeType": "授权专卖店",
    "serviceTags": [],
    "openingHours": "10:00-22:00",
    "phone": "17352684277"
  },
  {
    "id": "1463",
    "brand": "Insta360",
    "storeName": "影石Insta360西安百脑汇照材专卖店",
    "province": "陕西省",
    "city": "西安市",
    "address": "碑林区雁塔中路百脑汇电脑城一楼1E08影石Insta360专卖店",
    "latitude": 34.24,
    "longitude": 108.97,
    "storeType": "授权专卖店",
    "serviceTags": [],
    "openingHours": "9:00-18:30",
    "phone": "13669228897"
  },
  {
    "id": "1516",
    "brand": "Insta360",
    "storeName": "影石Insta360西安百瑞未来城照材专卖店",
    "province": "陕西省",
    "city": "西安市",
    "address": "陕西省西安市碑林区雁塔路中段58号西安百瑞未来城A区一楼影石Insta360店",
    "latitude": 34.24,
    "longitude": 108.97,
    "storeType": "授权专卖店",
    "serviceTags": [],
    "openingHours": "9：00-19：00",
    "phone": "17302912592"
  },
  {
    "id": "1540",
    "brand": "Insta360",
    "storeName": "影石Insta360西安鹏博大厦照材专卖店",
    "province": "陕西省",
    "city": "西安市",
    "address": "西安市碑林区雁塔路19号鹏博大厦1层B01",
    "latitude": 34.24,
    "longitude": 108.97,
    "storeType": "授权专卖店",
    "serviceTags": [],
    "openingHours": "9：30-19：30",
    "phone": "15929317811"
  },
  {
    "id": "1515",
    "brand": "Insta360",
    "storeName": "影石Insta360西安北部赛格广场照材专卖店",
    "province": "陕西省",
    "city": "西安市",
    "address": "陕西省西安市凤城二路赛格电子市场二楼a2060影石Insta360",
    "latitude": 34.32,
    "longitude": 108.95,
    "storeType": "授权专卖店",
    "serviceTags": [],
    "openingHours": "9.30-18.30",
    "phone": "17795830325"
  },
  {
    "id": "1357",
    "brand": "Insta360",
    "storeName": "西安业新恒创数码影石Insta360照材售点",
    "province": "陕西省",
    "city": "西安市",
    "address": "雁塔中路百脑汇一楼1E09室",
    "latitude": 34.241324,
    "longitude": 108.96966,
    "storeType": "合作体验点",
    "serviceTags": [],
    "openingHours": null,
    "phone": "13669228897"
  },
  {
    "id": "946",
    "brand": "Insta360",
    "storeName": "西安宏正兴旺赛格店",
    "province": "陕西省",
    "city": "西安市",
    "address": "赛格电脑城B4010室",
    "latitude": 34.239013,
    "longitude": 108.969807,
    "storeType": "合作体验点",
    "serviceTags": [],
    "openingHours": null,
    "phone": null
  },
  {
    "id": "1240",
    "brand": "Insta360",
    "storeName": "西安美邦照材售点",
    "province": "陕西省",
    "city": "西安市",
    "address": "雁塔路百瑞未来城1-07号",
    "latitude": 34.239015,
    "longitude": 108.969905,
    "storeType": "合作体验点",
    "serviceTags": [],
    "openingHours": null,
    "phone": null
  },
  {
    "id": "1358",
    "brand": "Insta360",
    "storeName": "西安齐趣乐享影石Insta360售点",
    "province": "陕西省",
    "city": "西安市",
    "address": "唐延路与科技七路交汇处高新万达广场三层3059号",
    "latitude": 34.214847,
    "longitude": 108.898862,
    "storeType": "合作体验点",
    "serviceTags": [],
    "openingHours": null,
    "phone": "19991290408"
  },
  {
    "id": "1243",
    "brand": "Insta360",
    "storeName": "西安元诚体验店",
    "province": "陕西省",
    "city": "西安市",
    "address": "雁塔路赛格电脑城4楼a4002",
    "latitude": 34.236925,
    "longitude": 108.96962,
    "storeType": "合作体验点",
    "serviceTags": [],
    "openingHours": null,
    "phone": null
  },
  {
    "id": "680",
    "brand": "Insta360",
    "storeName": "灞桥机车授权店",
    "province": "陕西省",
    "city": "西安市",
    "address": "华南城E1区12街2栋（伟业机车生活馆）",
    "latitude": 34.370557,
    "longitude": 109.057234,
    "storeType": "合作体验点",
    "serviceTags": [],
    "openingHours": null,
    "phone": null
  },
  {
    "id": "822",
    "brand": "Insta360",
    "storeName": "熙地港购物中心店",
    "province": "陕西省",
    "city": "西安市",
    "address": "未央路170号熙地港购物中心L1-001号店铺（尚派）",
    "latitude": 34.344528,
    "longitude": 108.951906,
    "storeType": "合作体验点",
    "serviceTags": [],
    "openingHours": null,
    "phone": null
  },
  {
    "id": "445",
    "brand": "Insta360",
    "storeName": "陕西西安钟楼店",
    "province": "陕西省",
    "city": "西安市",
    "address": "北大街22号中国电信",
    "latitude": 34.267303,
    "longitude": 108.953839,
    "storeType": "合作体验点",
    "serviceTags": [],
    "openingHours": null,
    "phone": null
  },
  {
    "id": "1495",
    "brand": "Insta360",
    "storeName": "影石Insta360兰州万象城授权体验店",
    "province": "甘肃省",
    "city": "兰州市",
    "address": "甘肃省兰州市城关区万象城L519号",
    "latitude": 36.06,
    "longitude": 103.85,
    "storeType": "授权专卖店",
    "serviceTags": [],
    "openingHours": "10：00-22：00",
    "phone": "19312959778"
  },
  {
    "id": "787",
    "brand": "Insta360",
    "storeName": "甘肃百恩商贸有限公司",
    "province": "甘肃省",
    "city": "兰州市",
    "address": "东岗东路2704号万商国际临街1楼108A",
    "latitude": 36.053014,
    "longitude": 103.879308,
    "storeType": "合作体验点",
    "serviceTags": [],
    "openingHours": null,
    "phone": null
  },
  {
    "id": "1569",
    "brand": "Insta360",
    "storeName": "影石Insta360西宁王府井授权体验店",
    "province": "青海省",
    "city": "西宁市",
    "address": "青海省西宁市城西区五四西路68号王府井大象城购物中心1F",
    "latitude": 36.65,
    "longitude": 101.73,
    "storeType": "授权专卖店",
    "serviceTags": [],
    "openingHours": "10:00-22:00",
    "phone": "18595182671"
  },
  {
    "id": "828",
    "brand": "Insta360",
    "storeName": "万达广场一层1030号店",
    "province": "青海省",
    "city": "西宁市",
    "address": "广场路1号万达广场一层1030号铺（尚派）",
    "latitude": 36.648626,
    "longitude": 101.722966,
    "storeType": "合作体验点",
    "serviceTags": [],
    "openingHours": null,
    "phone": null
  },
  {
    "id": "1496",
    "brand": "Insta360",
    "storeName": "影石Insta360银川阅彩城授权体验店",
    "province": "宁夏回族自治区",
    "city": "银川市",
    "address": "银川市金凤区正源北街 277 号 阅彩城项目 2 号楼 1 层 105A、105B 号商铺（影石）",
    "latitude": 38.52,
    "longitude": 106.26,
    "storeType": "授权专卖店",
    "serviceTags": [],
    "openingHours": "10：00-22：00",
    "phone": "17795183979"
  },
  {
    "id": "915",
    "brand": "Insta360",
    "storeName": "Targn太耕集物电子产品集合店",
    "province": "宁夏回族自治区",
    "city": "银川市",
    "address": "银川市金凤区正源北街277号建发阅彩城五层539号商铺（海底捞斜对面）",
    "latitude": 38.519488,
    "longitude": 106.262096,
    "storeType": "合作体验点",
    "serviceTags": [],
    "openingHours": null,
    "phone": null
  },
  {
    "id": "829",
    "brand": "Insta360",
    "storeName": "银川大阅城店",
    "province": "宁夏回族自治区",
    "city": "银川市",
    "address": "正源北街大阅城一层116号（尚派）",
    "latitude": 38.519488,
    "longitude": 106.262096,
    "storeType": "合作体验点",
    "serviceTags": [],
    "openingHours": null,
    "phone": null
  },
  {
    "id": "1427",
    "brand": "Insta360",
    "storeName": "影石Insta360新疆宏景数码广场照材专卖店",
    "province": "新疆维吾尔自治区",
    "city": "乌鲁木齐市",
    "address": "新疆乌鲁木齐天山区红旗路宏景数码广场C5C6",
    "latitude": 43.8,
    "longitude": 87.62,
    "storeType": "授权专卖店",
    "serviceTags": [],
    "openingHours": "9:00-21:00",
    "phone": "13319881259"
  },
  {
    "id": "1448",
    "brand": "Insta360",
    "storeName": "影石Insta360乌鲁木齐德汇万达授权体验店",
    "province": "新疆维吾尔自治区",
    "city": "乌鲁木齐市",
    "address": "新疆维吾尔自治区乌鲁木齐市沙依巴克区奇台路658号德汇万达一楼步行街-DJ/1步行街-015",
    "latitude": 43.8,
    "longitude": 87.59,
    "storeType": "授权专卖店",
    "serviceTags": [],
    "openingHours": "10:30-22:00",
    "phone": "17797832111"
  },
  {
    "id": "1284",
    "brand": "Insta360",
    "storeName": "新疆汇天润佳能店",
    "province": "新疆维吾尔自治区",
    "city": "乌鲁木齐市",
    "address": "红旗路宏景数码广场A-13 A-14",
    "latitude": 43.797896,
    "longitude": 87.623182,
    "storeType": "合作体验点",
    "serviceTags": [],
    "openingHours": null,
    "phone": null
  },
  {
    "id": "737",
    "brand": "Insta360",
    "storeName": "宏景数码店（A18）",
    "province": "新疆维吾尔自治区",
    "city": "乌鲁木齐市",
    "address": "红旗路宏景数码广场A18",
    "latitude": 43.797903,
    "longitude": 87.623274,
    "storeType": "合作体验点",
    "serviceTags": [],
    "openingHours": null,
    "phone": null
  },
  {
    "id": "736",
    "brand": "Insta360",
    "storeName": "宏景数码店（sony）",
    "province": "新疆维吾尔自治区",
    "city": "乌鲁木齐市",
    "address": "红旗路宏景数码广场sony专店",
    "latitude": 43.797903,
    "longitude": 87.623274,
    "storeType": "合作体验点",
    "serviceTags": [],
    "openingHours": null,
    "phone": null
  },
  {
    "id": "823",
    "brand": "Insta360",
    "storeName": "德汇万达广场店",
    "province": "新疆维吾尔自治区",
    "city": "乌鲁木齐市",
    "address": "奇台路720号德汇万达广场E栋一楼1035（尚派）",
    "latitude": 43.795238,
    "longitude": 87.592056,
    "storeType": "合作体验点",
    "serviceTags": [],
    "openingHours": null,
    "phone": null
  },
  {
    "id": "824",
    "brand": "Insta360",
    "storeName": "汇嘉时代广场店",
    "province": "新疆维吾尔自治区",
    "city": "乌鲁木齐市",
    "address": "新疆乌鲁木齐市北京中路147号汇嘉时代广场一层（尚派）",
    "latitude": 43.882018,
    "longitude": 87.563337,
    "storeType": "合作体验点",
    "serviceTags": [],
    "openingHours": null,
    "phone": null
  },
  {
    "id": "738",
    "brand": "Insta360",
    "storeName": "百花村国际信息大店",
    "province": "新疆维吾尔自治区",
    "city": "乌鲁木齐市",
    "address": "中山路百花村国际信息大厦14楼",
    "latitude": 43.799808,
    "longitude": 87.622647,
    "storeType": "合作体验点",
    "serviceTags": [],
    "openingHours": null,
    "phone": null
  },
  {
    "id": "739",
    "brand": "Insta360",
    "storeName": "美美购物中心店",
    "province": "新疆维吾尔自治区",
    "city": "乌鲁木齐市",
    "address": "友好北路MM2美美购物中心四楼403铺",
    "latitude": 43.826582,
    "longitude": 87.597418,
    "storeType": "合作体验点",
    "serviceTags": [],
    "openingHours": null,
    "phone": null
  },
  {
    "id": "744",
    "brand": "Insta360",
    "storeName": "百得电脑店",
    "province": "新疆维吾尔自治区",
    "city": "昌吉回族自治州",
    "address": "新疆奇台县华东古城新街8-1-5奇台百得电脑",
    "latitude": 44.014266,
    "longitude": 89.595388,
    "storeType": "合作体验点",
    "serviceTags": [],
    "openingHours": null,
    "phone": null
  },
  {
    "id": "740",
    "brand": "Insta360",
    "storeName": "克孜都维路赛特电脑城店",
    "province": "新疆维吾尔自治区",
    "city": "喀什地区",
    "address": "新疆喀什市克孜都维路赛特电脑城一楼112号",
    "latitude": 39.471813,
    "longitude": 75.984293,
    "storeType": "合作体验点",
    "serviceTags": [],
    "openingHours": null,
    "phone": null
  },
  {
    "id": "743",
    "brand": "Insta360",
    "storeName": "伊犁摄影图片社",
    "province": "新疆维吾尔自治区",
    "city": "伊犁哈萨克自治州",
    "address": "新疆伊宁市斯大林路60号伊犁摄影图片社",
    "latitude": 43.922552,
    "longitude": 81.329934,
    "storeType": "合作体验点",
    "serviceTags": [],
    "openingHours": null,
    "phone": null
  },
  {
    "id": "742",
    "brand": "Insta360",
    "storeName": "电脑城道通店",
    "province": "新疆维吾尔自治区",
    "city": "伊犁哈萨克自治州",
    "address": "新疆伊宁市迎宾路铜锣湾电脑城一楼1-08号",
    "latitude": 43.924255,
    "longitude": 81.333616,
    "storeType": "合作体验点",
    "serviceTags": [],
    "openingHours": null,
    "phone": null
  },
  {
    "id": "908",
    "brand": "Insta360",
    "storeName": "可可托海镇雪具店",
    "province": "新疆维吾尔自治区",
    "city": "阿勒泰地区",
    "address": "可可托海镇文化西路76-1号（兄弟滑雪雪具店）",
    "latitude": 47.226697,
    "longitude": 89.821864,
    "storeType": "合作体验点",
    "serviceTags": [],
    "openingHours": null,
    "phone": null
  }
]